[{"name":"Schubart-Gymnasium Partnerschule für Europa","id":"BW-75774","address":"Rombacher Straße 30, 73430 Aalen","school_type":"Gymnasium (G8)","school_type_entity":"Gymnasium","legal_status":1,"fax":"07361/9561-20","phone":"07361/9561-0","state":"BW","programs":{"programs":[]},"full_time_school":false,"lon":10.08184,"lat":48.838598},{"name":"Theodor-Heuss-Gymnasium","id":"BW-75810","address":"Friedrichstraße 70, 73430 Aalen","school_type":"Gymnasium (G9)","school_type_entity":"Gymnasium","legal_status":1,"fax":"07361/9560-50","phone":"07361/95603","state":"BW","programs":{"programs":["Be smart - don't Start","UNESCO Projektschulen"]},"full_time_school":false,"lon":10.08923,"lat":48.841283},{"name":"Theodor-Heuss-Gymnasium","id":"BW-75810","address":"Friedrichstraße 70, 73430 Aalen","school_type":"Gymnasium (G8)","school_type_entity":"Gymnasium","legal_status":1,"fax":"07361/9560-50","phone":"07361/95603","state":"BW","programs":{"programs":["Be smart - don't Start","UNESCO Projektschulen"]},"full_time_school":false,"lon":10.08923,"lat":48.841283},{"name":"Kopernikus-Gymnasium Wasseralfingen","id":"BW-75846","address":"Am Schäle 19, 73433 Aalen","school_type":"Gymnasium (G8)","school_type_entity":"Gymnasium","legal_status":1,"fax":"07361/977080","phone":"07361/97706","state":"BW","programs":{"programs":["Be smart - don't Start","Fairtrade Schools"]},"full_time_school":false,"lon":10.097729,"lat":48.869381},{"name":"Märike-Gymnasium","id":"BW-75849","address":"Karlstraße 19, 71638 Ludwigsburg","school_type":"Gymnasium (G9)","school_type_entity":"Gymnasium","legal_status":1,"fax":"07141/910-2653","phone":"07141/910-2339","state":"BW","programs":{"programs":["Schule ohne Rassismus - Schule mit Courage"]},"full_time_school":false,"lon":9.188984,"lat":48.892007},{"name":"Märike-Gymnasium","id":"BW-75849","address":"Karlstraße 19, 71638 Ludwigsburg","school_type":"Gymnasium (G8)","school_type_entity":"Gymnasium","legal_status":1,"fax":"07141/910-2653","phone":"07141/910-2339","state":"BW","programs":{"programs":["Schule ohne Rassismus - Schule mit Courage"]},"full_time_school":false,"lon":9.188984,"lat":48.892007},{"name":"Friedrich-List-Gymnasium Asperg","id":"BW-75885","address":"Lyonel-Feininger-Weg 3, 71679 Asperg","school_type":"Gymnasium (G8)","school_type_entity":"Gymnasium","legal_status":1,"fax":"07141/6812120","phone":"07141/6812110","state":"BW","programs":{"programs":[]},"full_time_school":false,"lon":9.134425,"lat":48.900504},{"name":"Max-Born-Gymnasium","id":"BW-75921","address":"Maubacher Straße 62, 71522 Backnang","school_type":"Gymnasium (G8)","school_type_entity":"Gymnasium","legal_status":1,"fax":"07191/914050","phone":"07191/91400","state":"BW","programs":{"programs":[]},"full_time_school":false,"lon":9.429386,"lat":48.94103},{"name":"Gymnasium in der Taus","id":"BW-75939","address":"Häfnersweg 63, 71522 Backnang","school_type":"Gymnasium (G9)","school_type_entity":"Gymnasium","legal_status":1,"fax":"07191/904646","phone":"07191/90460","state":"BW","programs":{"programs":["Schule ohne Rassismus - Schule mit Courage"]},"full_time_school":false,"lon":9.445765,"lat":48.953517},{"name":"Gymnasium in der Taus","id":"BW-75939","address":"Häfnersweg 63, 71522 Backnang","school_type":"Gymnasium (G8)","school_type_entity":"Gymnasium","legal_status":1,"fax":"07191/904646","phone":"07191/90460","state":"BW","programs":{"programs":["Schule ohne Rassismus - Schule mit Courage"]},"full_time_school":false,"lon":9.445765,"lat":48.953517},{"name":"Deutschorden-Gymnasium","id":"BW-75975","address":"Kopernikusstraße 11, 97980 Bad Mergentheim","school_type":"Gymnasium (G8)","school_type_entity":"Gymnasium","legal_status":1,"fax":"07931/574913","phone":"07931/574070","state":"BW","programs":{"programs":[]},"full_time_school":false,"lon":9.785563,"lat":49.487687},{"name":"Hohenstaufen-Gymnasium","id":"BW-76011","address":"Schulstraße 23, 74206 Bad Wimpfen","school_type":"Gymnasium (G8)","school_type_entity":"Gymnasium","legal_status":1,"fax":"07063/933612","phone":"07063/9336-0","state":"BW","programs":{"programs":[]},"full_time_school":false,"lon":9.160848,"lat":49.228046},{"name":"Herzog-Christoph-Gymnasium","id":"BW-76047","address":"Dammstraße 20, 71717 Beilstein","school_type":"Gymnasium (G9)","school_type_entity":"Gymnasium","legal_status":1,"fax":"07062/3074","phone":"07062/3232","state":"BW","programs":{"programs":["NFTE"]},"full_time_school":false,"lon":9.309506,"lat":49.044147},{"name":"Herzog-Christoph-Gymnasium","id":"BW-76047","address":"Dammstraße 20, 71717 Beilstein","school_type":"Gymnasium (G8)","school_type_entity":"Gymnasium","legal_status":1,"fax":"07062/3074","phone":"07062/3232","state":"BW","programs":{"programs":["NFTE"]},"full_time_school":false,"lon":9.309506,"lat":49.044147},{"name":"Christoph-Schrempf-Gymnasium Besigheim","id":"BW-76083","address":"Auf dem Kies 27, 74354 Besigheim","school_type":"Gymnasium (G8)","school_type_entity":"Gymnasium","legal_status":1,"fax":"07143/35471","phone":"07143/80560","state":"BW","programs":{"programs":["Be smart - don't Start","Schule ohne Rassismus - Schule mit Courage"]},"full_time_school":false,"lon":9.147398,"lat":48.999049},{"name":"Gymnasium I im Ellental","id":"BW-76122","address":"Ellentalstraße 10, 74321 Bietigheim-Bissingen","school_type":"Gymnasium (G8)","school_type_entity":"Gymnasium","legal_status":1,"fax":"07142/74-536","phone":"07142/74-503","state":"BW","programs":{"programs":["Be smart - don't Start"]},"full_time_school":false,"lon":9.124443,"lat":48.954492},{"name":"Gymnasium II im Ellental","id":"BW-76158","address":"Ellentalstraße 10, 74321 Bietigheim-Bissingen","school_type":"Gymnasium (G8)","school_type_entity":"Gymnasium","legal_status":1,"fax":"07142/74-536","phone":"07142/74-503","state":"BW","programs":{"programs":["Be smart - don't Start"]},"full_time_school":false,"lon":9.124443,"lat":48.954492},{"name":"Albert-Einstein-Gymnasium","id":"BW-76194","address":"Zeppelinstraße 50, 71032 Bäblingen","school_type":"Gymnasium (G8)","school_type_entity":"Gymnasium","legal_status":1,"fax":"07031/669-4469","phone":"07031/669-4443","state":"BW","programs":{"programs":["Be smart - don't Start","NFTE"]},"full_time_school":false,"lon":9.019702,"lat":48.688093},{"name":"Otto-Hahn-Gymnasium","id":"BW-76230","address":"Danziger Straße 10, 71034 Bäblingen","school_type":"Gymnasium (G8)","school_type_entity":"Gymnasium","legal_status":1,"fax":"07031/6694499","phone":"07031/6694473","state":"BW","programs":{"programs":["NFTE"]},"full_time_school":false,"lon":8.998006,"lat":48.679227},{"name":"Max-Planck-Gymnasium","id":"BW-76248","address":"Murkenbachweg 4, 71032 Bäblingen","school_type":"Gymnasium (G8)","school_type_entity":"Gymnasium","legal_status":1,"fax":"07031/669-4529","phone":"07031/6694503","state":"BW","programs":{"programs":["Schule ohne Rassismus - Schule mit Courage"]},"full_time_school":false,"lon":9.025329,"lat":48.679552},{"name":"Ostalb-Gymnasium","id":"BW-76320","address":"Alte Neresheimer Straße 39, 73441 Bopfingen","school_type":"Gymnasium (G8)","school_type_entity":"Gymnasium","legal_status":1,"fax":"07362/956038-19","phone":"07362/956038-10","state":"BW","programs":{"programs":["Be smart - don't Start"]},"full_time_school":false,"lon":10.345841,"lat":48.853459},{"name":"Zabergäu-Gymnasium","id":"BW-76356","address":"Hirnerweg 15, 74336 Brackenheim","school_type":"Gymnasium (G8)","school_type_entity":"Gymnasium","legal_status":1,"fax":"07135/982915","phone":"07135/982911","state":"BW","programs":{"programs":["Schule ohne Rassismus - Schule mit Courage"]},"full_time_school":false,"lon":9.061467,"lat":49.077665},{"name":"Albert-Schweitzer-Gymnasium","id":"BW-76359","address":"Dr.-Ascher-Weg 1, 74564 Crailsheim","school_type":"Gymnasium (G9)","school_type_entity":"Gymnasium","legal_status":1,"fax":"07951/42046","phone":"07951/297910","state":"BW","programs":{"programs":["NFTE","Schule ohne Rassismus - Schule mit Courage"]},"full_time_school":false,"lon":10.070767,"lat":49.141381},{"name":"Albert-Schweitzer-Gymnasium","id":"BW-76359","address":"Dr.-Ascher-Weg 1, 74564 Crailsheim","school_type":"Gymnasium (G8)","school_type_entity":"Gymnasium","legal_status":1,"fax":"07951/42046","phone":"07951/297910","state":"BW","programs":{"programs":["NFTE","Schule ohne Rassismus - Schule mit Courage"]},"full_time_school":false,"lon":10.070767,"lat":49.141381},{"name":"Gymnasium in der Glemsaue Ditzingen","id":"BW-76395","address":"Gräninger Straße 29, 71254 Ditzingen","school_type":"Gymnasium (G8)","school_type_entity":"Gymnasium","legal_status":1,"fax":"07156/968613","phone":"07156/9686-0","state":"BW","programs":{"programs":["Be smart - don't Start"]},"full_time_school":false,"lon":9.067,"lat":48.8267},{"name":"Rechberg-Gymnasium","id":"BW-76431","address":"Dr.-Frey-Straße 38, 73072 Donzdorf","school_type":"Gymnasium (G8)","school_type_entity":"Gymnasium","legal_status":1,"fax":"07162/922639","phone":"07162/922625","state":"BW","programs":{"programs":["Be smart - don't Start"]},"full_time_school":false,"lon":9.818798,"lat":48.686204},{"name":"Raichberg-Gymnasium","id":"BW-76467","address":"Bünzwanger Straße 35, 73061 Ebersbach an der Fils","school_type":"Gymnasium (G8)","school_type_entity":"Gymnasium","legal_status":1,"fax":"07163/6902","phone":"07163/912320","state":"BW","programs":{"programs":["Be smart - don't Start"]},"full_time_school":false,"lon":9.526379,"lat":48.70893},{"name":"Erich-Kästner-Gymnasium","id":"BW-76503","address":"Talstraße 50, 73054 Eislingen","school_type":"Gymnasium (G8)","school_type_entity":"Gymnasium","legal_status":1,"fax":"07161/98425-19","phone":"07161/98425-0","state":"BW","programs":{"programs":[]},"full_time_school":false,"lon":9.718872,"lat":48.701019},{"name":"Peutinger-Gymnasium","id":"BW-76557","address":"Peutingerstraße 16, 73479 Ellwangen (Jagst)","school_type":"Gymnasium (G8)","school_type_entity":"Gymnasium","legal_status":1,"fax":"07961/84858","phone":"07961/84-850","state":"BW","programs":{"programs":[]},"full_time_school":false,"lon":10.134689,"lat":48.965721},{"name":"Hariolf-Gymnasium","id":"BW-76593","address":"Berliner Straße 25, 73479 Ellwangen (Jagst)","school_type":"Gymnasium (G8)","school_type_entity":"Gymnasium","legal_status":1,"fax":"07961/84826","phone":"07961/84815","state":"BW","programs":{"programs":["Be smart - don't Start"]},"full_time_school":false,"lon":10.118373,"lat":48.968504},{"name":"Hartmanni-Gymnasium Eppingen","id":"BW-76632","address":"Adolf-Vielhauer-Straße 13, 75031 Eppingen","school_type":"Gymnasium (G8)","school_type_entity":"Gymnasium","legal_status":1,"fax":"07262/920-201","phone":"07262/920-200","state":"BW","programs":{"programs":["Schule ohne Rassismus - Schule mit Courage"]},"full_time_school":false,"lon":8.912228,"lat":49.131036},{"name":"Georgii-Gymnasium","id":"BW-76668","address":"Lohwasen 1, 73728 Esslingen am Neckar","school_type":"Gymnasium (G8)","school_type_entity":"Gymnasium","legal_status":1,"fax":"0711/3512-3208","phone":"0711/3512-2324","state":"BW","programs":{"programs":[]},"full_time_school":false,"lon":9.301292,"lat":48.742762},{"name":"Märike-Gymnasium","id":"BW-76704","address":"Neckarstraße 38, 73728 Esslingen am Neckar","school_type":"Gymnasium (G8)","school_type_entity":"Gymnasium","legal_status":1,"fax":"0711/3512-2756","phone":"0711/3512-2328","state":"BW","programs":{"programs":["Be smart - don't Start","Schule ohne Rassismus - Schule mit Courage"]},"full_time_school":false,"lon":9.310579,"lat":48.736966},{"name":"Schelztor-Gymnasium Esslingen","id":"BW-76740","address":"Barbarossastraße 85, 73732 Esslingen am Neckar","school_type":"Gymnasium (G8)","school_type_entity":"Gymnasium","legal_status":1,"fax":"0711/3512-3360","phone":"0711/3512-3350","state":"BW","programs":{"programs":["Be smart - don't Start"]},"full_time_school":false,"lon":9.305436,"lat":48.755884},{"name":"Theodor-Heuss-Gymnasium","id":"BW-76776","address":"Breslauer Straße 19, 73730 Esslingen am Neckar","school_type":"Gymnasium (G8)","school_type_entity":"Gymnasium","legal_status":1,"fax":"0711/3512-3222","phone":"0711/3512-2456","state":"BW","programs":{"programs":[]},"full_time_school":false,"lon":9.3415,"lat":48.731409},{"name":"Friedrich-Schiller-Gymnasium","id":"BW-76779","address":"Pestalozzistraße 50, 70736 Fellbach","school_type":"Gymnasium (G8)","school_type_entity":"Gymnasium","legal_status":1,"fax":"0711/5851-7575","phone":"0711/5851-293","state":"BW","programs":{"programs":["Schule ohne Rassismus - Schule mit Courage"]},"full_time_school":false,"lon":9.275419,"lat":48.817943},{"name":"Gustav-Stresemann-Gymnasium Schmiden","id":"BW-76815","address":"Hofäckerstraße 8, 70736 Fellbach","school_type":"Gymnasium (G8)","school_type_entity":"Gymnasium","legal_status":1,"fax":"0711/5404897","phone":"0711/5851-632","state":"BW","programs":{"programs":[]},"full_time_school":false,"lon":9.269179,"lat":48.833001},{"name":"Eduard-Spranger-Gymnasium Bernhausen","id":"BW-76866","address":"Tübinger Straße 71, 70794 Filderstadt","school_type":"Gymnasium (G8)","school_type_entity":"Gymnasium","legal_status":1,"fax":"0711/7086129","phone":"0711/7086110","state":"BW","programs":{"programs":["Fairtrade Schools","Schule ohne Rassismus - Schule mit Courage"]},"full_time_school":false,"lon":9.211959,"lat":48.668241},{"name":"Schenk-von-Limpurg-Gymnasium Gaildorf","id":"BW-76869","address":"Schloßstraße 24, 74405 Gaildorf","school_type":"Gymnasium (G8)","school_type_entity":"Gymnasium","legal_status":1,"fax":"07971/253-230","phone":"07971/253-200","state":"BW","programs":{"programs":[]},"full_time_school":false,"lon":9.773727,"lat":49.003193},{"name":"Helfenstein-Gymnasium","id":"BW-76905","address":"Kaiser-Wilhelm-Straße 3, 73312 Geislingen an der Steige","school_type":"Gymnasium (G9)","school_type_entity":"Gymnasium","legal_status":1,"fax":"07331/941608","phone":"07331/941675","state":"BW","programs":{"programs":["Schule ohne Rassismus - Schule mit Courage"]},"full_time_school":false,"lon":9.839852,"lat":48.620738},{"name":"Helfenstein-Gymnasium","id":"BW-76905","address":"Kaiser-Wilhelm-Straße 3, 73312 Geislingen an der Steige","school_type":"Gymnasium (G8)","school_type_entity":"Gymnasium","legal_status":1,"fax":"07331/941608","phone":"07331/941675","state":"BW","programs":{"programs":["Schule ohne Rassismus - Schule mit Courage"]},"full_time_school":false,"lon":9.839852,"lat":48.620738},{"name":"Michelberg-Gymnasium","id":"BW-76941","address":"Staubstraße 50, 73312 Geislingen an der Steige","school_type":"Gymnasium (G8)","school_type_entity":"Gymnasium","legal_status":1,"fax":"07331/954712","phone":"07331/954711","state":"BW","programs":{"programs":["Be smart - don't Start","Schule ohne Rassismus - Schule mit Courage"]},"full_time_school":false,"lon":9.817471,"lat":48.621174},{"name":"Gymnasium Gerabronn","id":"BW-76977","address":"Jahnstraße 5-7, 74582 Gerabronn","school_type":"Gymnasium (G8)","school_type_entity":"Gymnasium","legal_status":1,"fax":"07952/6960-21","phone":"07952/9660-11","state":"BW","programs":{"programs":["Fairtrade Schools"]},"full_time_school":false,"lon":9.927587,"lat":49.251577},{"name":"Robert-Bosch-Gymnasium","id":"BW-77013","address":"Hasenbergstraße 16/2, 70839 Gerlingen","school_type":"Gymnasium (G8)","school_type_entity":"Gymnasium","legal_status":1,"fax":"07156/205-398","phone":"07156/205-280","state":"BW","programs":{"programs":["Be smart - don't Start"]},"full_time_school":false,"lon":9.060836,"lat":48.797113},{"name":"Margarete-Steiff-Gymnasium","id":"BW-77052","address":"Beethovenstraße 10, 89537 Giengen an der Brenz","school_type":"Gymnasium (G9)","school_type_entity":"Gymnasium","legal_status":1,"fax":"07322/963516","phone":"07322/963512","state":"BW","programs":{"programs":["Be smart - don't Start"]},"full_time_school":false,"lon":10.240292,"lat":48.623678},{"name":"Margarete-Steiff-Gymnasium","id":"BW-77052","address":"Beethovenstraße 10, 89537 Giengen an der Brenz","school_type":"Gymnasium (G8)","school_type_entity":"Gymnasium","legal_status":1,"fax":"07322/963516","phone":"07322/963512","state":"BW","programs":{"programs":["Be smart - don't Start"]},"full_time_school":false,"lon":10.240292,"lat":48.623678},{"name":"Freihof-Gymnasium","id":"BW-77088","address":"Freihofstraße 43, 73033 Gäppingen","school_type":"Gymnasium (G8)","school_type_entity":"Gymnasium","legal_status":1,"fax":"07161/650-386","phone":"07161/650-397","state":"BW","programs":{"programs":["Schule ohne Rassismus - Schule mit Courage"]},"full_time_school":false,"lon":9.653296,"lat":48.704671},{"name":"Hohenstaufen-Gymnasium","id":"BW-77124","address":"Hohenstaufenstraße 39, 73033 Gäppingen","school_type":"Gymnasium (G8)","school_type_entity":"Gymnasium","legal_status":1,"fax":"07161/96296-27","phone":"07161/962960","state":"BW","programs":{"programs":["Fairtrade Schools"]},"full_time_school":false,"lon":9.667929,"lat":48.704582},{"name":"Märike-Gymnasium","id":"BW-77142","address":"Märikestraße 29, 73033 Gäppingen","school_type":"Gymnasium (G8)","school_type_entity":"Gymnasium","legal_status":1,"fax":"07161/9629727","phone":"07161/96297-0","state":"BW","programs":{"programs":["Be smart - don't Start","Fairtrade Schools","Schule ohne Rassismus - Schule mit Courage"]},"full_time_school":false,"lon":9.655542,"lat":48.707926},{"name":"Werner-Heisenberg-Gymnasium","id":"BW-77178","address":"Jahnstraße 4, 73037 Gäppingen","school_type":"Gymnasium (G8)","school_type_entity":"Gymnasium","legal_status":1,"fax":"07161/96298-23","phone":"07161/96298-0","state":"BW","programs":{"programs":["Be smart - don't Start"]},"full_time_school":false,"lon":9.647938,"lat":48.700074},{"name":"Hellenstein-Gymnasium","id":"BW-77214","address":"Bahnhofplatz 8, 89518 Heidenheim an der Brenz","school_type":"Gymnasium (G8)","school_type_entity":"Gymnasium","legal_status":1,"fax":"07321/327-5413","phone":"07321/327-5400","state":"BW","programs":{"programs":["Be smart - don't Start","Fairtrade Schools"]},"full_time_school":false,"lon":10.155317,"lat":48.680212},{"name":"Schiller-Gymnasium","id":"BW-77250","address":"Friedrich-Ebert-Straße 8, 89522 Heidenheim an der Brenz","school_type":"Gymnasium (G8)","school_type_entity":"Gymnasium","legal_status":1,"fax":"07321/923017","phone":"07321/327-5420","state":"BW","programs":{"programs":["Be smart - don't Start","Fairtrade Schools"]},"full_time_school":false,"lon":10.161355,"lat":48.675291},{"name":"Max-Planck-Gymnasium","id":"BW-77286","address":"Virchowstraße 30-44, 89518 Heidenheim an der Brenz","school_type":"Gymnasium (G8)","school_type_entity":"Gymnasium","legal_status":1,"fax":"07321/3275449","phone":"07321/327-5440","state":"BW","programs":{"programs":["Be smart - don't Start"]},"full_time_school":false,"lon":10.148952,"lat":48.686866},{"name":"Elly-Heuss-Knapp-Gymnasium","id":"BW-77289","address":"Kraichgauplatz 17, 74080 Heilbronn","school_type":"Gymnasium (G8)","school_type_entity":"Gymnasium","legal_status":1,"fax":"07131/46930","phone":"07131/897721","state":"BW","programs":{"programs":["Be smart - don't Start"]},"full_time_school":false,"lon":9.180162,"lat":49.145307},{"name":"Justinus-Kerner-Gymnasium Heilbronn","id":"BW-77325","address":"Max-von-Laue-Straße 1-3, 74081 Heilbronn","school_type":"Gymnasium (G8)","school_type_entity":"Gymnasium","legal_status":1,"fax":"07131/564022","phone":"07131/562448","state":"BW","programs":{"programs":[]},"full_time_school":false,"lon":9.211799,"lat":49.118296},{"name":"Robert-Mayer-Gymnasium","id":"BW-77361","address":"Bismarckstraße 10, 74072 Heilbronn","school_type":"Gymnasium (G8)","school_type_entity":"Gymnasium","legal_status":1,"fax":"07131/84915","phone":"07131/642800","state":"BW","programs":{"programs":[]},"full_time_school":false,"lon":9.226822,"lat":49.139962},{"name":"Theodor-Heuss-Gymnasium","id":"BW-77397","address":"Gymnasiumstraße 70, 74072 Heilbronn","school_type":"Gymnasium (G8)","school_type_entity":"Gymnasium","legal_status":1,"fax":"07131/562416","phone":"07131/562451","state":"BW","programs":{"programs":["Schule ohne Rassismus - Schule mit Courage"]},"full_time_school":false,"lon":9.226522,"lat":49.142476},{"name":"Mänchsee-Gymnasium","id":"BW-77433","address":"Karlstraße 44, 74072 Heilbronn","school_type":"Gymnasium (G8)","school_type_entity":"Gymnasium","legal_status":1,"fax":"07131/564229","phone":"07131/562452","state":"BW","programs":{"programs":["NFTE","Schule ohne Rassismus - Schule mit Courage"]},"full_time_school":false,"lon":9.228245,"lat":49.142609},{"name":"Buigen-Gymnasium","id":"BW-77439","address":"Brückenstraße 10, 89542 Herbrechtingen","school_type":"Gymnasium (G8)","school_type_entity":"Gymnasium","legal_status":1,"fax":"07324/955-1410","phone":"07324/9551422","state":"BW","programs":{"programs":[]},"full_time_school":false,"lon":10.173092,"lat":48.620632},{"name":"Schickhardt-Gymnasium","id":"BW-77475","address":"Längenholz 2, 71083 Herrenberg","school_type":"Gymnasium (G8)","school_type_entity":"Gymnasium","legal_status":1,"fax":"07032/949919","phone":"07032/949910","state":"BW","programs":{"programs":["Schule ohne Rassismus - Schule mit Courage"]},"full_time_school":false,"lon":8.874371,"lat":48.590253},{"name":"Andreä-Gymnasium","id":"BW-77511","address":"Schießtäle 33, 71083 Herrenberg","school_type":"Gymnasium (G8)","school_type_entity":"Gymnasium","legal_status":1,"fax":"07032/9498-19","phone":"07032/9498-0","state":"BW","programs":{"programs":["Schule ohne Rassismus - Schule mit Courage"]},"full_time_school":false,"lon":8.854316,"lat":48.59234},{"name":"Rosenstein-Gymnasium","id":"BW-77547","address":"Helmut-Härmann-Straße 19, 73540 Heubach","school_type":"Gymnasium (G8)","school_type_entity":"Gymnasium","legal_status":1,"fax":"07173/929924","phone":"07173/929922","state":"BW","programs":{"programs":["Be smart - don't Start"]},"full_time_school":false,"lon":9.9341,"lat":48.7924},{"name":"Schloßgymnasium","id":"BW-77583","address":"Jesinger Halde 5, 73230 Kirchheim unter Teck","school_type":"Gymnasium (G8)","school_type_entity":"Gymnasium","legal_status":1,"fax":"07021/5039133","phone":"07021/503910","state":"BW","programs":{"programs":["Be smart - don't Start","Schule ohne Rassismus - Schule mit Courage"]},"full_time_school":false,"lon":9.470309,"lat":48.644142},{"name":"Ludwig-Uhland-Gymnasium","id":"BW-77622","address":"Hahnweidstraße 34, 73230 Kirchheim unter Teck","school_type":"Gymnasium (G8)","school_type_entity":"Gymnasium","legal_status":1,"fax":"07021/504113","phone":"07021/50410","state":"BW","programs":{"programs":[]},"full_time_school":false,"lon":9.446446,"lat":48.641748},{"name":"Gymnasium Korntal-Münchingen","id":"BW-77658","address":"Charlottenstraße 53, 70825 Korntal-Münchingen","school_type":"Gymnasium (G8)","school_type_entity":"Gymnasium","legal_status":1,"fax":"0711/831640","phone":"0711/8398720","state":"BW","programs":{"programs":[]},"full_time_school":false,"lon":9.115771,"lat":48.830448},{"name":"Ernst-Sigle-Gymnasium","id":"BW-77694","address":"Hohenstaufenallee 8, 70806 Kornwestheim","school_type":"Gymnasium (G8)","school_type_entity":"Gymnasium","legal_status":1,"fax":"07154/202-6110","phone":"07154/2026101","state":"BW","programs":{"programs":["Fairtrade Schools","NFTE"]},"full_time_school":false,"lon":9.189367,"lat":48.858404},{"name":"Ganerben-Gymnasium","id":"BW-77730","address":"Mühlbergstraße 65, 74653 Künzelsau","school_type":"Gymnasium (G8)","school_type_entity":"Gymnasium","legal_status":1,"fax":"07940/982222","phone":"07940/9822-0","state":"BW","programs":{"programs":[]},"full_time_school":false,"lon":9.68153,"lat":49.28837},{"name":"Hälderlin-Gymnasium","id":"BW-77748","address":"Charlottenstraße 87, 74348 Lauffen am Neckar","school_type":"Gymnasium (G8)","school_type_entity":"Gymnasium","legal_status":1,"fax":"07133/21943","phone":"07133/7673","state":"BW","programs":{"programs":[]},"full_time_school":false,"lon":9.139579,"lat":49.070664},{"name":"Philipp-Matthäus-Hahn-Gymnasium Echterdingen","id":"BW-77784","address":"Schimmelwiesenstraße 24, 70771 Leinfelden-Echterdingen","school_type":"Gymnasium (G8)","school_type_entity":"Gymnasium","legal_status":1,"fax":"0711/7945534-30","phone":"0711/79455340","state":"BW","programs":{"programs":[]},"full_time_school":false,"lon":9.155329,"lat":48.688851},{"name":"Immanuel-Kant-Gymnasium Leinfelden","id":"BW-77820","address":"Anemonenstraße 15, 70771 Leinfelden-Echterdingen","school_type":"Gymnasium (G8)","school_type_entity":"Gymnasium","legal_status":1,"fax":"0711/1600-503","phone":"0711/1600-500","state":"BW","programs":{"programs":["NFTE"]},"full_time_school":false,"lon":9.13622,"lat":48.699114},{"name":"Albert-Schweitzer-Gymnasium","id":"BW-77856","address":"Gerhart-Hauptmann-Straße 15, 71229 Leonberg","school_type":"Gymnasium (G8)","school_type_entity":"Gymnasium","legal_status":1,"fax":"07152/990-4190","phone":"07152/9904103","state":"BW","programs":{"programs":[]},"full_time_school":false,"lon":9.009644,"lat":48.797583},{"name":"Johannes-Kepler-Gymnasium","id":"BW-77859","address":"Lindenstraße 4, 71229 Leonberg","school_type":"Gymnasium (G8)","school_type_entity":"Gymnasium","legal_status":1,"fax":"07152/990-4290","phone":"07152/990-4202","state":"BW","programs":{"programs":[]},"full_time_school":false,"lon":9.011348,"lat":48.799843},{"name":"Martin-Schleyer-Gymnasium","id":"BW-77895","address":"Becksteiner Straße 80, 97922 Lauda-Känigshofen","school_type":"Gymnasium (G9)","school_type_entity":"Gymnasium","legal_status":1,"fax":"09343/5012101","phone":"09343/5012100","state":"BW","programs":{"programs":["Fairtrade Schools","NFTE"]},"full_time_school":false,"lon":9.705011,"lat":49.560941},{"name":"Martin-Schleyer-Gymnasium","id":"BW-77895","address":"Becksteiner Straße 80, 97922 Lauda-Känigshofen","school_type":"Gymnasium (G8)","school_type_entity":"Gymnasium","legal_status":1,"fax":"09343/5012101","phone":"09343/5012100","state":"BW","programs":{"programs":["Fairtrade Schools","NFTE"]},"full_time_school":false,"lon":9.705011,"lat":49.560941},{"name":"Gymnasium Friedrich II Lorch","id":"BW-77931","address":"Auf dem Schäfersfeld 4, 73547 Lorch","school_type":"Gymnasium (G8)","school_type_entity":"Gymnasium","legal_status":1,"fax":"07172/186190","phone":"07172/186100","state":"BW","programs":{"programs":["Be smart - don't Start","NFTE"]},"full_time_school":false,"lon":9.697669,"lat":48.801149},{"name":"Friedrich-Schiller-Gymnasium","id":"BW-77967","address":"Alleenstraße 16, 71638 Ludwigsburg","school_type":"Gymnasium (G8)","school_type_entity":"Gymnasium","legal_status":1,"fax":"07141/910-2367","phone":"07141/910-2337","state":"BW","programs":{"programs":["Be smart - don't Start"]},"full_time_school":false,"lon":9.188914,"lat":48.892998},{"name":"Goethe-Gymnasium","id":"BW-78003","address":"Seestraße 37, 71638 Ludwigsburg","school_type":"Gymnasium (G8)","school_type_entity":"Gymnasium","legal_status":1,"fax":"07141/910-2268","phone":"07141/910-2338","state":"BW","programs":{"programs":["Be smart - don't Start","Fairtrade Schools"]},"full_time_school":false,"lon":9.190709,"lat":48.892764},{"name":"Otto-Hahn-Gymnasium","id":"BW-78057","address":"Kaiserstraße 14, 71636 Ludwigsburg","school_type":"Gymnasium (G8)","school_type_entity":"Gymnasium","legal_status":1,"fax":"07141/910-2545","phone":"07141/910-2545","state":"BW","programs":{"programs":["Be smart - don't Start"]},"full_time_school":false,"lon":9.17589,"lat":48.897951},{"name":"Hans-Grüninger-Gymnasium","id":"BW-78093","address":"Schwieberdinger Straße 12, 71706 Markgräningen","school_type":"Gymnasium (G8)","school_type_entity":"Gymnasium","legal_status":1,"fax":"07145/9610-30","phone":"07145/9610-0","state":"BW","programs":{"programs":["Be smart - don't Start","NFTE"]},"full_time_school":false,"lon":9.081803,"lat":48.901576},{"name":"Gymnasium Mäckmühl","id":"BW-78132","address":"Lehlestraße 9, 74219 Mäckmühl","school_type":"Gymnasium (G8)","school_type_entity":"Gymnasium","legal_status":1,"fax":"06298/927158-11","phone":"06298/92715810","state":"BW","programs":{"programs":[]},"full_time_school":false,"lon":9.366367,"lat":49.321749},{"name":"Heinrich-von-Zügel-Gymnasium","id":"BW-78168","address":"Rudi-Gehring-Straße 1, 71540 Murrhardt","school_type":"Gymnasium (G8)","school_type_entity":"Gymnasium","legal_status":1,"fax":"07192/91901-16","phone":"07192/91901-0","state":"BW","programs":{"programs":["Schule ohne Rassismus - Schule mit Courage"]},"full_time_school":false,"lon":9.584193,"lat":48.989263},{"name":"Albert-Schweitzer-Gymnasium","id":"BW-78204","address":"Gymnasiumstraße 6, 74172 Neckarsulm","school_type":"Gymnasium (G8)","school_type_entity":"Gymnasium","legal_status":1,"fax":"07132/9630-40","phone":"07132/9630-0","state":"BW","programs":{"programs":[]},"full_time_school":false,"lon":9.231223,"lat":49.193204},{"name":"Gymnasium Neckartenzlingen","id":"BW-78240","address":"Auwiesen 4, 72654 Neckartenzlingen","school_type":"Gymnasium (G8)","school_type_entity":"Gymnasium","legal_status":1,"fax":"07127/93297-80","phone":"07127/93297-0","state":"BW","programs":{"programs":[]},"full_time_school":false,"lon":9.243485,"lat":48.585825},{"name":"Benedikt-Maria-Werkmeister-Gymnasium","id":"BW-78276","address":"Karl-Bonhoeffer-Straße 14, 73450 Neresheim","school_type":"Gymnasium (G8)","school_type_entity":"Gymnasium","legal_status":1,"fax":"07326/9614-17","phone":"07326/9614-0","state":"BW","programs":{"programs":[]},"full_time_school":false,"lon":10.327723,"lat":48.757175},{"name":"Eduard-Märike-Gymnasium","id":"BW-78279","address":"Gymnasiumstraße 14, 74196 Neuenstadt am Kocher","school_type":"Gymnasium (G8)","school_type_entity":"Gymnasium","legal_status":1,"fax":"07139/472615","phone":"07139/472610","state":"BW","programs":{"programs":[]},"full_time_school":false,"lon":9.336922,"lat":49.234333},{"name":"Max-Planck-Gymnasium","id":"BW-78315","address":"Steinenbergstraße 17, 72622 Nürtingen","school_type":"Gymnasium (G8)","school_type_entity":"Gymnasium","legal_status":1,"fax":"07022/927130","phone":"07022/92710","state":"BW","programs":{"programs":["Be smart - don't Start","Schule ohne Rassismus - Schule mit Courage"]},"full_time_school":false,"lon":9.339944,"lat":48.629753},{"name":"Hälderlin-Gymnasium","id":"BW-78366","address":"Am Lerchenberg 75, 72622 Nürtingen","school_type":"Gymnasium (G8)","school_type_entity":"Gymnasium","legal_status":1,"fax":"07022/93251-41","phone":"07022/93251-0","state":"BW","programs":{"programs":["Schule ohne Rassismus - Schule mit Courage"]},"full_time_school":false,"lon":9.336725,"lat":48.614388},{"name":"Ernst-Abbe-Gymnasium","id":"BW-78369","address":"Ernst-Abbe-Platz 1, 73447 Oberkochen","school_type":"Gymnasium (G8)","school_type_entity":"Gymnasium","legal_status":1,"fax":"07364/961322","phone":"07364/96130","state":"BW","programs":{"programs":["Be smart - don't Start","Schule ohne Rassismus - Schule mit Courage"]},"full_time_school":false,"lon":10.113797,"lat":48.788487},{"name":"Hohenlohe-Gymnasium …hringen","id":"BW-78405","address":"Weygangstraße 13-15, 74613 …hringen","school_type":"Gymnasium (G9)","school_type_entity":"Gymnasium","legal_status":1,"fax":"07941/9257-99","phone":"07941/9257-0","state":"BW","programs":{"programs":[]},"full_time_school":false,"lon":9.512878,"lat":49.199494},{"name":"Hohenlohe-Gymnasium …hringen","id":"BW-78405","address":"Weygangstraße 13-15, 74613 …hringen","school_type":"Gymnasium (G8)","school_type_entity":"Gymnasium","legal_status":1,"fax":"07941/9257-99","phone":"07941/9257-0","state":"BW","programs":{"programs":[]},"full_time_school":false,"lon":9.512878,"lat":49.199494},{"name":"Otto-Hahn-Gymnasium Nellingen","id":"BW-78441","address":"In den Anlagen 7, 73760 Ostfildern","school_type":"Gymnasium (G8)","school_type_entity":"Gymnasium","legal_status":1,"fax":"0711/3482802","phone":"0711/3411060","state":"BW","programs":{"programs":["NFTE"]},"full_time_school":false,"lon":9.29285,"lat":48.716761},{"name":"Heinrich-Heine-Gymnasium Nellingen","id":"BW-78477","address":"In den Anlagen 11, 73760 Ostfildern","school_type":"Gymnasium (G8)","school_type_entity":"Gymnasium","legal_status":1,"fax":"0711/3400402","phone":"0711/2207070","state":"BW","programs":{"programs":[]},"full_time_school":false,"lon":9.292181,"lat":48.717139},{"name":"Gymnasium Plochingen","id":"BW-78513","address":"Tannenstraße 47, 73207 Plochingen","school_type":"Gymnasium (G9)","school_type_entity":"Gymnasium","legal_status":1,"fax":"07153/8900-140","phone":"07153/8900-0","state":"BW","programs":{"programs":[]},"full_time_school":false,"lon":9.419146,"lat":48.714575},{"name":"Gymnasium Plochingen","id":"BW-78513","address":"Tannenstraße 47, 73207 Plochingen","school_type":"Gymnasium (G8)","school_type_entity":"Gymnasium","legal_status":1,"fax":"07153/8900-140","phone":"07153/8900-0","state":"BW","programs":{"programs":[]},"full_time_school":false,"lon":9.419146,"lat":48.714575},{"name":"Max-Planck-Gymnasium","id":"BW-78552","address":"Rehhaldenweg 2, 73614 Schorndorf","school_type":"Gymnasium (G8)","school_type_entity":"Gymnasium","legal_status":1,"fax":"07181/600679","phone":"07181/6029402","state":"BW","programs":{"programs":[]},"full_time_school":false,"lon":9.531979,"lat":48.795357},{"name":"Burg-Gymnasium","id":"BW-78588","address":"Hinter der Burg 6, 73614 Schorndorf","school_type":"Gymnasium (G8)","school_type_entity":"Gymnasium","legal_status":1,"fax":"07181/602483","phone":"07181/602497","state":"BW","programs":{"programs":["Schule ohne Rassismus - Schule mit Courage","UNESCO Projektschulen"]},"full_time_school":false,"lon":9.527806,"lat":48.803026},{"name":"Parler-Gymnasium","id":"BW-78624","address":"Haußmannstraße 34, 73525 Schwäbisch Gmünd","school_type":"Gymnasium (G8)","school_type_entity":"Gymnasium","legal_status":1,"fax":"07171/929937","phone":"07171/929936","state":"BW","programs":{"programs":["Be smart - don't Start"]},"full_time_school":false,"lon":9.79351,"lat":48.794831},{"name":"Hans-Baldung-Gymnasium","id":"BW-78642","address":"Märikestraße 5, 73525 Schwäbisch Gmünd","school_type":"Gymnasium (G9)","school_type_entity":"Gymnasium","legal_status":1,"fax":"07171/929764","phone":"07171/929763","state":"BW","programs":{"programs":[]},"full_time_school":false,"lon":9.7989,"lat":48.7989},{"name":"Hans-Baldung-Gymnasium","id":"BW-78642","address":"Märikestraße 5, 73525 Schwäbisch Gmünd","school_type":"Gymnasium (G8)","school_type_entity":"Gymnasium","legal_status":1,"fax":"07171/929764","phone":"07171/929763","state":"BW","programs":{"programs":[]},"full_time_school":false,"lon":9.7989,"lat":48.7989},{"name":"Scheffold-Gymnasium","id":"BW-78678","address":"Scheffoldstraße 102, 73529 Schwäbisch Gmünd","school_type":"Gymnasium (G8)","school_type_entity":"Gymnasium","legal_status":1,"fax":"07171/86907","phone":"07171/82908","state":"BW","programs":{"programs":[]},"full_time_school":false,"lon":9.827727,"lat":48.787254},{"name":"Erasmus-Widmann-Gymnasium im Schulzentrum West","id":"BW-78714","address":"Berliner Straße 16, 74523 Schwäbisch Hall","school_type":"Gymnasium (G8)","school_type_entity":"Gymnasium","legal_status":1,"fax":"0791/955252","phone":"0791/955251","state":"BW","programs":{"programs":["Schule ohne Rassismus - Schule mit Courage"]},"full_time_school":false,"lon":9.72796,"lat":49.099365},{"name":"Gymnasium bei St. Michael","id":"BW-78750","address":"Tüngentaler Straße 92, 74523 Schwäbisch Hall","school_type":"Gymnasium (G8)","school_type_entity":"Gymnasium","legal_status":1,"fax":"0791/490517","phone":"0791/93240-0","state":"BW","programs":{"programs":[]},"full_time_school":false,"lon":9.754302,"lat":49.113757},{"name":"Goldberg-Gymnasium","id":"BW-78786","address":"Frankenstraße 15, 71065 Sindelfingen","school_type":"Gymnasium (G8)","school_type_entity":"Gymnasium","legal_status":1,"fax":"07031/9574-14","phone":"07031/9574-0","state":"BW","programs":{"programs":["Be smart - don't Start"]},"full_time_school":false,"lon":9.008685,"lat":48.697501},{"name":"Gymnasium in den Pfarrwiesen","id":"BW-78789","address":"Pfarrwiesenallee 1-3, 71067 Sindelfingen","school_type":"Gymnasium (G8)","school_type_entity":"Gymnasium","legal_status":1,"fax":"07031/808068","phone":"07031/416050","state":"BW","programs":{"programs":["Schule ohne Rassismus - Schule mit Courage"]},"full_time_school":false,"lon":9.004362,"lat":48.721055},{"name":"Stiftsgymnasium","id":"BW-78825","address":"Bäblinger Straße 26, 71065 Sindelfingen","school_type":"Gymnasium (G8)","school_type_entity":"Gymnasium","legal_status":1,"fax":"07031/2043333","phone":"07031/204330","state":"BW","programs":{"programs":[]},"full_time_school":false,"lon":9.055965,"lat":48.71118},{"name":"Gymnasium Unterrieden","id":"BW-78861","address":"Rudolf-Harbig-Straße 40, 71069 Sindelfingen","school_type":"Gymnasium (G8)","school_type_entity":"Gymnasium","legal_status":1,"fax":"07031/7371-40","phone":"07031/7371-0","state":"BW","programs":{"programs":["Schule ohne Rassismus - Schule mit Courage"]},"full_time_school":false,"lon":8.972794,"lat":48.716585},{"name":"Dillmann-Gymnasium","id":"BW-78897","address":"Forststraße 43, 70176 Stuttgart","school_type":"Gymnasium (G8)","school_type_entity":"Gymnasium","legal_status":1,"fax":"0711/21659757","phone":"0711/216-59755","state":"BW","programs":{"programs":[]},"full_time_school":false,"lon":9.163203,"lat":48.779651},{"name":"Eberhard-Ludwigs-Gymnasium","id":"BW-78933","address":"Herdweg 72, 70174 Stuttgart","school_type":"Gymnasium (G8)","school_type_entity":"Gymnasium","legal_status":1,"fax":"0711/2238486","phone":"0711/391506-0","state":"BW","programs":{"programs":["Schule ohne Rassismus - Schule mit Courage"]},"full_time_school":false,"lon":9.161571,"lat":48.787157},{"name":"Friedrich-Eugens-Gymnasium","id":"BW-78951","address":"Silberburgstraße 86, 70176 Stuttgart","school_type":"Gymnasium (G8)","school_type_entity":"Gymnasium","legal_status":1,"fax":"0711/21660980","phone":"0711/21660990","state":"BW","programs":{"programs":["Schule ohne Rassismus - Schule mit Courage"]},"full_time_school":false,"lon":9.16266,"lat":48.779121},{"name":"Hälderlin-Gymnasium","id":"BW-78987","address":"Hälderlinstraße 28, 70174 Stuttgart","school_type":"Gymnasium (G8)","school_type_entity":"Gymnasium","legal_status":1,"fax":"0711/2269049","phone":"0711/216-33700","state":"BW","programs":{"programs":["Be smart - don't Start"]},"full_time_school":false,"lon":9.171141,"lat":48.781914},{"name":"Karls-Gymnasium","id":"BW-79023","address":"Tübinger Straße 38, 70178 Stuttgart","school_type":"Gymnasium (G8)","school_type_entity":"Gymnasium","legal_status":1,"fax":"0711/216-60585","phone":"0711/21660590","state":"BW","programs":{"programs":[]},"full_time_school":false,"lon":9.171714,"lat":48.769358},{"name":"Känigin-Katharina-Stift Gymnasium","id":"BW-79062","address":"Schillerstraße 5, 70173 Stuttgart","school_type":"Gymnasium (G8)","school_type_entity":"Gymnasium","legal_status":1,"fax":"0711/216-96652","phone":"0711/21696651","state":"BW","programs":{"programs":[]},"full_time_school":false,"lon":9.185594,"lat":48.781468},{"name":"Känigin-Olga-Stift Gymnasium","id":"BW-79098","address":"Johannesstraße 18, 70176 Stuttgart","school_type":"Gymnasium (G8)","school_type_entity":"Gymnasium","legal_status":1,"fax":"0711/216-57612","phone":"0711/21657610","state":"BW","programs":{"programs":[]},"full_time_school":false,"lon":9.16347,"lat":48.77518},{"name":"Schickhardt-Gymnasium","id":"BW-79134","address":"Schickhardtstraße 26, 70199 Stuttgart","school_type":"Gymnasium (G8)","school_type_entity":"Gymnasium","legal_status":1,"fax":"0711/216-91667","phone":"0711/216-91650","state":"BW","programs":{"programs":["Schule ohne Rassismus - Schule mit Courage"]},"full_time_school":false,"lon":9.160407,"lat":48.765434},{"name":"Wagenburg-Gymnasium","id":"BW-79170","address":"Wagenburgstraße 30, 70184 Stuttgart","school_type":"Gymnasium (G8)","school_type_entity":"Gymnasium","legal_status":1,"fax":"0711/4891989","phone":"0711/462036","state":"BW","programs":{"programs":["Schule ohne Rassismus - Schule mit Courage","UNESCO Projektschulen"]},"full_time_school":false,"lon":9.195424,"lat":48.779362},{"name":"Zeppelin-Gymnasium","id":"BW-79206","address":"Neckarstraße 149, 70190 Stuttgart","school_type":"Gymnasium (G9)","school_type_entity":"Gymnasium","legal_status":1,"fax":"0711/2164104","phone":"0711/21621100","state":"BW","programs":{"programs":[]},"full_time_school":false,"lon":9.195591,"lat":48.78984},{"name":"Zeppelin-Gymnasium","id":"BW-79206","address":"Neckarstraße 149, 70190 Stuttgart","school_type":"Gymnasium (G8)","school_type_entity":"Gymnasium","legal_status":1,"fax":"0711/2164104","phone":"0711/21621100","state":"BW","programs":{"programs":[]},"full_time_school":false,"lon":9.195591,"lat":48.78984},{"name":"Elly-Heuss-Knapp-Gymnasium Bad Cannstatt","id":"BW-79209","address":"Remstalstraße 35, 70374 Stuttgart","school_type":"Gymnasium (G8)","school_type_entity":"Gymnasium","legal_status":1,"fax":"0711/52089750","phone":"0711/5208973","state":"BW","programs":{"programs":["Fairtrade Schools"]},"full_time_school":false,"lon":9.240998,"lat":48.802483},{"name":"Gottlieb-Daimler-Gymnasium Bad Cannstatt","id":"BW-79260","address":"Kattowitzer Straße 8, 70374 Stuttgart","school_type":"Gymnasium (G8)","school_type_entity":"Gymnasium","legal_status":1,"fax":"0711/21620890","phone":"0711/21620880","state":"BW","programs":{"programs":["Schule ohne Rassismus - Schule mit Courage"]},"full_time_school":false,"lon":9.234654,"lat":48.800988},{"name":"Johannes-Kepler-Gymnasium Bad Cannstatt","id":"BW-79296","address":"Daimlerstraße 8, 70372 Stuttgart","school_type":"Gymnasium (G8)","school_type_entity":"Gymnasium","legal_status":1,"fax":"0711/21680950","phone":"0711/21680940","state":"BW","programs":{"programs":[]},"full_time_school":false,"lon":9.218201,"lat":48.807344},{"name":"Wilhelms-Gymnasium Degerloch","id":"BW-79299","address":"Albstraße 80, 70597 Stuttgart","school_type":"Gymnasium (G9)","school_type_entity":"Gymnasium","legal_status":1,"fax":"0711/21689340","phone":"0711/21689330","state":"BW","programs":{"programs":["Schule ohne Rassismus - Schule mit Courage"]},"full_time_school":false,"lon":9.164717,"lat":48.741114},{"name":"Wilhelms-Gymnasium Degerloch","id":"BW-79299","address":"Albstraße 80, 70597 Stuttgart","school_type":"Gymnasium (G8)","school_type_entity":"Gymnasium","legal_status":1,"fax":"0711/21689340","phone":"0711/21689330","state":"BW","programs":{"programs":["Schule ohne Rassismus - Schule mit Courage"]},"full_time_school":false,"lon":9.164717,"lat":48.741114},{"name":"Neues Gymnasium Feuerbach","id":"BW-79335","address":"Klagenfurter Straße 71, 70469 Stuttgart","school_type":"Gymnasium (G8)","school_type_entity":"Gymnasium","legal_status":1,"fax":"0711/216-59844","phone":"0711/216-59850","state":"BW","programs":{"programs":[]},"full_time_school":false,"lon":9.156341,"lat":48.811613},{"name":"Leibniz-Gymnasium Feuerbach","id":"BW-79371","address":"Klagenfurter Straße 75, 70469 Stuttgart","school_type":"Gymnasium (G9)","school_type_entity":"Gymnasium","legal_status":1,"fax":"0711/216-60520","phone":"0711/21660510","state":"BW","programs":{"programs":[]},"full_time_school":false,"lon":9.155915,"lat":48.812082},{"name":"Leibniz-Gymnasium Feuerbach","id":"BW-79371","address":"Klagenfurter Straße 75, 70469 Stuttgart","school_type":"Gymnasium (G8)","school_type_entity":"Gymnasium","legal_status":1,"fax":"0711/216-60520","phone":"0711/21660510","state":"BW","programs":{"programs":[]},"full_time_school":false,"lon":9.155915,"lat":48.812082},{"name":"Känigin-Charlotte-Gymnasium Mähringen","id":"BW-79407","address":"Sigmaringer Straße 85, 70567 Stuttgart","school_type":"Gymnasium (G8)","school_type_entity":"Gymnasium","legal_status":1,"fax":"0711/216-4990","phone":"0711/216-4993","state":"BW","programs":{"programs":[]},"full_time_school":false,"lon":9.152682,"lat":48.73005},{"name":"Paracelsus-Gymnasium Hohenheim Plieningen-Birkach","id":"BW-79443","address":"Paracelsusstraße 36, 70599 Stuttgart","school_type":"Gymnasium (G8)","school_type_entity":"Gymnasium","legal_status":1,"fax":"0711/45999470","phone":"0711/459994-6","state":"BW","programs":{"programs":["Schule ohne Rassismus - Schule mit Courage"]},"full_time_school":false,"lon":9.210989,"lat":48.705492},{"name":"Geschwister-Scholl-Gymnasium Stuttgart-Sillenbuch","id":"BW-79482","address":"Richard-Schmid-Straße 25, 70619 Stuttgart","school_type":"Gymnasium (G8)","school_type_entity":"Gymnasium","legal_status":1,"fax":"0711/45999350","phone":"0711/4599933","state":"BW","programs":{"programs":["Schule ohne Rassismus - Schule mit Courage"]},"full_time_school":false,"lon":9.22119,"lat":48.737667},{"name":"Wirtemberg-Gymnasium Untertürkheim","id":"BW-79518","address":"Lindenschulstraße 20, 70327 Stuttgart","school_type":"Gymnasium (G8)","school_type_entity":"Gymnasium","legal_status":1,"fax":"0711/216-20380","phone":"0711/21620361","state":"BW","programs":{"programs":["Fairtrade Schools"]},"full_time_school":false,"lon":9.249013,"lat":48.777443},{"name":"Hegel-Gymnasium Vaihingen","id":"BW-79572","address":"Krehlstraße 65, 70563 Stuttgart","school_type":"Gymnasium (G8)","school_type_entity":"Gymnasium","legal_status":1,"fax":"0711/732550","phone":"0711/216-98640","state":"BW","programs":{"programs":["Schule ohne Rassismus - Schule mit Courage"]},"full_time_school":false,"lon":9.102418,"lat":48.723373},{"name":"Fanny-Leicht-Gymnasium Vaihingen","id":"BW-79608","address":"Fanny-Leicht-Straße 13, 70563 Stuttgart","school_type":"Gymnasium (G8)","school_type_entity":"Gymnasium","legal_status":1,"fax":"0711/733610","phone":"0711/733624","state":"BW","programs":{"programs":[]},"full_time_school":false,"lon":9.116854,"lat":48.731169},{"name":"Solitude-Gymnasium Stuttgart-Weilimdorf","id":"BW-79644","address":"Spechtweg 40, 70499 Stuttgart","school_type":"Gymnasium (G8)","school_type_entity":"Gymnasium","legal_status":1,"fax":"0711/216-91905","phone":"0711/216-91890","state":"BW","programs":{"programs":[]},"full_time_school":false,"lon":9.104333,"lat":48.803785},{"name":"Ferdinand-Porsche-Gymnasium Zuffenhausen","id":"BW-79680","address":"Haldenrainstraße 136, 70437 Stuttgart","school_type":"Gymnasium (G8)","school_type_entity":"Gymnasium","legal_status":1,"fax":"0711/216-57222","phone":"0711/21657220","state":"BW","programs":{"programs":["Schule ohne Rassismus - Schule mit Courage"]},"full_time_school":false,"lon":9.193676,"lat":48.831143},{"name":"Eschbach-Gymnasium Stuttgart-Freiberg","id":"BW-79716","address":"Adalbert-Stifter-Straße 40, 70437 Stuttgart","school_type":"Gymnasium (G8)","school_type_entity":"Gymnasium","legal_status":1,"fax":"0711/216-89889","phone":"0711/21689499","state":"BW","programs":{"programs":["Fairtrade Schools"]},"full_time_school":false,"lon":9.21118,"lat":48.839654},{"name":"Matthias-Grünewald-Gymnasium","id":"BW-79719","address":"Taubenhausweg 2, 97941 Tauberbischofsheim","school_type":"Gymnasium (G8)","school_type_entity":"Gymnasium","legal_status":1,"fax":"09341/897097","phone":"09341/3140","state":"BW","programs":{"programs":[]},"full_time_school":false,"lon":9.664296,"lat":49.62054},{"name":"Friedrich-Abel-Gymnasium","id":"BW-79755","address":"Alter Postweg 6, 71665 Vaihingen an der Enz","school_type":"Gymnasium (G8)","school_type_entity":"Gymnasium","legal_status":1,"fax":"07042/9734-15","phone":"07042/9734-0","state":"BW","programs":{"programs":[]},"full_time_school":false,"lon":8.955473,"lat":48.935527},{"name":"Salier-Gymnasium","id":"BW-79791","address":"Im Sämann 32, 71334 Waiblingen","school_type":"Gymnasium (G8)","school_type_entity":"Gymnasium","legal_status":1,"fax":"07151/2008110","phone":"07151/2008100","state":"BW","programs":{"programs":[]},"full_time_school":false,"lon":9.329159,"lat":48.835434},{"name":"Staufer-Gymnasium","id":"BW-79827","address":"Mayenner Straße 30, 71332 Waiblingen","school_type":"Gymnasium (G8)","school_type_entity":"Gymnasium","legal_status":1,"fax":"07151/98116-305","phone":"07151/98116-300","state":"BW","programs":{"programs":["Schule ohne Rassismus - Schule mit Courage"]},"full_time_school":false,"lon":9.313319,"lat":48.827241},{"name":"Gymnasium Weikersheim","id":"BW-79845","address":"Laudenbacher Straße 20, 97990 Weikersheim","school_type":"Gymnasium (G8)","school_type_entity":"Gymnasium","legal_status":1,"fax":"07934/9112-20","phone":"07934/9112-10","state":"BW","programs":{"programs":[]},"full_time_school":false,"lon":9.903194,"lat":49.477802},{"name":"Johannes-Kepler-Gymnasium","id":"BW-79881","address":"Max-Caspar-Straße 47, 71263 Weil der Stadt","school_type":"Gymnasium (G8)","school_type_entity":"Gymnasium","legal_status":1,"fax":"07033/80884","phone":"07033/6077","state":"BW","programs":{"programs":[]},"full_time_school":false,"lon":8.861035,"lat":48.752121},{"name":"Justinus-Kerner-Gymnasium","id":"BW-79917","address":"Rossäckerstraße 11, 74189 Weinsberg","school_type":"Gymnasium (G8)","school_type_entity":"Gymnasium","legal_status":1,"fax":"07134/994120","phone":"07134/994100","state":"BW","programs":{"programs":["Schule ohne Rassismus - Schule mit Courage"]},"full_time_school":false,"lon":9.280635,"lat":49.148045},{"name":"Remstal-Gymnasium Weinstadt","id":"BW-79953","address":"Beutelsbacher Straße 64, 71384 Weinstadt","school_type":"Gymnasium (G8)","school_type_entity":"Gymnasium","legal_status":1,"fax":"07151/99919-41","phone":"07151/99919-0","state":"BW","programs":{"programs":[]},"full_time_school":false,"lon":9.373051,"lat":48.808743},{"name":"Limes-Gymnasium","id":"BW-79992","address":"Helmut-Glock-Straße 2, 73642 Welzheim","school_type":"Gymnasium (G8)","school_type_entity":"Gymnasium","legal_status":1,"fax":"07182/93855-13","phone":"07182/93855-0","state":"BW","programs":{"programs":["Schule ohne Rassismus - Schule mit Courage"]},"full_time_school":false,"lon":9.637425,"lat":48.87434},{"name":"Robert-Bosch-Gymnasium","id":"BW-80028","address":"Hähenstraße 31, 73240 Wendlingen am Neckar","school_type":"Gymnasium (G8)","school_type_entity":"Gymnasium","legal_status":1,"fax":"07024/9200270","phone":"07024/9200210","state":"BW","programs":{"programs":[]},"full_time_school":false,"lon":9.3811,"lat":48.6707},{"name":"Dietrich-Bonhäffer-Gymnasium","id":"BW-80064","address":"Conrad-Wellin-Straße 6-8, 97877 Wertheim","school_type":"Gymnasium (G8)","school_type_entity":"Gymnasium","legal_status":1,"fax":"09342/935629","phone":"09342/93560","state":"BW","programs":{"programs":[]},"full_time_school":false,"lon":9.513398,"lat":49.755305},{"name":"Georg-Büchner-Gymnasium Winnenden","id":"BW-80100","address":"Paulinenstraße 29-31, 71364 Winnenden","school_type":"Gymnasium (G8)","school_type_entity":"Gymnasium","legal_status":1,"fax":"07195/910215","phone":"07195/910312","state":"BW","programs":{"programs":["Schule ohne Rassismus - Schule mit Courage"]},"full_time_school":false,"lon":9.401018,"lat":48.874582},{"name":"Lessing-Gymnasium Winnenden","id":"BW-80136","address":"Albertviller Straße 26, 71364 Winnenden","school_type":"Gymnasium (G8)","school_type_entity":"Gymnasium","legal_status":1,"fax":"07195/910212","phone":"07195/67748","state":"BW","programs":{"programs":[]},"full_time_school":false,"lon":9.398648,"lat":48.869518},{"name":"Lise-Meitner-Gymnasium Bildungszentrum Känigsbach","id":"BW-80154","address":"Steiner Straße 48, 75203 Känigsbach-Stein","school_type":"Gymnasium (G9)","school_type_entity":"Gymnasium","legal_status":1,"fax":"07232/3065-222","phone":"07232/3065100","state":"BW","programs":{"programs":[]},"full_time_school":false,"lon":8.61681,"lat":48.962322},{"name":"Lise-Meitner-Gymnasium Bildungszentrum Känigsbach","id":"BW-80154","address":"Steiner Straße 48, 75203 Känigsbach-Stein","school_type":"Gymnasium (G8)","school_type_entity":"Gymnasium","legal_status":1,"fax":"07232/3065-222","phone":"07232/3065100","state":"BW","programs":{"programs":[]},"full_time_school":false,"lon":8.61681,"lat":48.962322},{"name":"Otto-Hahn-Gymnasium","id":"BW-80190","address":"Im Eichbäumle 1, 76139 Karlsruhe","school_type":"Gymnasium (G8)","school_type_entity":"Gymnasium","legal_status":1,"fax":"0721/133-4555","phone":"0721/133-4556","state":"BW","programs":{"programs":[]},"full_time_school":false,"lon":8.445219,"lat":49.032635},{"name":"Max-Planck-Gymnasium Rüppurr","id":"BW-80226","address":"Krokusweg 49, 76199 Karlsruhe","school_type":"Gymnasium (G8)","school_type_entity":"Gymnasium","legal_status":1,"fax":"0721/133-4989","phone":"0721/133-4550","state":"BW","programs":{"programs":[]},"full_time_school":false,"lon":8.414067,"lat":48.975964},{"name":"Lessing-Gymnasium","id":"BW-80229","address":"Sophienstraße 147, 76135 Karlsruhe","school_type":"Gymnasium (G8)","school_type_entity":"Gymnasium","legal_status":1,"fax":"0721/133-4533","phone":"0721/133-4536","state":"BW","programs":{"programs":[]},"full_time_school":false,"lon":8.37526,"lat":49.008024},{"name":"Markgrafen-Gymnasium Durlach","id":"BW-80265","address":"Gymnasiumstraße 1-3, 76227 Karlsruhe","school_type":"Gymnasium (G8)","school_type_entity":"Gymnasium","legal_status":1,"fax":"0721/133-4568","phone":"0721/133-4540","state":"BW","programs":{"programs":["Be smart - don't Start","Schule ohne Rassismus - Schule mit Courage"]},"full_time_school":false,"lon":8.478084,"lat":48.998829},{"name":"Kant-Gymnasium","id":"BW-80301","address":"Englerstraße 10, 76131 Karlsruhe","school_type":"Gymnasium (G8)","school_type_entity":"Gymnasium","legal_status":1,"fax":"0721/133-4539","phone":"0721/133-4529","state":"BW","programs":{"programs":[]},"full_time_school":false,"lon":8.410394,"lat":49.010811},{"name":"Humboldt-Gymnasium Nordweststadt","id":"BW-80337","address":"Wilhelm-Hausenstein-Allee 22, 76187 Karlsruhe","school_type":"Gymnasium (G9)","school_type_entity":"Gymnasium","legal_status":1,"fax":"0721/133-2513","phone":"0721/133-4523","state":"BW","programs":{"programs":[]},"full_time_school":false,"lon":8.370746,"lat":49.033457},{"name":"Humboldt-Gymnasium Nordweststadt","id":"BW-80337","address":"Wilhelm-Hausenstein-Allee 22, 76187 Karlsruhe","school_type":"Gymnasium (G8)","school_type_entity":"Gymnasium","legal_status":1,"fax":"0721/133-2513","phone":"0721/133-4523","state":"BW","programs":{"programs":[]},"full_time_school":false,"lon":8.370746,"lat":49.033457},{"name":"Helmholtz-Gymnasium","id":"BW-80373","address":"Kaiserallee 6, 76133 Karlsruhe","school_type":"Gymnasium (G8)","school_type_entity":"Gymnasium","legal_status":1,"fax":"0721/133-4979","phone":"0721/133-4518","state":"BW","programs":{"programs":[]},"full_time_school":false,"lon":8.383897,"lat":49.010879},{"name":"Goethe-Gymnasium","id":"BW-80412","address":"Renckstraße 2, 76133 Karlsruhe","school_type":"Gymnasium (G8)","school_type_entity":"Gymnasium","legal_status":1,"fax":"0721/133-4588","phone":"0721/133-4512","state":"BW","programs":{"programs":[]},"full_time_school":false,"lon":8.396434,"lat":49.003709},{"name":"Fichte-Gymnasium","id":"BW-80451","address":"Sophienstraße 12-16, 76133 Karlsruhe","school_type":"Gymnasium (G8)","school_type_entity":"Gymnasium","legal_status":1,"fax":"0721/1334960","phone":"0721/133-4506","state":"BW","programs":{"programs":[]},"full_time_school":false,"lon":8.388058,"lat":49.00767},{"name":"Bismarck-Gymnasium","id":"BW-80487","address":"Bismarckstraße 8, 76133 Karlsruhe","school_type":"Gymnasium (G8)","school_type_entity":"Gymnasium","legal_status":1,"fax":"0721/133-4569","phone":"0721/133-4502","state":"BW","programs":{"programs":[]},"full_time_school":false,"lon":8.394863,"lat":49.013389},{"name":"Gymnasium Karlsbad","id":"BW-80523","address":"Am Schelmenbusch 1, 76307 Karlsbad","school_type":"Gymnasium (G8)","school_type_entity":"Gymnasium","legal_status":1,"fax":"07202/9302-58","phone":"07202/9302-50","state":"BW","programs":{"programs":["Schule ohne Rassismus - Schule mit Courage"]},"full_time_school":false,"lon":8.501143,"lat":48.911518},{"name":"Martin-Gerbert-Gymnasium","id":"BW-80562","address":"Fürstabt-Gerbert-Straße 21, 72160 Horb am Neckar","school_type":"Gymnasium (G8)","school_type_entity":"Gymnasium","legal_status":1,"fax":"07451/60153","phone":"07451/2466","state":"BW","programs":{"programs":["Schule ohne Rassismus - Schule mit Courage"]},"full_time_school":false,"lon":8.683046,"lat":48.442139},{"name":"Carl-Friedrich-Gauss-Gymnasium","id":"BW-80598","address":"Schubertstraße 5, 68766 Hockenheim","school_type":"Gymnasium (G8)","school_type_entity":"Gymnasium","legal_status":1,"fax":"06205/21-630","phone":"06205/204730","state":"BW","programs":{"programs":[]},"full_time_school":false,"lon":8.543989,"lat":49.316631},{"name":"Bergstraßen-Gymnasium","id":"BW-80634","address":"Silcherweg 8, 69502 Hemsbach","school_type":"Gymnasium (G8)","school_type_entity":"Gymnasium","legal_status":1,"fax":"06201/477357","phone":"06201/7691","state":"BW","programs":{"programs":[]},"full_time_school":false,"lon":8.651559,"lat":49.596169},{"name":"Kurfürst-Friedrich-Gymnasium","id":"BW-80706","address":"Neckarstaden 2, 69117 Heidelberg","school_type":"Gymnasium (G8)","school_type_entity":"Gymnasium","legal_status":1,"fax":"06221/181096","phone":"06221/5832150","state":"BW","programs":{"programs":["Schule ohne Rassismus - Schule mit Courage"]},"full_time_school":false,"lon":8.694012,"lat":49.411334},{"name":"Helmholtz-Gymnasium","id":"BW-80709","address":"Rohrbacher Straße 102, 69126 Heidelberg","school_type":"Gymnasium (G8)","school_type_entity":"Gymnasium","legal_status":1,"fax":"06221/300359","phone":"06221/37040","state":"BW","programs":{"programs":["Schule ohne Rassismus - Schule mit Courage"]},"full_time_school":false,"lon":8.68883,"lat":49.395746},{"name":"Bunsen-Gymnasium","id":"BW-80760","address":"Humboldtstraße 23, 69120 Heidelberg","school_type":"Gymnasium (G8)","school_type_entity":"Gymnasium","legal_status":1,"fax":"06221/419421","phone":"06221/64340","state":"BW","programs":{"programs":["Schule ohne Rassismus - Schule mit Courage"]},"full_time_school":false,"lon":8.677788,"lat":49.416218},{"name":"Bildungszentrum Sulzberg Progymnasium","id":"BW-80796","address":"Sulzberg 52, 72275 Alpirsbach","school_type":"Progymnasium","school_type_entity":"Pro-Gymnasium","legal_status":1,"fax":"07444/9518-258","phone":"07444/9518-241","state":"BW","programs":{"programs":[]},"full_time_school":false,"lon":8.396208,"lat":48.345259},{"name":"Gymnasium Hohenbaden","id":"BW-80799","address":"Leo-Wohleb-Weg 1, 76530 Baden-Baden","school_type":"Gymnasium (G8)","school_type_entity":"Gymnasium","legal_status":1,"fax":"07221/93-2394","phone":"07221/93-2391","state":"BW","programs":{"programs":["Be smart - don't Start","Be smart - don't Start","Schule ohne Rassismus - Schule mit Courage"]},"full_time_school":false,"lon":8.245264,"lat":48.762928},{"name":"Markgraf-Ludwig-Gymnasium","id":"BW-80835","address":"Hardstraße 2, 76530 Baden-Baden","school_type":"Gymnasium (G9)","school_type_entity":"Gymnasium","legal_status":1,"fax":"07221/932370","phone":"07221/932366","state":"BW","programs":{"programs":[]},"full_time_school":false,"lon":8.243842,"lat":48.759605},{"name":"Markgraf-Ludwig-Gymnasium","id":"BW-80835","address":"Hardstraße 2, 76530 Baden-Baden","school_type":"Gymnasium (G8)","school_type_entity":"Gymnasium","legal_status":1,"fax":"07221/932370","phone":"07221/932366","state":"BW","programs":{"programs":[]},"full_time_school":false,"lon":8.243842,"lat":48.759605},{"name":"Richard-Wagner-Gymnasium","id":"BW-80871","address":"Rheinstraße 152, 76532 Baden-Baden","school_type":"Gymnasium (G8)","school_type_entity":"Gymnasium","legal_status":1,"fax":"07221/93-1916","phone":"07221/93-1910","state":"BW","programs":{"programs":["Be smart - don't Start"]},"full_time_school":false,"lon":8.206474,"lat":48.783431},{"name":"Richard-von-Weizsäcker-Gymnasium","id":"BW-80907","address":"Oberdorfstraße 68, 72270 Baiersbronn","school_type":"Gymnasium (G8)","school_type_entity":"Gymnasium","legal_status":1,"fax":"07442/8499513","phone":"07442/8499510","state":"BW","programs":{"programs":["Schule ohne Rassismus - Schule mit Courage"]},"full_time_school":false,"lon":8.375467,"lat":48.502494},{"name":"Melanchthon-Gymnasium","id":"BW-80943","address":"Weißhofer Straße 48, 75015 Bretten","school_type":"Gymnasium (G8)","school_type_entity":"Gymnasium","legal_status":1,"fax":"07252/9352-12","phone":"07252/9352-0","state":"BW","programs":{"programs":[]},"full_time_school":false,"lon":8.711256,"lat":49.035761},{"name":"Schänborn-Gymnasium","id":"BW-80982","address":"Belvedere 6, 76646 Bruchsal","school_type":"Gymnasium (G8)","school_type_entity":"Gymnasium","legal_status":1,"fax":"07251/9167-30","phone":"07251/7976-0","state":"BW","programs":{"programs":[]},"full_time_school":false,"lon":8.602694,"lat":49.126767},{"name":"Justus-Knecht-Gymnasium","id":"BW-81018","address":"Moltkestraße 33, 76646 Bruchsal","school_type":"Gymnasium (G9)","school_type_entity":"Gymnasium","legal_status":1,"fax":"07251/795625","phone":"07251/79560","state":"BW","programs":{"programs":[]},"full_time_school":false,"lon":8.590595,"lat":49.120246},{"name":"Justus-Knecht-Gymnasium","id":"BW-81018","address":"Moltkestraße 33, 76646 Bruchsal","school_type":"Gymnasium (G8)","school_type_entity":"Gymnasium","legal_status":1,"fax":"07251/795625","phone":"07251/79560","state":"BW","programs":{"programs":[]},"full_time_school":false,"lon":8.590595,"lat":49.120246},{"name":"Burghardt-Gymnasium","id":"BW-81072","address":"St.-Rochus-Straße 5, 74722 Buchen (Odenwald)","school_type":"Gymnasium (G9)","school_type_entity":"Gymnasium","legal_status":1,"fax":"06281/5288-22","phone":"06281/5288-0","state":"BW","programs":{"programs":["Fairtrade Schools"]},"full_time_school":false,"lon":9.325875,"lat":49.519653},{"name":"Burghardt-Gymnasium","id":"BW-81072","address":"St.-Rochus-Straße 5, 74722 Buchen (Odenwald)","school_type":"Gymnasium (G8)","school_type_entity":"Gymnasium","legal_status":1,"fax":"06281/5288-22","phone":"06281/5288-0","state":"BW","programs":{"programs":["Fairtrade Schools"]},"full_time_school":false,"lon":9.325875,"lat":49.519653},{"name":"Windeck-Gymnasium","id":"BW-81108","address":"Humboldtstraße 3, 77815 Bühl","school_type":"Gymnasium (G8)","school_type_entity":"Gymnasium","legal_status":1,"fax":"07223/94095-56","phone":"07223/94095-6","state":"BW","programs":{"programs":["Schule ohne Rassismus - Schule mit Courage"]},"full_time_school":false,"lon":8.129751,"lat":48.691929},{"name":"Maria-von-Linden-Gymnasium Stammheim","id":"BW-81144","address":"Schindelbergweg 11, 75365 Calw","school_type":"Gymnasium (G8)","school_type_entity":"Gymnasium","legal_status":1,"fax":"07051/9326-60","phone":"07051/93260","state":"BW","programs":{"programs":["Fairtrade Schools"]},"full_time_school":false,"lon":8.765399,"lat":48.691344},{"name":"Gymnasium","id":"BW-81180","address":"Riedsteige 9, 72280 Dornstetten","school_type":"Gymnasium (G8)","school_type_entity":"Gymnasium","legal_status":1,"fax":"07443/9642920","phone":"07443/964290","state":"BW","programs":{"programs":[]},"full_time_school":false,"lon":8.500436,"lat":48.472184},{"name":"Wilhelm-Hausenstein-Gymnasium Durmersheim","id":"BW-81216","address":"Weißenburgerstraße 42, 76448 Durmersheim","school_type":"Gymnasium (G8)","school_type_entity":"Gymnasium","legal_status":1,"fax":"07245/9196611","phone":"07245/919660","state":"BW","programs":{"programs":[]},"full_time_school":false,"lon":8.267986,"lat":48.93533},{"name":"Hohenstaufen-Gymnasium","id":"BW-81219","address":"Parallelweg 1, 69412 Eberbach","school_type":"Gymnasium (G8)","school_type_entity":"Gymnasium","legal_status":1,"fax":"06271/9465-299","phone":"06271/94650","state":"BW","programs":{"programs":[]},"full_time_school":false,"lon":8.977577,"lat":49.467169},{"name":"Dietrich-Bonhäffer-Gymnasium","id":"BW-81255","address":"Maximilian-Kolbe-Weg 5, 69214 Eppelheim","school_type":"Gymnasium (G8)","school_type_entity":"Gymnasium","legal_status":1,"fax":"06221/768743","phone":"06221/765500","state":"BW","programs":{"programs":[]},"full_time_school":false,"lon":8.634174,"lat":49.394722},{"name":"Albertus-Magnus-Gymnasium Schulzentrum am Kapellenweg","id":"BW-81291","address":"Middelkerker Straße 1-5, 76275 Ettlingen","school_type":"Gymnasium (G8)","school_type_entity":"Gymnasium","legal_status":1,"fax":"07243/101-495","phone":"07243/101585","state":"BW","programs":{"programs":[]},"full_time_school":false,"lon":8.399875,"lat":48.93746},{"name":"Eichendorff-Gymnasium","id":"BW-81327","address":"Goethestraße 2-10, 76275 Ettlingen","school_type":"Gymnasium (G8)","school_type_entity":"Gymnasium","legal_status":1,"fax":"07243/101-558","phone":"07243/101-347","state":"BW","programs":{"programs":[]},"full_time_school":false,"lon":8.394709,"lat":48.942478},{"name":"Kepler-Gymnasium","id":"BW-81345","address":"Ludwig-Jahn-Straße 54, 72250 Freudenstadt","school_type":"Gymnasium (G9)","school_type_entity":"Gymnasium","legal_status":1,"fax":"07441/86059666","phone":"07441/86059600","state":"BW","programs":{"programs":[]},"full_time_school":false,"lon":8.413033,"lat":48.473601},{"name":"Kepler-Gymnasium","id":"BW-81345","address":"Ludwig-Jahn-Straße 54, 72250 Freudenstadt","school_type":"Gymnasium (G8)","school_type_entity":"Gymnasium","legal_status":1,"fax":"07441/86059666","phone":"07441/86059600","state":"BW","programs":{"programs":[]},"full_time_school":false,"lon":8.413033,"lat":48.473601},{"name":"Goethe-Gymnasium","id":"BW-81381","address":"Gutenbergstraße 6, 76571 Gaggenau","school_type":"Gymnasium (G8)","school_type_entity":"Gymnasium","legal_status":1,"fax":"07225/9605-20","phone":"07225/9605-0","state":"BW","programs":{"programs":[]},"full_time_school":false,"lon":8.324874,"lat":48.803589},{"name":"Albert-Schweitzer Gymnasium","id":"BW-81417","address":"Otto-Hahn-Straße 4, 76593 Gernsbach","school_type":"Gymnasium (G8)","school_type_entity":"Gymnasium","legal_status":1,"fax":"07224/99199-30","phone":"07224/991990","state":"BW","programs":{"programs":["Be smart - don't Start","Schule ohne Rassismus - Schule mit Courage"]},"full_time_school":false,"lon":8.328182,"lat":48.766533},{"name":"Carl-Benz-Gymnasium","id":"BW-81453","address":"Realschulstraße 4, 68526 Ladenburg","school_type":"Gymnasium (G8)","school_type_entity":"Gymnasium","legal_status":1,"fax":"06203/70-415","phone":"06203/70410","state":"BW","programs":{"programs":[]},"full_time_school":false,"lon":8.609894,"lat":49.468975},{"name":"Elisabeth-Gymnasium","id":"BW-81492","address":"D 7 8, 68159 Mannheim","school_type":"Gymnasium (G8)","school_type_entity":"Gymnasium","legal_status":1,"fax":"0621/293-2549","phone":"0621/293-3030","state":"BW","programs":{"programs":["Schule ohne Rassismus - Schule mit Courage"]},"full_time_school":false,"lon":8.459642,"lat":49.490019},{"name":"Geschwister-Scholl-Gymnasium","id":"BW-81528","address":"Mecklenburger Straße 62, 68309 Mannheim","school_type":"Gymnasium (G8)","school_type_entity":"Gymnasium","legal_status":1,"fax":"0621/701-025","phone":"0621/701-027","state":"BW","programs":{"programs":["Be smart - don't Start"]},"full_time_school":false,"lon":8.537772,"lat":49.508007},{"name":"Karl-Friedrich-Gymnasium","id":"BW-81564","address":"Roonstraße 4-6, 68165 Mannheim","school_type":"Gymnasium (G9)","school_type_entity":"Gymnasium","legal_status":1,"fax":"0621/441730","phone":"0621/293-6700","state":"BW","programs":{"programs":[]},"full_time_school":false,"lon":8.4757348,"lat":49.4822306},{"name":"Karl-Friedrich-Gymnasium","id":"BW-81564","address":"Roonstraße 4-6, 68165 Mannheim","school_type":"Gymnasium (G8)","school_type_entity":"Gymnasium","legal_status":1,"fax":"0621/441730","phone":"0621/293-6700","state":"BW","programs":{"programs":[]},"full_time_school":false,"lon":8.4757348,"lat":49.4822306},{"name":"Lessing-Gymnasium","id":"BW-81600","address":"Josef-Braun-Ufer 15-16, 68165 Mannheim","school_type":"Gymnasium (G8)","school_type_entity":"Gymnasium","legal_status":1,"fax":"0621/293-6519","phone":"0621/293-6523","state":"BW","programs":{"programs":["Be smart - don't Start"]},"full_time_school":false,"lon":8.488828,"lat":49.487984},{"name":"Liselotte-Gymnasium","id":"BW-81636","address":"Wespinstraße 21-25, 68165 Mannheim","school_type":"Gymnasium (G8)","school_type_entity":"Gymnasium","legal_status":1,"fax":"0621/293-6969","phone":"0621/293-6524","state":"BW","programs":{"programs":[]},"full_time_school":false,"lon":8.485318,"lat":49.477924},{"name":"Ludwig-Frank-Gymnasium","id":"BW-81654","address":"Käfertaler Straße 117-127, 68167 Mannheim","school_type":"Gymnasium (G8)","school_type_entity":"Gymnasium","legal_status":1,"fax":"0621/293-8249","phone":"0621/293-8247","state":"BW","programs":{"programs":["Be smart - don't Start","Fairtrade Schools"]},"full_time_school":false,"lon":8.4891598,"lat":49.4955864},{"name":"Moll-Gymnasium Mannheim","id":"BW-81690","address":"Feldbergstraße 16, 68163 Mannheim","school_type":"Gymnasium (G8)","school_type_entity":"Gymnasium","legal_status":1,"fax":"0621/83399-11","phone":"0621/833990","state":"BW","programs":{"programs":[]},"full_time_school":false,"lon":8.472079,"lat":49.461168},{"name":"Feudenheim-Gymnasium","id":"BW-81729","address":"Neckarstraße 4, 68259 Mannheim","school_type":"Gymnasium (G8)","school_type_entity":"Gymnasium","legal_status":1,"fax":"0621/795518","phone":"0621/293-8413","state":"BW","programs":{"programs":["Be smart - don't Start"]},"full_time_school":false,"lon":8.53158,"lat":49.485883},{"name":"Johanna-Geissmar-Gymnasium","id":"BW-81765","address":"Lätzener Weg 2-4, 68307 Mannheim","school_type":"Gymnasium (G8)","school_type_entity":"Gymnasium","legal_status":1,"fax":"0621/77701-11","phone":"0621/777010","state":"BW","programs":{"programs":["Be smart - don't Start"]},"full_time_school":false,"lon":8.462189,"lat":49.560551},{"name":"Salzach-Gymnasium","id":"BW-81801","address":"Stuttgarter Straße 18, 75433 Maulbronn","school_type":"Gymnasium (G8)","school_type_entity":"Gymnasium","legal_status":1,"fax":"07043/920171","phone":"07043/908004","state":"BW","programs":{"programs":[]},"full_time_school":false,"lon":8.812195,"lat":48.99994},{"name":"Nicolaus-Kistner-Gymnasium","id":"BW-81912","address":"Jean de la Fontaine-Straße 6-10, 74821 Mosbach","school_type":"Gymnasium (G8)","school_type_entity":"Gymnasium","legal_status":1,"fax":"06261/9280-80","phone":"06261/9280-0","state":"BW","programs":{"programs":["Be smart - don't Start"]},"full_time_school":false,"lon":9.1343,"lat":49.3537},{"name":"Theodor-Heuss-Gymnasium","id":"BW-81963","address":"Rappstraße 9, 75417 Mühlacker","school_type":"Gymnasium (G8)","school_type_entity":"Gymnasium","legal_status":1,"fax":"07041/8767-50","phone":"07041/8767-30","state":"BW","programs":{"programs":["Be smart - don't Start"]},"full_time_school":false,"lon":8.838797,"lat":48.94555},{"name":"Otto-Hahn-Gymnasium","id":"BW-82002","address":"Burgstraße 20, 72202 Nagold","school_type":"Gymnasium (G8)","school_type_entity":"Gymnasium","legal_status":1,"fax":"07452/8465-32","phone":"07452/8465-0","state":"BW","programs":{"programs":["Be smart - don't Start"]},"full_time_school":false,"lon":8.722833,"lat":48.552895},{"name":"Adolf-Schmitthenner-Gymnasium","id":"BW-82038","address":"Obere Turmstraße 34, 74924 Neckarbischofsheim","school_type":"Gymnasium (G9)","school_type_entity":"Gymnasium","legal_status":1,"fax":"07263/60282","phone":"07263/9181-0","state":"BW","programs":{"programs":["Schule ohne Rassismus - Schule mit Courage"]},"full_time_school":false,"lon":8.965034,"lat":49.291678},{"name":"Adolf-Schmitthenner-Gymnasium","id":"BW-82038","address":"Obere Turmstraße 34, 74924 Neckarbischofsheim","school_type":"Gymnasium (G8)","school_type_entity":"Gymnasium","legal_status":1,"fax":"07263/60282","phone":"07263/9181-0","state":"BW","programs":{"programs":["Schule ohne Rassismus - Schule mit Courage"]},"full_time_school":false,"lon":8.965034,"lat":49.291678},{"name":"Auguste-Pattberg-Gymnasium Neckarelz","id":"BW-82074","address":"Heidelberger Straße 39, 74821 Mosbach","school_type":"Gymnasium (G9)","school_type_entity":"Gymnasium","legal_status":1,"fax":"06261/9724-40","phone":"06261/9724-0","state":"BW","programs":{"programs":["Be smart - don't Start"]},"full_time_school":false,"lon":9.103838,"lat":49.345273},{"name":"Auguste-Pattberg-Gymnasium Neckarelz","id":"BW-82074","address":"Heidelberger Straße 39, 74821 Mosbach","school_type":"Gymnasium (G8)","school_type_entity":"Gymnasium","legal_status":1,"fax":"06261/9724-40","phone":"06261/9724-0","state":"BW","programs":{"programs":["Be smart - don't Start"]},"full_time_school":false,"lon":9.103838,"lat":49.345273},{"name":"Gymnasium","id":"BW-82110","address":"Alter Postweg 10, 69151 Neckargemünd","school_type":"Gymnasium (G8)","school_type_entity":"Gymnasium","legal_status":1,"fax":"06223/9225-55","phone":"06223/9225-0","state":"BW","programs":{"programs":[]},"full_time_school":false,"lon":8.803223,"lat":49.39181},{"name":"Gymnasium Neuenbürg","id":"BW-82146","address":"Waldenburgweg 10, 75305 Neuenbürg","school_type":"Gymnasium (G8)","school_type_entity":"Gymnasium","legal_status":1,"fax":"07082/948389","phone":"07082/2616","state":"BW","programs":{"programs":["Be smart - don't Start","Schule ohne Rassismus - Schule mit Courage"]},"full_time_school":false,"lon":8.58186,"lat":48.850613},{"name":"Gymnasium Neureut","id":"BW-82149","address":"Unterfeldstraße 6, 76149 Karlsruhe","school_type":"Gymnasium (G8)","school_type_entity":"Gymnasium","legal_status":1,"fax":"0721/97837-25","phone":"0721/97837-0","state":"BW","programs":{"programs":[]},"full_time_school":false,"lon":8.378064,"lat":49.045697},{"name":"Ganztagsgymnasium","id":"BW-82185","address":"Hemsbacher Straße 24, 74706 Osterburken","school_type":"Gymnasium (G8)","school_type_entity":"Gymnasium","legal_status":1,"fax":"06291/6408-13","phone":"06291/6408-0","state":"BW","programs":{"programs":["Be smart - don't Start"]},"full_time_school":false,"lon":9.414272,"lat":49.43186},{"name":"Leibniz-Gymnasium","id":"BW-82221","address":"Mozartstraße 1, 76684 …stringen","school_type":"Gymnasium (G9)","school_type_entity":"Gymnasium","legal_status":1,"fax":"07253/928325","phone":"07253/928311","state":"BW","programs":{"programs":[]},"full_time_school":false,"lon":8.70821,"lat":49.216903},{"name":"Leibniz-Gymnasium","id":"BW-82221","address":"Mozartstraße 1, 76684 …stringen","school_type":"Gymnasium (G8)","school_type_entity":"Gymnasium","legal_status":1,"fax":"07253/928325","phone":"07253/928311","state":"BW","programs":{"programs":[]},"full_time_school":false,"lon":8.70821,"lat":49.216903},{"name":"Ludwig-Marum-Gymnasium Pfinztal","id":"BW-82239","address":"Schloßgartenstraße 11, 76327 Pfinztal","school_type":"Gymnasium (G8)","school_type_entity":"Gymnasium","legal_status":1,"fax":"0721/4659550","phone":"0721/4659510","state":"BW","programs":{"programs":[]},"full_time_school":false,"lon":8.533078,"lat":49.002786},{"name":"Hebel-Gymnasium","id":"BW-82275","address":"Simmlerstraße 1, 75172 Pforzheim","school_type":"Gymnasium (G8)","school_type_entity":"Gymnasium","legal_status":1,"fax":"07231/392695","phone":"07231/39-2359","state":"BW","programs":{"programs":[]},"full_time_school":false,"lon":8.694865,"lat":48.8903},{"name":"Hilda-Gymnasium Pforzheim","id":"BW-82311","address":"Kiehnlestraße 25, 75172 Pforzheim","school_type":"Gymnasium (G8)","school_type_entity":"Gymnasium","legal_status":1,"fax":"07231/39-2954","phone":"07231/39-2361","state":"BW","programs":{"programs":["Schule ohne Rassismus - Schule mit Courage"]},"full_time_school":false,"lon":8.699106,"lat":48.892867},{"name":"Kepler-Gymnasium","id":"BW-82347","address":"Redtenbacherstraße 101, 75177 Pforzheim","school_type":"Gymnasium (G8)","school_type_entity":"Gymnasium","legal_status":1,"fax":"07231/39-1689","phone":"07231/39-2712","state":"BW","programs":{"programs":[]},"full_time_school":false,"lon":8.722571,"lat":48.90155},{"name":"Reuchlin-Gymnasium","id":"BW-82383","address":"Schwarzwaldstraße 84, 75173 Pforzheim","school_type":"Gymnasium (G8)","school_type_entity":"Gymnasium","legal_status":1,"fax":"07231/39-1677","phone":"07231/392557","state":"BW","programs":{"programs":[]},"full_time_school":false,"lon":8.684947,"lat":48.882046},{"name":"Theodor-Heuss-Gymnasium","id":"BW-82458","address":"Zerrennerstraße 43-45, 75172 Pforzheim","school_type":"Gymnasium (G9)","school_type_entity":"Gymnasium","legal_status":1,"fax":"07231/39-1678","phone":"07231/39-2785","state":"BW","programs":{"programs":[]},"full_time_school":false,"lon":8.695672,"lat":48.890865},{"name":"Theodor-Heuss-Gymnasium","id":"BW-82458","address":"Zerrennerstraße 43-45, 75172 Pforzheim","school_type":"Gymnasium (G8)","school_type_entity":"Gymnasium","legal_status":1,"fax":"07231/39-1678","phone":"07231/39-2785","state":"BW","programs":{"programs":[]},"full_time_school":false,"lon":8.695672,"lat":48.890865},{"name":"Copernicus-Gymnasium","id":"BW-82494","address":"Lessingstraße 27, 76661 Philippsburg","school_type":"Gymnasium (G8)","school_type_entity":"Gymnasium","legal_status":1,"fax":"07256/87254","phone":"07256/87250","state":"BW","programs":{"programs":["Fairtrade Schools"]},"full_time_school":false,"lon":8.462683,"lat":49.235222},{"name":"Ludwig-Wilhelm-Gymnasium","id":"BW-82530","address":"Lyzeumstraße 11, 76437 Rastatt","school_type":"Gymnasium (G9)","school_type_entity":"Gymnasium","legal_status":1,"fax":"07222/37227","phone":"07222/32639","state":"BW","programs":{"programs":[]},"full_time_school":false,"lon":8.20408,"lat":48.859957},{"name":"Ludwig-Wilhelm-Gymnasium","id":"BW-82530","address":"Lyzeumstraße 11, 76437 Rastatt","school_type":"Gymnasium (G8)","school_type_entity":"Gymnasium","legal_status":1,"fax":"07222/37227","phone":"07222/32639","state":"BW","programs":{"programs":[]},"full_time_school":false,"lon":8.20408,"lat":48.859957},{"name":"Tulla-Gymnasium","id":"BW-82548","address":"Danziger Straße 1, 76437 Rastatt","school_type":"Gymnasium (G8)","school_type_entity":"Gymnasium","legal_status":1,"fax":"07222/9687581","phone":"07222/23141","state":"BW","programs":{"programs":[]},"full_time_school":false,"lon":8.21671,"lat":48.866266},{"name":"Walahfrid-Strabo-Gymnasium","id":"BW-82584","address":"Am Tummelplatz 10, 76287 Rheinstetten","school_type":"Gymnasium (G8)","school_type_entity":"Gymnasium","legal_status":1,"fax":"07242/9375-75","phone":"07242/9375-0","state":"BW","programs":{"programs":[]},"full_time_school":false,"lon":8.307,"lat":48.9685},{"name":"Friedrich-Ebert-Gymnasium","id":"BW-82620","address":"Albert-Schweitzer-Straße 5, 69207 Sandhausen","school_type":"Gymnasium (G8)","school_type_entity":"Gymnasium","legal_status":1,"fax":"06224/9332-11","phone":"06224/9332-0","state":"BW","programs":{"programs":[]},"full_time_school":false,"lon":8.661499,"lat":49.338064},{"name":"Kurpfalz-Gymnasium","id":"BW-82656","address":"Hirschberger Straße 1, 69198 Schriesheim","school_type":"Gymnasium (G8)","school_type_entity":"Gymnasium","legal_status":1,"fax":"06203/697268","phone":"06203/6972-50","state":"BW","programs":{"programs":["Be smart - don't Start"]},"full_time_school":false,"lon":8.656428,"lat":49.472169},{"name":"Hebel-Gymnasium","id":"BW-82659","address":"Goethestraße 23, 68723 Schwetzingen","school_type":"Gymnasium (G8)","school_type_entity":"Gymnasium","legal_status":1,"fax":"06202/2005-11","phone":"06202/2005-0","state":"BW","programs":{"programs":["Schule ohne Rassismus - Schule mit Courage"]},"full_time_school":false,"lon":8.584453,"lat":49.382551},{"name":"Wilhelmi-Gymnasium","id":"BW-82695","address":"Schubertstraße 2, 74889 Sinsheim","school_type":"Gymnasium (G8)","school_type_entity":"Gymnasium","legal_status":1,"fax":"07261/9259-22","phone":"07261/9259-0","state":"BW","programs":{"programs":["Schule ohne Rassismus - Schule mit Courage"]},"full_time_school":false,"lon":8.88191,"lat":49.2538},{"name":"Thomas-Mann-Gymnasium Stutensee","id":"BW-82731","address":"Gymnasiumstraße 20, 76297 Stutensee","school_type":"Gymnasium (G8)","school_type_entity":"Gymnasium","legal_status":1,"fax":"07244/735219","phone":"07244/735210","state":"BW","programs":{"programs":["Fairtrade Schools"]},"full_time_school":false,"lon":8.476256,"lat":49.064917},{"name":"Gymnasium Walldorf","id":"BW-82767","address":"Schwetzinger Straße 95, 69190 Walldorf","school_type":"Gymnasium (G8)","school_type_entity":"Gymnasium","legal_status":1,"fax":"06227/353009","phone":"06227/353000","state":"BW","programs":{"programs":["Fairtrade Schools"]},"full_time_school":false,"lon":8.636251,"lat":49.313587},{"name":"Werner-Heisenberg-Gymnasium","id":"BW-82803","address":"Friedrichstraße 7, 69469 Weinheim","school_type":"Gymnasium (G8)","school_type_entity":"Gymnasium","legal_status":1,"fax":"06201/2908855","phone":"06201/2908830","state":"BW","programs":{"programs":[]},"full_time_school":false,"lon":8.671617,"lat":49.552194},{"name":"Ottheinrich-Gymnasium Wiesloch","id":"BW-82857","address":"Gymnasiumstraße 1-3, 69168 Wiesloch","school_type":"Gymnasium (G8)","school_type_entity":"Gymnasium","legal_status":1,"fax":"06222/9294-26","phone":"06222/929413","state":"BW","programs":{"programs":[]},"full_time_school":false,"lon":8.684935,"lat":49.296872},{"name":"Enztal-Gymnasium Bad Wildbad","id":"BW-82893","address":"Paulinenstraße 39, 75323 Bad Wildbad","school_type":"Gymnasium (G9)","school_type_entity":"Gymnasium","legal_status":1,"fax":"07081/9398-99","phone":"07081/9398-0","state":"BW","programs":{"programs":[]},"full_time_school":false,"lon":8.549623,"lat":48.756839},{"name":"Enztal-Gymnasium Bad Wildbad","id":"BW-82893","address":"Paulinenstraße 39, 75323 Bad Wildbad","school_type":"Gymnasium (G8)","school_type_entity":"Gymnasium","legal_status":1,"fax":"07081/9398-99","phone":"07081/9398-0","state":"BW","programs":{"programs":[]},"full_time_school":false,"lon":8.549623,"lat":48.756839},{"name":"Gymnasium","id":"BW-82932","address":"Berliner Straße 30, 77855 Achern","school_type":"Gymnasium (G8)","school_type_entity":"Gymnasium","legal_status":1,"fax":"07841/642-3760","phone":"07841/642-1760","state":"BW","programs":{"programs":[]},"full_time_school":false,"lon":8.080825,"lat":48.636664},{"name":"Martin-Schongauer-Gymnasium","id":"BW-82968","address":"Leo-Woleb-Straße 2, 79206 Breisach am Rhein","school_type":"Gymnasium (G8)","school_type_entity":"Gymnasium","legal_status":1,"fax":"07667/90604109","phone":"07667/90604-0","state":"BW","programs":{"programs":[]},"full_time_school":false,"lon":7.5859,"lat":48.0261},{"name":"Erasmus-Gymnasium","id":"BW-83004","address":"Stuttgarter Straße 15, 79211 Denzlingen","school_type":"Gymnasium (G8)","school_type_entity":"Gymnasium","legal_status":1,"fax":"07666/9322-60","phone":"07666/9322-50","state":"BW","programs":{"programs":[]},"full_time_school":false,"lon":7.89519,"lat":48.070139},{"name":"Fürstenberg-Gymnasium","id":"BW-83040","address":"Humboldtstraße 1, 78166 Donaueschingen","school_type":"Gymnasium (G8)","school_type_entity":"Gymnasium","legal_status":1,"fax":"0771/898647-19","phone":"0771/898647-0","state":"BW","programs":{"programs":[]},"full_time_school":false,"lon":8.504493,"lat":47.956571},{"name":"Goethe-Gymnasium Emmendingen","id":"BW-83076","address":"Neubronnstraße 20, 79312 Emmendingen","school_type":"Gymnasium (G8)","school_type_entity":"Gymnasium","legal_status":1,"fax":"07641/93335959","phone":"07641/9333590","state":"BW","programs":{"programs":[]},"full_time_school":false,"lon":7.863292,"lat":48.113879},{"name":"Gymnasium Ettenheim","id":"BW-83079","address":"J.-B.-von-Weiss-Straße 7, 77955 Ettenheim","school_type":"Gymnasium (G8)","school_type_entity":"Gymnasium","legal_status":1,"fax":"07822/3008290","phone":"07822/30080","state":"BW","programs":{"programs":[]},"full_time_school":false,"lon":7.8858,"lat":48.2414},{"name":"Deutsch-Franzäsisches Gymnasium","id":"BW-83115","address":"Runzstraße 83, 79102 Freiburg im Breisgau","school_type":"Gymnasium (G8)","school_type_entity":"Gymnasium","legal_status":1,"fax":"0761/35164","phone":"0761/201-7639","state":"BW","programs":{"programs":["Fairtrade Schools"]},"full_time_school":false,"lon":7.872622,"lat":47.989871},{"name":"Berthold-Gymnasium","id":"BW-83166","address":"Hirzbergstraße 12, 79102 Freiburg im Breisgau","school_type":"Gymnasium (G8)","school_type_entity":"Gymnasium","legal_status":1,"fax":"0761/201-7479","phone":"0761/201-7631","state":"BW","programs":{"programs":[]},"full_time_school":false,"lon":7.874884,"lat":47.990471},{"name":"Friedrich-Gymnasium","id":"BW-83169","address":"Jacobistraße 22, 79104 Freiburg im Breisgau","school_type":"Gymnasium (G8)","school_type_entity":"Gymnasium","legal_status":1,"fax":"0761/2017459","phone":"0761/201-7660","state":"BW","programs":{"programs":[]},"full_time_school":false,"lon":7.859301,"lat":48.004505},{"name":"Goethe-Gymnasium","id":"BW-83205","address":"Holzmarkt 5, 79098 Freiburg im Breisgau","school_type":"Gymnasium (G8)","school_type_entity":"Gymnasium","legal_status":1,"fax":"0761/201-7449","phone":"0761/201-7668","state":"BW","programs":{"programs":[]},"full_time_school":false,"lon":7.849832,"lat":47.992405},{"name":"Kepler-Gymnasium","id":"BW-83241","address":"Johanna-Kohlund-Straße 5, 79111 Freiburg im Breisgau","school_type":"Gymnasium (G8)","school_type_entity":"Gymnasium","legal_status":1,"fax":"0761/201-7439","phone":"0761/201-7676","state":"BW","programs":{"programs":["Schule ohne Rassismus - Schule mit Courage"]},"full_time_school":false,"lon":7.793738,"lat":48.000767},{"name":"Rotteck-Gymnasium","id":"BW-83277","address":"Lessingstraße 16, 79100 Freiburg im Breisgau","school_type":"Gymnasium (G8)","school_type_entity":"Gymnasium","legal_status":1,"fax":"0761/201-7429","phone":"0761/201-7686","state":"BW","programs":{"programs":["Be smart - don't Start"]},"full_time_school":false,"lon":7.841575,"lat":47.990461},{"name":"Droste-Hülshoff-Gymnasium","id":"BW-83313","address":"Brucknerstraße 2, 79104 Freiburg im Breisgau","school_type":"Gymnasium (G8)","school_type_entity":"Gymnasium","legal_status":1,"fax":"0761/201-7469","phone":"0761/201-7647","state":"BW","programs":{"programs":["UNESCO Projektschulen"]},"full_time_school":false,"lon":7.86194,"lat":48.010435},{"name":"Theodor-Heuss-Gymnasium","id":"BW-83352","address":"Andreas-Hofer-Straße 1, 79111 Freiburg im Breisgau","school_type":"Gymnasium (G8)","school_type_entity":"Gymnasium","legal_status":1,"fax":"0761/201-7497","phone":"0761/2017690","state":"BW","programs":{"programs":[]},"full_time_school":false,"lon":7.813013,"lat":47.977871},{"name":"Wentzinger-Gymnasium","id":"BW-83388","address":"Falkenbergerstraße 21, 79110 Freiburg im Breisgau","school_type":"Gymnasium (G9)","school_type_entity":"Gymnasium","legal_status":1,"fax":"0761/201-7419","phone":"0761/201-7700","state":"BW","programs":{"programs":[]},"full_time_school":false,"lon":7.823864,"lat":48.013135},{"name":"Wentzinger-Gymnasium","id":"BW-83388","address":"Falkenbergerstraße 21, 79110 Freiburg im Breisgau","school_type":"Gymnasium (G8)","school_type_entity":"Gymnasium","legal_status":1,"fax":"0761/201-7419","phone":"0761/201-7700","state":"BW","programs":{"programs":[]},"full_time_school":false,"lon":7.823864,"lat":48.013135},{"name":"Otto-Hahn-Gymnasium mit Realschule","id":"BW-83424","address":"Colnestraße 6, 78120 Furtwangen im Schwarzwald","school_type":"Realschule","school_type_entity":"Realschule","legal_status":1,"fax":"07723/50476199","phone":"07723/504760","state":"BW","programs":{"programs":["Schule ohne Rassismus - Schule mit Courage"]},"full_time_school":false,"lon":8.195285,"lat":48.05494},{"name":"Otto-Hahn-Gymnasium mit Realschule","id":"BW-83424","address":"Colnestraße 6, 78120 Furtwangen im Schwarzwald","school_type":"Gymnasium (G8)","school_type_entity":"Gymnasium","legal_status":1,"fax":"07723/50476199","phone":"07723/504760","state":"BW","programs":{"programs":["Schule ohne Rassismus - Schule mit Courage"]},"full_time_school":false,"lon":8.195285,"lat":48.05494},{"name":"Marta-Schanzenbach-Gymnasium","id":"BW-83463","address":"Am Erhardt-Schrempp-Schulzentrum 1, 77723 Gengenbach","school_type":"Gymnasium (G9)","school_type_entity":"Gymnasium","legal_status":1,"fax":"07803/9388-118","phone":"07803/9388-0","state":"BW","programs":{"programs":[]},"full_time_school":false,"lon":8.018838,"lat":48.397611},{"name":"Marta-Schanzenbach-Gymnasium","id":"BW-83463","address":"Am Erhardt-Schrempp-Schulzentrum 1, 77723 Gengenbach","school_type":"Gymnasium (G8)","school_type_entity":"Gymnasium","legal_status":1,"fax":"07803/9388-118","phone":"07803/9388-0","state":"BW","programs":{"programs":[]},"full_time_school":false,"lon":8.018838,"lat":48.397611},{"name":"Gymnasium Gosheim-Wehingen","id":"BW-83502","address":"Im Weiher 4, 78564 Wehingen","school_type":"Gymnasium (G8)","school_type_entity":"Gymnasium","legal_status":1,"fax":"07426/9498-19","phone":"07426/9498-20","state":"BW","programs":{"programs":[]},"full_time_school":false,"lon":8.7916,"lat":48.1452},{"name":"Lise-Meitner-Gymnasium Grenzach-Wyhlen","id":"BW-83538","address":"Kantstraße 1, 79639 Grenzach-Wyhlen","school_type":"Gymnasium (G8)","school_type_entity":"Gymnasium","legal_status":1,"fax":"07624/91289-40","phone":"07624/9128910","state":"BW","programs":{"programs":[]},"full_time_school":false,"lon":7.67821,"lat":47.552123},{"name":"Albert-Schweitzer-Gymnasium","id":"BW-83574","address":"Kandelstraße 47, 79194 Gundelfingen","school_type":"Gymnasium (G8)","school_type_entity":"Gymnasium","legal_status":1,"fax":"0761/150651109","phone":"0761/1506510","state":"BW","programs":{"programs":["Fairtrade Schools"]},"full_time_school":false,"lon":7.871132,"lat":48.0414},{"name":"Robert-Gerwig-Gymnasium","id":"BW-83610","address":"Hauptstraße 3, 77756 Hausach","school_type":"Gymnasium (G9)","school_type_entity":"Gymnasium","legal_status":1,"fax":"07831/9368-33","phone":"07831/9368-0","state":"BW","programs":{"programs":[]},"full_time_school":false,"lon":8.173656,"lat":48.28406},{"name":"Robert-Gerwig-Gymnasium","id":"BW-83610","address":"Hauptstraße 3, 77756 Hausach","school_type":"Gymnasium (G8)","school_type_entity":"Gymnasium","legal_status":1,"fax":"07831/9368-33","phone":"07831/9368-0","state":"BW","programs":{"programs":[]},"full_time_school":false,"lon":8.173656,"lat":48.28406},{"name":"Einstein-Gymnasium","id":"BW-83646","address":"Haydnstraße 3, 77694 Kehl","school_type":"Gymnasium (G8)","school_type_entity":"Gymnasium","legal_status":1,"fax":"07851/9947-29","phone":"07851/99470","state":"BW","programs":{"programs":["Schule ohne Rassismus - Schule mit Courage"]},"full_time_school":false,"lon":7.82516,"lat":48.56314},{"name":"Gymnasium Kenzingen","id":"BW-83649","address":"Breslauerstraße 13, 79341 Kenzingen","school_type":"Gymnasium (G8)","school_type_entity":"Gymnasium","legal_status":1,"fax":"07644/9113-33","phone":"07644/9113-0","state":"BW","programs":{"programs":["Schule ohne Rassismus - Schule mit Courage"]},"full_time_school":false,"lon":7.770226,"lat":48.195604},{"name":"Marie-Curie-Gymnasium Kirchzarten","id":"BW-83685","address":"Giersbergstraße 33, 79199 Kirchzarten","school_type":"Gymnasium (G8)","school_type_entity":"Gymnasium","legal_status":1,"fax":"07661/90964199","phone":"07661/90964100","state":"BW","programs":{"programs":[]},"full_time_school":false,"lon":7.956233,"lat":47.960033},{"name":"Alexander-von-Humboldt-Gymnasium","id":"BW-83721","address":"Schottenstraße 2, 78462 Konstanz","school_type":"Gymnasium (G8)","school_type_entity":"Gymnasium","legal_status":1,"fax":"07531/905024","phone":"07531/905000","state":"BW","programs":{"programs":[]},"full_time_school":false,"lon":9.171179,"lat":47.662482},{"name":"Heinrich-Suso-Gymnasium","id":"BW-83739","address":"Neuhauser Straße 1, 78464 Konstanz","school_type":"Gymnasium (G8)","school_type_entity":"Gymnasium","legal_status":1,"fax":"07531/54741","phone":"07531/66278","state":"BW","programs":{"programs":[]},"full_time_school":false,"lon":9.187173,"lat":47.669316},{"name":"Ellenrieder-Gymnasium","id":"BW-83775","address":"Brauneggerstraße 29, 78462 Konstanz","school_type":"Gymnasium (G8)","school_type_entity":"Gymnasium","legal_status":1,"fax":"07531/18780","phone":"07531/914257","state":"BW","programs":{"programs":["Schule ohne Rassismus - Schule mit Courage"]},"full_time_school":false,"lon":9.170642,"lat":47.66517},{"name":"Max-Planck-Gymnasium","id":"BW-83811","address":"Max-Planck-Straße 12, 77933 Lahr","school_type":"Gymnasium (G8)","school_type_entity":"Gymnasium","legal_status":1,"fax":"07821/9195-25","phone":"07821/91950","state":"BW","programs":{"programs":["Be smart - don't Start"]},"full_time_school":false,"lon":7.876927,"lat":48.33817},{"name":"Scheffel-Gymnasium","id":"BW-83847","address":"Otto-Hahn-Straße 7, 77933 Lahr","school_type":"Gymnasium (G8)","school_type_entity":"Gymnasium","legal_status":1,"fax":"07821/919635","phone":"07821/919630","state":"BW","programs":{"programs":["Be smart - don't Start"]},"full_time_school":false,"lon":7.849668,"lat":48.337739},{"name":"Hebel-Gymnasium","id":"BW-83883","address":"Baumgartnerstraße 28, 79540 Lärrach","school_type":"Gymnasium (G8)","school_type_entity":"Gymnasium","legal_status":1,"fax":"07621/3242","phone":"07621/2830","state":"BW","programs":{"programs":[]},"full_time_school":false,"lon":7.664832,"lat":47.607871},{"name":"Hans-Thoma-Gymnasium Lärrach","id":"BW-83922","address":"Baumgartnerstraße 26, 79540 Lärrach","school_type":"Gymnasium (G8)","school_type_entity":"Gymnasium","legal_status":1,"fax":"07621/91404815","phone":"07621/9140480","state":"BW","programs":{"programs":[]},"full_time_school":false,"lon":7.663898,"lat":47.608158},{"name":"Markgräfler Gymnasium","id":"BW-83958","address":"Bismarckstraße 10, 79379 Müllheim","school_type":"Gymnasium (G8)","school_type_entity":"Gymnasium","legal_status":1,"fax":"07631/4270","phone":"07631/2322","state":"BW","programs":{"programs":["Be smart - don't Start"]},"full_time_school":false,"lon":7.626395,"lat":47.811049},{"name":"Hans-Furler-Gymnasium","id":"BW-83994","address":"Butschbacherstraße 48, 77704 Oberkirch","school_type":"Gymnasium (G8)","school_type_entity":"Gymnasium","legal_status":1,"fax":"07802/82-215","phone":"07802/82-211","state":"BW","programs":{"programs":[]},"full_time_school":false,"lon":8.071303,"lat":48.527722},{"name":"Gymnasium am Rosenberg","id":"BW-84030","address":"Eugen-Frueth-Straße 5, 78727 Oberndorf am Neckar","school_type":"Gymnasium (G8)","school_type_entity":"Gymnasium","legal_status":1,"fax":"07423/8678-31","phone":"07423/8678-10","state":"BW","programs":{"programs":["Fairtrade Schools"]},"full_time_school":false,"lon":8.573081,"lat":48.290921},{"name":"Grimmelshausen-Gymnasium","id":"BW-84048","address":"Gymnasiumstraße 9, 77652 Offenburg","school_type":"Gymnasium (G8)","school_type_entity":"Gymnasium","legal_status":1,"fax":"0781/9706290","phone":"0781/9706280","state":"BW","programs":{"programs":[]},"full_time_school":false,"lon":7.944738,"lat":48.467302},{"name":"Oken-Gymnasium","id":"BW-84084","address":"Vogesenstraße 10, 77652 Offenburg","school_type":"Gymnasium (G8)","school_type_entity":"Gymnasium","legal_status":1,"fax":"0781/9259-27","phone":"0781/9259-0","state":"BW","programs":{"programs":[]},"full_time_school":false,"lon":7.940118,"lat":48.477669},{"name":"Schiller-Gymnasium","id":"BW-84120","address":"Zeller Straße 33, 77654 Offenburg","school_type":"Gymnasium (G8)","school_type_entity":"Gymnasium","legal_status":1,"fax":"0781/9377-28","phone":"0781/9377-0","state":"BW","programs":{"programs":[]},"full_time_school":false,"lon":7.951569,"lat":48.473528},{"name":"Friedrich-Hecker-Gymnasium","id":"BW-84156","address":"Markelfinger Straße 15, 78315 Radolfzell am Bodensee","school_type":"Gymnasium (G8)","school_type_entity":"Gymnasium","legal_status":1,"fax":"07732/9478-99","phone":"07732/9478-0","state":"BW","programs":{"programs":["Be smart - don't Start"]},"full_time_school":false,"lon":8.979572,"lat":47.746426},{"name":"Anne-Frank-Gymnasium Rheinau","id":"BW-84159","address":"Gymnasiumstraße 10, 77866 Rheinau","school_type":"Gymnasium (G8)","school_type_entity":"Gymnasium","legal_status":1,"fax":"07844/99268-18","phone":"07844/99268-0","state":"BW","programs":{"programs":[]},"full_time_school":false,"lon":7.930429,"lat":48.654542},{"name":"Georg-Büchner-Gymnasium","id":"BW-84195","address":"Maurice-Sadorge-Straße 6, 79618 Rheinfelden (Baden)","school_type":"Gymnasium (G8)","school_type_entity":"Gymnasium","legal_status":1,"fax":"07623/3386","phone":"07623/8627","state":"BW","programs":{"programs":[]},"full_time_school":false,"lon":7.776979,"lat":47.561414},{"name":"Albertus-Magnus-Gymnasium","id":"BW-84231","address":"Bismarckstraße 2, 78628 Rottweil","school_type":"Gymnasium (G8)","school_type_entity":"Gymnasium","legal_status":1,"fax":"0741/23658","phone":"0741/13466","state":"BW","programs":{"programs":[]},"full_time_school":false,"lon":8.625592,"lat":48.16148},{"name":"Droste-Hülshoff-Gymnasium","id":"BW-84267","address":"Bismarckstraße 4, 78628 Rottweil","school_type":"Gymnasium (G8)","school_type_entity":"Gymnasium","legal_status":1,"fax":"0741/15649","phone":"0741/23990","state":"BW","programs":{"programs":[]},"full_time_school":false,"lon":8.625187,"lat":48.160717},{"name":"Leibniz-Gymnasium","id":"BW-84303","address":"Heerstraße 140, 78628 Rottweil","school_type":"Gymnasium (G8)","school_type_entity":"Gymnasium","legal_status":1,"fax":"0741/2007","phone":"0741/15116","state":"BW","programs":{"programs":[]},"full_time_school":false,"lon":8.620908,"lat":48.161037},{"name":"Scheffel-Gymnasium","id":"BW-84357","address":"Untere Flüh 4, 79713 Bad Säckingen","school_type":"Gymnasium (G8)","school_type_entity":"Gymnasium","legal_status":1,"fax":"07761/929832","phone":"07761/929830","state":"BW","programs":{"programs":[]},"full_time_school":false,"lon":7.943676,"lat":47.555331},{"name":"Thomas-Strittmatter-Gymnasium","id":"BW-84393","address":"Im Hochwald 8, 78112 St. Georgen","school_type":"Gymnasium (G8)","school_type_entity":"Gymnasium","legal_status":1,"fax":"07724/3318","phone":"07724/87140","state":"BW","programs":{"programs":["Fairtrade Schools"]},"full_time_school":false,"lon":8.325525,"lat":48.128904},{"name":"Gymnasium","id":"BW-84432","address":"Talstraße 15, 79677 Schänau","school_type":"Gymnasium (G8)","school_type_entity":"Gymnasium","legal_status":1,"fax":"07673/7865","phone":"07673/7190","state":"BW","programs":{"programs":["Be smart - don't Start"]},"full_time_school":false,"lon":7.893816,"lat":47.786375},{"name":"Theodor-Heuss-Gymnasium","id":"BW-84468","address":"Schlierbachstraße 19, 79650 Schopfheim","school_type":"Gymnasium (G9)","school_type_entity":"Gymnasium","legal_status":1,"fax":"07622/68441844","phone":"07622/684418-0","state":"BW","programs":{"programs":[]},"full_time_school":false,"lon":7.829029,"lat":47.647243},{"name":"Theodor-Heuss-Gymnasium","id":"BW-84468","address":"Schlierbachstraße 19, 79650 Schopfheim","school_type":"Gymnasium (G8)","school_type_entity":"Gymnasium","legal_status":1,"fax":"07622/68441844","phone":"07622/684418-0","state":"BW","programs":{"programs":[]},"full_time_school":false,"lon":7.829029,"lat":47.647243},{"name":"Gymnasium","id":"BW-84504","address":"Berneckstraße 32, 78713 Schramberg","school_type":"Gymnasium (G8)","school_type_entity":"Gymnasium","legal_status":1,"fax":"07422/29649","phone":"07422/29600","state":"BW","programs":{"programs":[]},"full_time_school":false,"lon":8.385907,"lat":48.221127},{"name":"Hegau-Gymnasium","id":"BW-84540","address":"Alemannenstraße 21, 78224 Singen (Hohentwiel)","school_type":"Gymnasium (G8)","school_type_entity":"Gymnasium","legal_status":1,"fax":"07731/9597-27","phone":"07731/9597-0","state":"BW","programs":{"programs":["Be smart - don't Start"]},"full_time_school":false,"lon":8.838166,"lat":47.764785},{"name":"Friedrich-Wähler-Gymnasium","id":"BW-84576","address":"Münchriedstraße 4, 78224 Singen (Hohentwiel)","school_type":"Gymnasium (G8)","school_type_entity":"Gymnasium","legal_status":1,"fax":"07731/8732-20","phone":"07731/87320","state":"BW","programs":{"programs":["Fairtrade Schools"]},