[{"address":"Rombacher Straße 30, 73430 Aalen","fax":"07361/9561-20","full_time_school":false,"id":"BW-75774","lat":48.838598,"lon":10.08184,"name":"Schubart-Gymnasium Partnerschule für Europa","official_id":"75774","phone":"07361/9561-0","school_type":"Gymnasium (G8)","school_type_entity":"Gymnasium","state":"BW"},{"address":"Friedrichstraße 70, 73430 Aalen","fax":"07361/9560-50","full_time_school":false,"id":"BW-75810","lat":48.841283,"lon":10.08923,"name":"Theodor-Heuss-Gymnasium","official_id":"75810","phone":"07361/95603","school_type":"Gymnasium (G9)","school_type_entity":"Gymnasium","state":"BW"},{"address":"Friedrichstraße 70, 73430 Aalen","fax":"07361/9560-50","full_time_school":false,"id":"BW-75810","lat":48.841283,"lon":10.08923,"name":"Theodor-Heuss-Gymnasium","official_id":"75810","phone":"07361/95603","school_type":"Gymnasium (G8)","school_type_entity":"Gymnasium","state":"BW"},{"address":"Am Schäle 19, 73433 Aalen","fax":"07361/977080","full_time_school":false,"id":"BW-75846","lat":48.869381,"lon":10.097729,"name":"Kopernikus-Gymnasium Wasseralfingen","official_id":"75846","phone":"07361/97706","school_type":"Gymnasium (G8)","school_type_entity":"Gymnasium","state":"BW"},{"address":"Karlstraße 19, 71638 Ludwigsburg","fax":"07141/910-2653","full_time_school":false,"id":"BW-75849","lat":48.892007,"lon":9.188984,"name":"Märike-Gymnasium","official_id":"75849","phone":"07141/910-2339","school_type":"Gymnasium (G9)","school_type_entity":"Gymnasium","state":"BW"},{"address":"Karlstraße 19, 71638 Ludwigsburg","fax":"07141/910-2653","full_time_school":false,"id":"BW-75849","lat":48.892007,"lon":9.188984,"name":"Märike-Gymnasium","official_id":"75849","phone":"07141/910-2339","school_type":"Gymnasium (G8)","school_type_entity":"Gymnasium","state":"BW"},{"address":"Lyonel-Feininger-Weg 3, 71679 Asperg","fax":"07141/6812120","full_time_school":false,"id":"BW-75885","lat":48.900504,"lon":9.134425,"name":"Friedrich-List-Gymnasium Asperg","official_id":"75885","phone":"07141/6812110","school_type":"Gymnasium (G8)","school_type_entity":"Gymnasium","state":"BW"},{"address":"Maubacher Straße 62, 71522 Backnang","fax":"07191/914050","full_time_school":false,"id":"BW-75921","lat":48.94103,"lon":9.429386,"name":"Max-Born-Gymnasium","official_id":"75921","phone":"07191/91400","school_type":"Gymnasium (G8)","school_type_entity":"Gymnasium","state":"BW"},{"address":"Häfnersweg 63, 71522 Backnang","fax":"07191/904646","full_time_school":false,"id":"BW-75939","lat":48.953517,"lon":9.445765,"name":"Gymnasium in der Taus","official_id":"75939","phone":"07191/90460","school_type":"Gymnasium (G9)","school_type_entity":"Gymnasium","state":"BW"},{"address":"Häfnersweg 63, 71522 Backnang","fax":"07191/904646","full_time_school":false,"id":"BW-75939","lat":48.953517,"lon":9.445765,"name":"Gymnasium in der Taus","official_id":"75939","phone":"07191/90460","school_type":"Gymnasium (G8)","school_type_entity":"Gymnasium","state":"BW"},{"address":"Kopernikusstraße 11, 97980 Bad Mergentheim","fax":"07931/574913","full_time_school":false,"id":"BW-75975","lat":49.487687,"lon":9.785563,"name":"Deutschorden-Gymnasium","official_id":"75975","phone":"07931/574070","school_type":"Gymnasium (G8)","school_type_entity":"Gymnasium","state":"BW"},{"address":"Schulstraße 23, 74206 Bad Wimpfen","fax":"07063/933612","full_time_school":false,"id":"BW-76011","lat":49.228046,"lon":9.160848,"name":"Hohenstaufen-Gymnasium","official_id":"76011","phone":"07063/9336-0","school_type":"Gymnasium (G8)","school_type_entity":"Gymnasium","state":"BW"},{"address":"Dammstraße 20, 71717 Beilstein","fax":"07062/3074","full_time_school":false,"id":"BW-76047","lat":49.044147,"lon":9.309506,"name":"Herzog-Christoph-Gymnasium","official_id":"76047","phone":"07062/3232","school_type":"Gymnasium (G9)","school_type_entity":"Gymnasium","state":"BW"},{"address":"Dammstraße 20, 71717 Beilstein","fax":"07062/3074","full_time_school":false,"id":"BW-76047","lat":49.044147,"lon":9.309506,"name":"Herzog-Christoph-Gymnasium","official_id":"76047","phone":"07062/3232","school_type":"Gymnasium (G8)","school_type_entity":"Gymnasium","state":"BW"},{"address":"Auf dem Kies 27, 74354 Besigheim","fax":"07143/35471","full_time_school":false,"id":"BW-76083","lat":48.999049,"lon":9.147398,"name":"Christoph-Schrempf-Gymnasium Besigheim","official_id":"76083","phone":"07143/80560","school_type":"Gymnasium (G8)","school_type_entity":"Gymnasium","state":"BW"},{"address":"Ellentalstraße 10, 74321 Bietigheim-Bissingen","fax":"07142/74-536","full_time_school":false,"id":"BW-76122","lat":48.954492,"lon":9.124443,"name":"Gymnasium I im Ellental","official_id":"76122","phone":"07142/74-503","school_type":"Gymnasium (G8)","school_type_entity":"Gymnasium","state":"BW"},{"address":"Ellentalstraße 10, 74321 Bietigheim-Bissingen","fax":"07142/74-536","full_time_school":false,"id":"BW-76158","lat":48.954492,"lon":9.124443,"name":"Gymnasium II im Ellental","official_id":"76158","phone":"07142/74-503","school_type":"Gymnasium (G8)","school_type_entity":"Gymnasium","state":"BW"},{"address":"Zeppelinstraße 50, 71032 Bäblingen","fax":"07031/669-4469","full_time_school":false,"id":"BW-76194","lat":48.688093,"lon":9.019702,"name":"Albert-Einstein-Gymnasium","official_id":"76194","phone":"07031/669-4443","school_type":"Gymnasium (G8)","school_type_entity":"Gymnasium","state":"BW"},{"address":"Danziger Straße 10, 71034 Bäblingen","fax":"07031/6694499","full_time_school":false,"id":"BW-76230","lat":48.679227,"lon":8.998006,"name":"Otto-Hahn-Gymnasium","official_id":"76230","phone":"07031/6694473","school_type":"Gymnasium (G8)","school_type_entity":"Gymnasium","state":"BW"},{"address":"Murkenbachweg 4, 71032 Bäblingen","fax":"07031/669-4529","full_time_school":false,"id":"BW-76248","lat":48.679552,"lon":9.025329,"name":"Max-Planck-Gymnasium","official_id":"76248","phone":"07031/6694503","school_type":"Gymnasium (G8)","school_type_entity":"Gymnasium","state":"BW"},{"address":"Alte Neresheimer Straße 39, 73441 Bopfingen","fax":"07362/956038-19","full_time_school":false,"id":"BW-76320","lat":48.853459,"lon":10.345841,"name":"Ostalb-Gymnasium","official_id":"76320","phone":"07362/956038-10","school_type":"Gymnasium (G8)","school_type_entity":"Gymnasium","state":"BW"},{"address":"Hirnerweg 15, 74336 Brackenheim","fax":"07135/982915","full_time_school":false,"id":"BW-76356","lat":49.077665,"lon":9.061467,"name":"Zabergäu-Gymnasium","official_id":"76356","phone":"07135/982911","school_type":"Gymnasium (G8)","school_type_entity":"Gymnasium","state":"BW"},{"address":"Dr.-Ascher-Weg 1, 74564 Crailsheim","fax":"07951/42046","full_time_school":false,"id":"BW-76359","lat":49.141381,"lon":10.070767,"name":"Albert-Schweitzer-Gymnasium","official_id":"76359","phone":"07951/297910","school_type":"Gymnasium (G9)","school_type_entity":"Gymnasium","state":"BW"},{"address":"Dr.-Ascher-Weg 1, 74564 Crailsheim","fax":"07951/42046","full_time_school":false,"id":"BW-76359","lat":49.141381,"lon":10.070767,"name":"Albert-Schweitzer-Gymnasium","official_id":"76359","phone":"07951/297910","school_type":"Gymnasium (G8)","school_type_entity":"Gymnasium","state":"BW"},{"address":"Gräninger Straße 29, 71254 Ditzingen","fax":"07156/968613","full_time_school":false,"id":"BW-76395","lat":48.82639,"lon":9.06667,"name":"Gymnasium in der Glemsaue Ditzingen","official_id":"76395","phone":"07156/9686-0","school_type":"Gymnasium (G8)","school_type_entity":"Gymnasium","state":"BW"},{"address":"Dr.-Frey-Straße 38, 73072 Donzdorf","fax":"07162/922639","full_time_school":false,"id":"BW-76431","lat":48.686204,"lon":9.818798,"name":"Rechberg-Gymnasium","official_id":"76431","phone":"07162/922625","school_type":"Gymnasium (G8)","school_type_entity":"Gymnasium","state":"BW"},{"address":"Bünzwanger Straße 35, 73061 Ebersbach an der Fils","fax":"07163/6902","full_time_school":false,"id":"BW-76467","lat":48.70893,"lon":9.526379,"name":"Raichberg-Gymnasium","official_id":"76467","phone":"07163/912320","school_type":"Gymnasium (G8)","school_type_entity":"Gymnasium","state":"BW"},{"address":"Talstraße 50, 73054 Eislingen","fax":"07161/98425-19","full_time_school":false,"id":"BW-76503","lat":48.701019,"lon":9.718872,"name":"Erich-Kästner-Gymnasium","official_id":"76503","phone":"07161/98425-0","school_type":"Gymnasium (G8)","school_type_entity":"Gymnasium","state":"BW"},{"address":"Peutingerstraße 16, 73479 Ellwangen (Jagst)","fax":"07961/84858","full_time_school":false,"id":"BW-76557","lat":48.965721,"lon":10.134689,"name":"Peutinger-Gymnasium","official_id":"76557","phone":"07961/84-850","school_type":"Gymnasium (G8)","school_type_entity":"Gymnasium","state":"BW"},{"address":"Berliner Straße 25, 73479 Ellwangen (Jagst)","fax":"07961/84826","full_time_school":false,"id":"BW-76593","lat":48.968504,"lon":10.118373,"name":"Hariolf-Gymnasium","official_id":"76593","phone":"07961/84815","school_type":"Gymnasium (G8)","school_type_entity":"Gymnasium","state":"BW"},{"address":"Adolf-Vielhauer-Straße 13, 75031 Eppingen","fax":"07262/920-201","full_time_school":false,"id":"BW-76632","lat":49.131036,"lon":8.912228,"name":"Hartmanni-Gymnasium Eppingen","official_id":"76632","phone":"07262/920-200","school_type":"Gymnasium (G8)","school_type_entity":"Gymnasium","state":"BW"},{"address":"Lohwasen 1, 73728 Esslingen am Neckar","fax":"0711/3512-3208","full_time_school":false,"id":"BW-76668","lat":48.742762,"lon":9.301292,"name":"Georgii-Gymnasium","official_id":"76668","phone":"0711/3512-2324","school_type":"Gymnasium (G8)","school_type_entity":"Gymnasium","state":"BW"},{"address":"Neckarstraße 38, 73728 Esslingen am Neckar","fax":"0711/3512-2756","full_time_school":false,"id":"BW-76704","lat":48.736966,"lon":9.310579,"name":"Märike-Gymnasium","official_id":"76704","phone":"0711/3512-2328","school_type":"Gymnasium (G8)","school_type_entity":"Gymnasium","state":"BW"},{"address":"Barbarossastraße 85, 73732 Esslingen am Neckar","fax":"0711/3512-3360","full_time_school":false,"id":"BW-76740","lat":48.755884,"lon":9.305436,"name":"Schelztor-Gymnasium Esslingen","official_id":"76740","phone":"0711/3512-3350","school_type":"Gymnasium (G8)","school_type_entity":"Gymnasium","state":"BW"},{"address":"Breslauer Straße 19, 73730 Esslingen am Neckar","fax":"0711/3512-3222","full_time_school":false,"id":"BW-76776","lat":48.731409,"lon":9.3415,"name":"Theodor-Heuss-Gymnasium","official_id":"76776","phone":"0711/3512-2456","school_type":"Gymnasium (G8)","school_type_entity":"Gymnasium","state":"BW"},{"address":"Pestalozzistraße 50, 70736 Fellbach","fax":"0711/5851-7575","full_time_school":false,"id":"BW-76779","lat":48.817943,"lon":9.275419,"name":"Friedrich-Schiller-Gymnasium","official_id":"76779","phone":"0711/5851-293","school_type":"Gymnasium (G8)","school_type_entity":"Gymnasium","state":"BW"},{"address":"Hofäckerstraße 8, 70736 Fellbach","fax":"0711/5404897","full_time_school":false,"id":"BW-76815","lat":48.833001,"lon":9.269179,"name":"Gustav-Stresemann-Gymnasium Schmiden","official_id":"76815","phone":"0711/5851-632","school_type":"Gymnasium (G8)","school_type_entity":"Gymnasium","state":"BW"},{"address":"Tübinger Straße 71, 70794 Filderstadt","fax":"0711/7086129","full_time_school":false,"id":"BW-76866","lat":48.668241,"lon":9.211959,"name":"Eduard-Spranger-Gymnasium Bernhausen","official_id":"76866","phone":"0711/7086110","school_type":"Gymnasium (G8)","school_type_entity":"Gymnasium","state":"BW"},{"address":"Schloßstraße 24, 74405 Gaildorf","fax":"07971/253-230","full_time_school":false,"id":"BW-76869","lat":49.003193,"lon":9.773727,"name":"Schenk-von-Limpurg-Gymnasium Gaildorf","official_id":"76869","phone":"07971/253-200","school_type":"Gymnasium (G8)","school_type_entity":"Gymnasium","state":"BW"},{"address":"Kaiser-Wilhelm-Straße 3, 73312 Geislingen an der Steige","fax":"07331/941608","full_time_school":false,"id":"BW-76905","lat":48.620738,"lon":9.839852,"name":"Helfenstein-Gymnasium","official_id":"76905","phone":"07331/941675","school_type":"Gymnasium (G9)","school_type_entity":"Gymnasium","state":"BW"},{"address":"Kaiser-Wilhelm-Straße 3, 73312 Geislingen an der Steige","fax":"07331/941608","full_time_school":false,"id":"BW-76905","lat":48.620738,"lon":9.839852,"name":"Helfenstein-Gymnasium","official_id":"76905","phone":"07331/941675","school_type":"Gymnasium (G8)","school_type_entity":"Gymnasium","state":"BW"},{"address":"Staubstraße 50, 73312 Geislingen an der Steige","fax":"07331/954712","full_time_school":false,"id":"BW-76941","lat":48.621174,"lon":9.817471,"name":"Michelberg-Gymnasium","official_id":"76941","phone":"07331/954711","school_type":"Gymnasium (G8)","school_type_entity":"Gymnasium","state":"BW"},{"address":"Jahnstraße 5-7, 74582 Gerabronn","fax":"07952/6960-21","full_time_school":false,"id":"BW-76977","lat":49.251577,"lon":9.927587,"name":"Gymnasium Gerabronn","official_id":"76977","phone":"07952/9660-11","school_type":"Gymnasium (G8)","school_type_entity":"Gymnasium","state":"BW"},{"address":"Hasenbergstraße 16/2, 70839 Gerlingen","fax":"07156/205-398","full_time_school":false,"id":"BW-77013","lat":48.797113,"lon":9.060836,"name":"Robert-Bosch-Gymnasium","official_id":"77013","phone":"07156/205-280","school_type":"Gymnasium (G8)","school_type_entity":"Gymnasium","state":"BW"},{"address":"Beethovenstraße 10, 89537 Giengen an der Brenz","fax":"07322/963516","full_time_school":false,"id":"BW-77052","lat":48.623678,"lon":10.240292,"name":"Margarete-Steiff-Gymnasium","official_id":"77052","phone":"07322/963512","school_type":"Gymnasium (G9)","school_type_entity":"Gymnasium","state":"BW"},{"address":"Beethovenstraße 10, 89537 Giengen an der Brenz","fax":"07322/963516","full_time_school":false,"id":"BW-77052","lat":48.623678,"lon":10.240292,"name":"Margarete-Steiff-Gymnasium","official_id":"77052","phone":"07322/963512","school_type":"Gymnasium (G8)","school_type_entity":"Gymnasium","state":"BW"},{"address":"Freihofstraße 43, 73033 Gäppingen","fax":"07161/650-386","full_time_school":false,"id":"BW-77088","lat":48.704671,"lon":9.653296,"name":"Freihof-Gymnasium","official_id":"77088","phone":"07161/650-397","school_type":"Gymnasium (G8)","school_type_entity":"Gymnasium","state":"BW"},{"address":"Hohenstaufenstraße 39, 73033 Gäppingen","fax":"07161/96296-27","full_time_school":false,"id":"BW-77124","lat":48.704582,"lon":9.667929,"name":"Hohenstaufen-Gymnasium","official_id":"77124","phone":"07161/962960","school_type":"Gymnasium (G8)","school_type_entity":"Gymnasium","state":"BW"},{"address":"Märikestraße 29, 73033 Gäppingen","fax":"07161/9629727","full_time_school":false,"id":"BW-77142","lat":48.707926,"lon":9.655542,"name":"Märike-Gymnasium","official_id":"77142","phone":"07161/96297-0","school_type":"Gymnasium (G8)","school_type_entity":"Gymnasium","state":"BW"},{"address":"Jahnstraße 4, 73037 Gäppingen","fax":"07161/96298-23","full_time_school":false,"id":"BW-77178","lat":48.700074,"lon":9.647938,"name":"Werner-Heisenberg-Gymnasium","official_id":"77178","phone":"07161/96298-0","school_type":"Gymnasium (G8)","school_type_entity":"Gymnasium","state":"BW"},{"address":"Bahnhofplatz 8, 89518 Heidenheim an der Brenz","fax":"07321/327-5413","full_time_school":false,"id":"BW-77214","lat":48.680212,"lon":10.155317,"name":"Hellenstein-Gymnasium","official_id":"77214","phone":"07321/327-5400","school_type":"Gymnasium (G8)","school_type_entity":"Gymnasium","state":"BW"},{"address":"Friedrich-Ebert-Straße 8, 89522 Heidenheim an der Brenz","fax":"07321/923017","full_time_school":false,"id":"BW-77250","lat":48.675291,"lon":10.161355,"name":"Schiller-Gymnasium","official_id":"77250","phone":"07321/327-5420","school_type":"Gymnasium (G8)","school_type_entity":"Gymnasium","state":"BW"},{"address":"Virchowstraße 30-44, 89518 Heidenheim an der Brenz","fax":"07321/3275449","full_time_school":false,"id":"BW-77286","lat":48.686866,"lon":10.148952,"name":"Max-Planck-Gymnasium","official_id":"77286","phone":"07321/327-5440","school_type":"Gymnasium (G8)","school_type_entity":"Gymnasium","state":"BW"},{"address":"Kraichgauplatz 17, 74080 Heilbronn","fax":"07131/46930","full_time_school":false,"id":"BW-77289","lat":49.145307,"lon":9.180162,"name":"Elly-Heuss-Knapp-Gymnasium","official_id":"77289","phone":"07131/897721","school_type":"Gymnasium (G8)","school_type_entity":"Gymnasium","state":"BW"},{"address":"Max-von-Laue-Straße 1-3, 74081 Heilbronn","fax":"07131/564022","full_time_school":false,"id":"BW-77325","lat":49.118296,"lon":9.211799,"name":"Justinus-Kerner-Gymnasium Heilbronn","official_id":"77325","phone":"07131/562448","school_type":"Gymnasium (G8)","school_type_entity":"Gymnasium","state":"BW"},{"address":"Bismarckstraße 10, 74072 Heilbronn","fax":"07131/84915","full_time_school":false,"id":"BW-77361","lat":49.139962,"lon":9.226822,"name":"Robert-Mayer-Gymnasium","official_id":"77361","phone":"07131/642800","school_type":"Gymnasium (G8)","school_type_entity":"Gymnasium","state":"BW"},{"address":"Gymnasiumstraße 70, 74072 Heilbronn","fax":"07131/562416","full_time_school":false,"id":"BW-77397","lat":49.142476,"lon":9.226522,"name":"Theodor-Heuss-Gymnasium","official_id":"77397","phone":"07131/562451","school_type":"Gymnasium (G8)","school_type_entity":"Gymnasium","state":"BW"},{"address":"Karlstraße 44, 74072 Heilbronn","fax":"07131/564229","full_time_school":false,"id":"BW-77433","lat":49.142609,"lon":9.228245,"name":"Mänchsee-Gymnasium","official_id":"77433","phone":"07131/562452","school_type":"Gymnasium (G8)","school_type_entity":"Gymnasium","state":"BW"},{"address":"Brückenstraße 10, 89542 Herbrechtingen","fax":"07324/955-1410","full_time_school":false,"id":"BW-77439","lat":48.620632,"lon":10.173092,"name":"Buigen-Gymnasium","official_id":"77439","phone":"07324/9551422","school_type":"Gymnasium (G8)","school_type_entity":"Gymnasium","state":"BW"},{"address":"Längenholz 2, 71083 Herrenberg","fax":"07032/949919","full_time_school":false,"id":"BW-77475","lat":48.590253,"lon":8.874371,"name":"Schickhardt-Gymnasium","official_id":"77475","phone":"07032/949910","school_type":"Gymnasium (G8)","school_type_entity":"Gymnasium","state":"BW"},{"address":"Schießtäle 33, 71083 Herrenberg","fax":"07032/9498-19","full_time_school":false,"id":"BW-77511","lat":48.59234,"lon":8.854316,"name":"Andreä-Gymnasium","official_id":"77511","phone":"07032/9498-0","school_type":"Gymnasium (G8)","school_type_entity":"Gymnasium","state":"BW"},{"address":"Helmut-Härmann-Straße 19, 73540 Heubach","fax":"07173/929924","full_time_school":false,"id":"BW-77547","lat":48.78333,"lon":9.93333,"name":"Rosenstein-Gymnasium","official_id":"77547","phone":"07173/929922","school_type":"Gymnasium (G8)","school_type_entity":"Gymnasium","state":"BW"},{"address":"Jesinger Halde 5, 73230 Kirchheim unter Teck","fax":"07021/5039133","full_time_school":false,"id":"BW-77583","lat":48.644142,"lon":9.470309,"name":"Schloßgymnasium","official_id":"77583","phone":"07021/503910","school_type":"Gymnasium (G8)","school_type_entity":"Gymnasium","state":"BW"},{"address":"Hahnweidstraße 34, 73230 Kirchheim unter Teck","fax":"07021/504113","full_time_school":false,"id":"BW-77622","lat":48.641748,"lon":9.446446,"name":"Ludwig-Uhland-Gymnasium","official_id":"77622","phone":"07021/50410","school_type":"Gymnasium (G8)","school_type_entity":"Gymnasium","state":"BW"},{"address":"Charlottenstraße 53, 70825 Korntal-Münchingen","fax":"0711/831640","full_time_school":false,"id":"BW-77658","lat":48.830448,"lon":9.115771,"name":"Gymnasium Korntal-Münchingen","official_id":"77658","phone":"0711/8398720","school_type":"Gymnasium (G8)","school_type_entity":"Gymnasium","state":"BW"},{"address":"Hohenstaufenallee 8, 70806 Kornwestheim","fax":"07154/202-6110","full_time_school":false,"id":"BW-77694","lat":48.858404,"lon":9.189367,"name":"Ernst-Sigle-Gymnasium","official_id":"77694","phone":"07154/2026101","school_type":"Gymnasium (G8)","school_type_entity":"Gymnasium","state":"BW"},{"address":"Mühlbergstraße 65, 74653 Künzelsau","fax":"07940/982222","full_time_school":false,"id":"BW-77730","lat":49.28837,"lon":9.68153,"name":"Ganerben-Gymnasium","official_id":"77730","phone":"07940/9822-0","school_type":"Gymnasium (G8)","school_type_entity":"Gymnasium","state":"BW"},{"address":"Charlottenstraße 87, 74348 Lauffen am Neckar","fax":"07133/21943","full_time_school":false,"id":"BW-77748","lat":49.070664,"lon":9.139579,"name":"Hälderlin-Gymnasium","official_id":"77748","phone":"07133/7673","school_type":"Gymnasium (G8)","school_type_entity":"Gymnasium","state":"BW"},{"address":"Schimmelwiesenstraße 24, 70771 Leinfelden-Echterdingen","fax":"0711/7945534-30","full_time_school":false,"id":"BW-77784","lat":48.688851,"lon":9.155329,"name":"Philipp-Matthäus-Hahn-Gymnasium Echterdingen","official_id":"77784","phone":"0711/79455340","school_type":"Gymnasium (G8)","school_type_entity":"Gymnasium","state":"BW"},{"address":"Anemonenstraße 15, 70771 Leinfelden-Echterdingen","fax":"0711/1600-503","full_time_school":false,"id":"BW-77820","lat":48.699114,"lon":9.13622,"name":"Immanuel-Kant-Gymnasium Leinfelden","official_id":"77820","phone":"0711/1600-500","school_type":"Gymnasium (G8)","school_type_entity":"Gymnasium","state":"BW"},{"address":"Gerhart-Hauptmann-Straße 15, 71229 Leonberg","fax":"07152/990-4190","full_time_school":false,"id":"BW-77856","lat":48.797583,"lon":9.009644,"name":"Albert-Schweitzer-Gymnasium","official_id":"77856","phone":"07152/9904103","school_type":"Gymnasium (G8)","school_type_entity":"Gymnasium","state":"BW"},{"address":"Lindenstraße 4, 71229 Leonberg","fax":"07152/990-4290","full_time_school":false,"id":"BW-77859","lat":48.799843,"lon":9.011348,"name":"Johannes-Kepler-Gymnasium","official_id":"77859","phone":"07152/990-4202","school_type":"Gymnasium (G8)","school_type_entity":"Gymnasium","state":"BW"},{"address":"Becksteiner Straße 80, 97922 Lauda-Känigshofen","fax":"09343/5012101","full_time_school":false,"id":"BW-77895","lat":49.560941,"lon":9.705011,"name":"Martin-Schleyer-Gymnasium","official_id":"77895","phone":"09343/5012100","school_type":"Gymnasium (G9)","school_type_entity":"Gymnasium","state":"BW"},{"address":"Becksteiner Straße 80, 97922 Lauda-Känigshofen","fax":"09343/5012101","full_time_school":false,"id":"BW-77895","lat":49.560941,"lon":9.705011,"name":"Martin-Schleyer-Gymnasium","official_id":"77895","phone":"09343/5012100","school_type":"Gymnasium (G8)","school_type_entity":"Gymnasium","state":"BW"},{"address":"Auf dem Schäfersfeld 4, 73547 Lorch","fax":"07172/186190","full_time_school":false,"id":"BW-77931","lat":48.801149,"lon":9.697669,"name":"Gymnasium Friedrich II Lorch","official_id":"77931","phone":"07172/186100","school_type":"Gymnasium (G8)","school_type_entity":"Gymnasium","state":"BW"},{"address":"Alleenstraße 16, 71638 Ludwigsburg","fax":"07141/910-2367","full_time_school":false,"id":"BW-77967","lat":48.892998,"lon":9.188914,"name":"Friedrich-Schiller-Gymnasium","official_id":"77967","phone":"07141/910-2337","school_type":"Gymnasium (G8)","school_type_entity":"Gymnasium","state":"BW"},{"address":"Seestraße 37, 71638 Ludwigsburg","fax":"07141/910-2268","full_time_school":false,"id":"BW-78003","lat":48.892764,"lon":9.190709,"name":"Goethe-Gymnasium","official_id":"78003","phone":"07141/910-2338","school_type":"Gymnasium (G8)","school_type_entity":"Gymnasium","state":"BW"},{"address":"Kaiserstraße 14, 71636 Ludwigsburg","fax":"07141/910-2545","full_time_school":false,"id":"BW-78057","lat":48.897951,"lon":9.17589,"name":"Otto-Hahn-Gymnasium","official_id":"78057","phone":"07141/910-2545","school_type":"Gymnasium (G8)","school_type_entity":"Gymnasium","state":"BW"},{"address":"Schwieberdinger Straße 12, 71706 Markgräningen","fax":"07145/9610-30","full_time_school":false,"id":"BW-78093","lat":48.901576,"lon":9.081803,"name":"Hans-Grüninger-Gymnasium","official_id":"78093","phone":"07145/9610-0","school_type":"Gymnasium (G8)","school_type_entity":"Gymnasium","state":"BW"},{"address":"Lehlestraße 9, 74219 Mäckmühl","fax":"06298/927158-11","full_time_school":false,"id":"BW-78132","lat":49.321749,"lon":9.366367,"name":"Gymnasium Mäckmühl","official_id":"78132","phone":"06298/92715810","school_type":"Gymnasium (G8)","school_type_entity":"Gymnasium","state":"BW"},{"address":"Rudi-Gehring-Straße 1, 71540 Murrhardt","fax":"07192/91901-16","full_time_school":false,"id":"BW-78168","lat":48.989263,"lon":9.584193,"name":"Heinrich-von-Zügel-Gymnasium","official_id":"78168","phone":"07192/91901-0","school_type":"Gymnasium (G8)","school_type_entity":"Gymnasium","state":"BW"},{"address":"Gymnasiumstraße 6, 74172 Neckarsulm","fax":"07132/9630-40","full_time_school":false,"id":"BW-78204","lat":49.193204,"lon":9.231223,"name":"Albert-Schweitzer-Gymnasium","official_id":"78204","phone":"07132/9630-0","school_type":"Gymnasium (G8)","school_type_entity":"Gymnasium","state":"BW"},{"address":"Auwiesen 4, 72654 Neckartenzlingen","fax":"07127/93297-80","full_time_school":false,"id":"BW-78240","lat":48.585825,"lon":9.243485,"name":"Gymnasium Neckartenzlingen","official_id":"78240","phone":"07127/93297-0","school_type":"Gymnasium (G8)","school_type_entity":"Gymnasium","state":"BW"},{"address":"Karl-Bonhoeffer-Straße 14, 73450 Neresheim","fax":"07326/9614-17","full_time_school":false,"id":"BW-78276","lat":48.757175,"lon":10.327723,"name":"Benedikt-Maria-Werkmeister-Gymnasium","official_id":"78276","phone":"07326/9614-0","school_type":"Gymnasium (G8)","school_type_entity":"Gymnasium","state":"BW"},{"address":"Gymnasiumstraße 14, 74196 Neuenstadt am Kocher","fax":"07139/472615","full_time_school":false,"id":"BW-78279","lat":49.234333,"lon":9.336922,"name":"Eduard-Märike-Gymnasium","official_id":"78279","phone":"07139/472610","school_type":"Gymnasium (G8)","school_type_entity":"Gymnasium","state":"BW"},{"address":"Steinenbergstraße 17, 72622 Nürtingen","fax":"07022/927130","full_time_school":false,"id":"BW-78315","lat":48.629753,"lon":9.339944,"name":"Max-Planck-Gymnasium","official_id":"78315","phone":"07022/92710","school_type":"Gymnasium (G8)","school_type_entity":"Gymnasium","state":"BW"},{"address":"Am Lerchenberg 75, 72622 Nürtingen","fax":"07022/93251-41","full_time_school":false,"id":"BW-78366","lat":48.614388,"lon":9.336725,"name":"Hälderlin-Gymnasium","official_id":"78366","phone":"07022/93251-0","school_type":"Gymnasium (G8)","school_type_entity":"Gymnasium","state":"BW"},{"address":"Ernst-Abbe-Platz 1, 73447 Oberkochen","fax":"07364/961322","full_time_school":false,"id":"BW-78369","lat":48.788487,"lon":10.113797,"name":"Ernst-Abbe-Gymnasium","official_id":"78369","phone":"07364/96130","school_type":"Gymnasium (G8)","school_type_entity":"Gymnasium","state":"BW"},{"address":"Weygangstraße 13-15, 74613 …hringen","fax":"07941/9257-99","full_time_school":false,"id":"BW-78405","lat":49.199494,"lon":9.512878,"name":"Hohenlohe-Gymnasium …hringen","official_id":"78405","phone":"07941/9257-0","school_type":"Gymnasium (G9)","school_type_entity":"Gymnasium","state":"BW"},{"address":"Weygangstraße 13-15, 74613 …hringen","fax":"07941/9257-99","full_time_school":false,"id":"BW-78405","lat":49.199494,"lon":9.512878,"name":"Hohenlohe-Gymnasium …hringen","official_id":"78405","phone":"07941/9257-0","school_type":"Gymnasium (G8)","school_type_entity":"Gymnasium","state":"BW"},{"address":"In den Anlagen 7, 73760 Ostfildern","fax":"0711/3482802","full_time_school":false,"id":"BW-78441","lat":48.716761,"lon":9.29285,"name":"Otto-Hahn-Gymnasium Nellingen","official_id":"78441","phone":"0711/3411060","school_type":"Gymnasium (G8)","school_type_entity":"Gymnasium","state":"BW"},{"address":"In den Anlagen 11, 73760 Ostfildern","fax":"0711/3400402","full_time_school":false,"id":"BW-78477","lat":48.717139,"lon":9.292181,"name":"Heinrich-Heine-Gymnasium Nellingen","official_id":"78477","phone":"0711/2207070","school_type":"Gymnasium (G8)","school_type_entity":"Gymnasium","state":"BW"},{"address":"Tannenstraße 47, 73207 Plochingen","fax":"07153/8900-140","full_time_school":false,"id":"BW-78513","lat":48.714575,"lon":9.419146,"name":"Gymnasium Plochingen","official_id":"78513","phone":"07153/8900-0","school_type":"Gymnasium (G9)","school_type_entity":"Gymnasium","state":"BW"},{"address":"Tannenstraße 47, 73207 Plochingen","fax":"07153/8900-140","full_time_school":false,"id":"BW-78513","lat":48.714575,"lon":9.419146,"name":"Gymnasium Plochingen","official_id":"78513","phone":"07153/8900-0","school_type":"Gymnasium (G8)","school_type_entity":"Gymnasium","state":"BW"},{"address":"Rehhaldenweg 2, 73614 Schorndorf","fax":"07181/600679","full_time_school":false,"id":"BW-78552","lat":48.795357,"lon":9.531979,"name":"Max-Planck-Gymnasium","official_id":"78552","phone":"07181/6029402","school_type":"Gymnasium (G8)","school_type_entity":"Gymnasium","state":"BW"},{"address":"Hinter der Burg 6, 73614 Schorndorf","fax":"07181/602483","full_time_school":false,"id":"BW-78588","lat":48.803026,"lon":9.527806,"name":"Burg-Gymnasium","official_id":"78588","phone":"07181/602497","school_type":"Gymnasium (G8)","school_type_entity":"Gymnasium","state":"BW"},{"address":"Haußmannstraße 34, 73525 Schwäbisch Gmünd","fax":"07171/929937","full_time_school":false,"id":"BW-78624","lat":48.794831,"lon":9.79351,"name":"Parler-Gymnasium","official_id":"78624","phone":"07171/929936","school_type":"Gymnasium (G8)","school_type_entity":"Gymnasium","state":"BW"},{"address":"Märikestraße 5, 73525 Schwäbisch Gmünd","fax":"07171/929764","full_time_school":false,"id":"BW-78642","lat":48.8,"lon":9.8,"name":"Hans-Baldung-Gymnasium","official_id":"78642","phone":"07171/929763","school_type":"Gymnasium (G9)","school_type_entity":"Gymnasium","state":"BW"},{"address":"Märikestraße 5, 73525 Schwäbisch Gmünd","fax":"07171/929764","full_time_school":false,"id":"BW-78642","lat":48.8,"lon":9.8,"name":"Hans-Baldung-Gymnasium","official_id":"78642","phone":"07171/929763","school_type":"Gymnasium (G8)","school_type_entity":"Gymnasium","state":"BW"},{"address":"Scheffoldstraße 102, 73529 Schwäbisch Gmünd","fax":"07171/86907","full_time_school":false,"id":"BW-78678","lat":48.787254,"lon":9.827727,"name":"Scheffold-Gymnasium","official_id":"78678","phone":"07171/82908","school_type":"Gymnasium (G8)","school_type_entity":"Gymnasium","state":"BW"},{"address":"Berliner Straße 16, 74523 Schwäbisch Hall","fax":"0791/955252","full_time_school":false,"id":"BW-78714","lat":49.099365,"lon":9.72796,"name":"Erasmus-Widmann-Gymnasium im Schulzentrum West","official_id":"78714","phone":"0791/955251","school_type":"Gymnasium (G8)","school_type_entity":"Gymnasium","state":"BW"},{"address":"Tüngentaler Straße 92, 74523 Schwäbisch Hall","fax":"0791/490517","full_time_school":false,"id":"BW-78750","lat":49.113757,"lon":9.754302,"name":"Gymnasium bei St. Michael","official_id":"78750","phone":"0791/93240-0","school_type":"Gymnasium (G8)","school_type_entity":"Gymnasium","state":"BW"},{"address":"Frankenstraße 15, 71065 Sindelfingen","fax":"07031/9574-14","full_time_school":false,"id":"BW-78786","lat":48.697501,"lon":9.008685,"name":"Goldberg-Gymnasium","official_id":"78786","phone":"07031/9574-0","school_type":"Gymnasium (G8)","school_type_entity":"Gymnasium","state":"BW"},{"address":"Pfarrwiesenallee 1-3, 71067 Sindelfingen","fax":"07031/808068","full_time_school":false,"id":"BW-78789","lat":48.721055,"lon":9.004362,"name":"Gymnasium in den Pfarrwiesen","official_id":"78789","phone":"07031/416050","school_type":"Gymnasium (G8)","school_type_entity":"Gymnasium","state":"BW"},{"address":"Bäblinger Straße 26, 71065 Sindelfingen","fax":"07031/2043333","full_time_school":false,"id":"BW-78825","lat":48.71118,"lon":9.055965,"name":"Stiftsgymnasium","official_id":"78825","phone":"07031/204330","school_type":"Gymnasium (G8)","school_type_entity":"Gymnasium","state":"BW"},{"address":"Rudolf-Harbig-Straße 40, 71069 Sindelfingen","fax":"07031/7371-40","full_time_school":false,"id":"BW-78861","lat":48.716585,"lon":8.972794,"name":"Gymnasium Unterrieden","official_id":"78861","phone":"07031/7371-0","school_type":"Gymnasium (G8)","school_type_entity":"Gymnasium","state":"BW"},{"address":"Forststraße 43, 70176 Stuttgart","fax":"0711/21659757","full_time_school":false,"id":"BW-78897","lat":48.779651,"lon":9.163203,"name":"Dillmann-Gymnasium","official_id":"78897","phone":"0711/216-59755","school_type":"Gymnasium (G8)","school_type_entity":"Gymnasium","state":"BW"},{"address":"Herdweg 72, 70174 Stuttgart","fax":"0711/2238486","full_time_school":false,"id":"BW-78933","lat":48.787157,"lon":9.161571,"name":"Eberhard-Ludwigs-Gymnasium","official_id":"78933","phone":"0711/391506-0","school_type":"Gymnasium (G8)","school_type_entity":"Gymnasium","state":"BW"},{"address":"Silberburgstraße 86, 70176 Stuttgart","fax":"0711/21660980","full_time_school":false,"id":"BW-78951","lat":48.779121,"lon":9.16266,"name":"Friedrich-Eugens-Gymnasium","official_id":"78951","phone":"0711/21660990","school_type":"Gymnasium (G8)","school_type_entity":"Gymnasium","state":"BW"},{"address":"Hälderlinstraße 28, 70174 Stuttgart","fax":"0711/2269049","full_time_school":false,"id":"BW-78987","lat":48.781914,"lon":9.171141,"name":"Hälderlin-Gymnasium","official_id":"78987","phone":"0711/216-33700","school_type":"Gymnasium (G8)","school_type_entity":"Gymnasium","state":"BW"},{"address":"Tübinger Straße 38, 70178 Stuttgart","fax":"0711/216-60585","full_time_school":false,"id":"BW-79023","lat":48.769358,"lon":9.171714,"name":"Karls-Gymnasium","official_id":"79023","phone":"0711/21660590","school_type":"Gymnasium (G8)","school_type_entity":"Gymnasium","state":"BW"},{"address":"Schillerstraße 5, 70173 Stuttgart","fax":"0711/216-96652","full_time_school":false,"id":"BW-79062","lat":48.781468,"lon":9.185594,"name":"Känigin-Katharina-Stift Gymnasium","official_id":"79062","phone":"0711/21696651","school_type":"Gymnasium (G8)","school_type_entity":"Gymnasium","state":"BW"},{"address":"Johannesstraße 18, 70176 Stuttgart","fax":"0711/216-57612","full_time_school":false,"id":"BW-79098","lat":48.77518,"lon":9.16347,"name":"Känigin-Olga-Stift Gymnasium","official_id":"79098","phone":"0711/21657610","school_type":"Gymnasium (G8)","school_type_entity":"Gymnasium","state":"BW"},{"address":"Schickhardtstraße 26, 70199 Stuttgart","fax":"0711/216-91667","full_time_school":false,"id":"BW-79134","lat":48.765434,"lon":9.160407,"name":"Schickhardt-Gymnasium","official_id":"79134","phone":"0711/216-91650","school_type":"Gymnasium (G8)","school_type_entity":"Gymnasium","state":"BW"},{"address":"Wagenburgstraße 30, 70184 Stuttgart","fax":"0711/4891989","full_time_school":false,"id":"BW-79170","lat":48.779362,"lon":9.195424,"name":"Wagenburg-Gymnasium","official_id":"79170","phone":"0711/462036","school_type":"Gymnasium (G8)","school_type_entity":"Gymnasium","state":"BW"},{"address":"Neckarstraße 149, 70190 Stuttgart","fax":"0711/2164104","full_time_school":false,"id":"BW-79206","lat":48.78984,"lon":9.195591,"name":"Zeppelin-Gymnasium","official_id":"79206","phone":"0711/21621100","school_type":"Gymnasium (G9)","school_type_entity":"Gymnasium","state":"BW"},{"address":"Neckarstraße 149, 70190 Stuttgart","fax":"0711/2164104","full_time_school":false,"id":"BW-79206","lat":48.78984,"lon":9.195591,"name":"Zeppelin-Gymnasium","official_id":"79206","phone":"0711/21621100","school_type":"Gymnasium (G8)","school_type_entity":"Gymnasium","state":"BW"},{"address":"Remstalstraße 35, 70374 Stuttgart","fax":"0711/52089750","full_time_school":false,"id":"BW-79209","lat":48.802483,"lon":9.240998,"name":"Elly-Heuss-Knapp-Gymnasium Bad Cannstatt","official_id":"79209","phone":"0711/5208973","school_type":"Gymnasium (G8)","school_type_entity":"Gymnasium","state":"BW"},{"address":"Kattowitzer Straße 8, 70374 Stuttgart","fax":"0711/21620890","full_time_school":false,"id":"BW-79260","lat":48.800988,"lon":9.234654,"name":"Gottlieb-Daimler-Gymnasium Bad Cannstatt","official_id":"79260","phone":"0711/21620880","school_type":"Gymnasium (G8)","school_type_entity":"Gymnasium","state":"BW"},{"address":"Daimlerstraße 8, 70372 Stuttgart","fax":"0711/21680950","full_time_school":false,"id":"BW-79296","lat":48.807344,"lon":9.218201,"name":"Johannes-Kepler-Gymnasium Bad Cannstatt","official_id":"79296","phone":"0711/21680940","school_type":"Gymnasium (G8)","school_type_entity":"Gymnasium","state":"BW"},{"address":"Albstraße 80, 70597 Stuttgart","fax":"0711/21689340","full_time_school":false,"id":"BW-79299","lat":48.741114,"lon":9.164717,"name":"Wilhelms-Gymnasium Degerloch","official_id":"79299","phone":"0711/21689330","school_type":"Gymnasium (G9)","school_type_entity":"Gymnasium","state":"BW"},{"address":"Albstraße 80, 70597 Stuttgart","fax":"0711/21689340","full_time_school":false,"id":"BW-79299","lat":48.741114,"lon":9.164717,"name":"Wilhelms-Gymnasium Degerloch","official_id":"79299","phone":"0711/21689330","school_type":"Gymnasium (G8)","school_type_entity":"Gymnasium","state":"BW"},{"address":"Klagenfurter Straße 71, 70469 Stuttgart","fax":"0711/216-59844","full_time_school":false,"id":"BW-79335","lat":48.811613,"lon":9.156341,"name":"Neues Gymnasium Feuerbach","official_id":"79335","phone":"0711/216-59850","school_type":"Gymnasium (G8)","school_type_entity":"Gymnasium","state":"BW"},{"address":"Klagenfurter Straße 75, 70469 Stuttgart","fax":"0711/216-60520","full_time_school":false,"id":"BW-79371","lat":48.812082,"lon":9.155915,"name":"Leibniz-Gymnasium Feuerbach","official_id":"79371","phone":"0711/21660510","school_type":"Gymnasium (G9)","school_type_entity":"Gymnasium","state":"BW"},{"address":"Klagenfurter Straße 75, 70469 Stuttgart","fax":"0711/216-60520","full_time_school":false,"id":"BW-79371","lat":48.812082,"lon":9.155915,"name":"Leibniz-Gymnasium Feuerbach","official_id":"79371","phone":"0711/21660510","school_type":"Gymnasium (G8)","school_type_entity":"Gymnasium","state":"BW"},{"address":"Sigmaringer Straße 85, 70567 Stuttgart","fax":"0711/216-4990","full_time_school":false,"id":"BW-79407","lat":48.73005,"lon":9.152682,"name":"Känigin-Charlotte-Gymnasium Mähringen","official_id":"79407","phone":"0711/216-4993","school_type":"Gymnasium (G8)","school_type_entity":"Gymnasium","state":"BW"},{"address":"Paracelsusstraße 36, 70599 Stuttgart","fax":"0711/45999470","full_time_school":false,"id":"BW-79443","lat":48.705492,"lon":9.210989,"name":"Paracelsus-Gymnasium Hohenheim Plieningen-Birkach","official_id":"79443","phone":"0711/459994-6","school_type":"Gymnasium (G8)","school_type_entity":"Gymnasium","state":"BW"},{"address":"Richard-Schmid-Straße 25, 70619 Stuttgart","fax":"0711/45999350","full_time_school":false,"id":"BW-79482","lat":48.737667,"lon":9.22119,"name":"Geschwister-Scholl-Gymnasium Stuttgart-Sillenbuch","official_id":"79482","phone":"0711/4599933","school_type":"Gymnasium (G8)","school_type_entity":"Gymnasium","state":"BW"},{"address":"Lindenschulstraße 20, 70327 Stuttgart","fax":"0711/216-20380","full_time_school":false,"id":"BW-79518","lat":48.777443,"lon":9.249013,"name":"Wirtemberg-Gymnasium Untertürkheim","official_id":"79518","phone":"0711/21620361","school_type":"Gymnasium (G8)","school_type_entity":"Gymnasium","state":"BW"},{"address":"Krehlstraße 65, 70563 Stuttgart","fax":"0711/732550","full_time_school":false,"id":"BW-79572","lat":48.723373,"lon":9.102418,"name":"Hegel-Gymnasium Vaihingen","official_id":"79572","phone":"0711/216-98640","school_type":"Gymnasium (G8)","school_type_entity":"Gymnasium","state":"BW"},{"address":"Fanny-Leicht-Straße 13, 70563 Stuttgart","fax":"0711/733610","full_time_school":false,"id":"BW-79608","lat":48.731169,"lon":9.116854,"name":"Fanny-Leicht-Gymnasium Vaihingen","official_id":"79608","phone":"0711/733624","school_type":"Gymnasium (G8)","school_type_entity":"Gymnasium","state":"BW"},{"address":"Spechtweg 40, 70499 Stuttgart","fax":"0711/216-91905","full_time_school":false,"id":"BW-79644","lat":48.803785,"lon":9.104333,"name":"Solitude-Gymnasium Stuttgart-Weilimdorf","official_id":"79644","phone":"0711/216-91890","school_type":"Gymnasium (G8)","school_type_entity":"Gymnasium","state":"BW"},{"address":"Haldenrainstraße 136, 70437 Stuttgart","fax":"0711/216-57222","full_time_school":false,"id":"BW-79680","lat":48.831143,"lon":9.193676,"name":"Ferdinand-Porsche-Gymnasium Zuffenhausen","official_id":"79680","phone":"0711/21657220","school_type":"Gymnasium (G8)","school_type_entity":"Gymnasium","state":"BW"},{"address":"Adalbert-Stifter-Straße 40, 70437 Stuttgart","fax":"0711/216-89889","full_time_school":false,"id":"BW-79716","lat":48.839654,"lon":9.21118,"name":"Eschbach-Gymnasium Stuttgart-Freiberg","official_id":"79716","phone":"0711/21689499","school_type":"Gymnasium (G8)","school_type_entity":"Gymnasium","state":"BW"},{"address":"Taubenhausweg 2, 97941 Tauberbischofsheim","fax":"09341/897097","full_time_school":false,"id":"BW-79719","lat":49.62054,"lon":9.664296,"name":"Matthias-Grünewald-Gymnasium","official_id":"79719","phone":"09341/3140","school_type":"Gymnasium (G8)","school_type_entity":"Gymnasium","state":"BW"},{"address":"Alter Postweg 6, 71665 Vaihingen an der Enz","fax":"07042/9734-15","full_time_school":false,"id":"BW-79755","lat":48.935527,"lon":8.955473,"name":"Friedrich-Abel-Gymnasium","official_id":"79755","phone":"07042/9734-0","school_type":"Gymnasium (G8)","school_type_entity":"Gymnasium","state":"BW"},{"address":"Im Sämann 32, 71334 Waiblingen","fax":"07151/2008110","full_time_school":false,"id":"BW-79791","lat":48.835434,"lon":9.329159,"name":"Salier-Gymnasium","official_id":"79791","phone":"07151/2008100","school_type":"Gymnasium (G8)","school_type_entity":"Gymnasium","state":"BW"},{"address":"Mayenner Straße 30, 71332 Waiblingen","fax":"07151/98116-305","full_time_school":false,"id":"BW-79827","lat":48.827241,"lon":9.313319,"name":"Staufer-Gymnasium","official_id":"79827","phone":"07151/98116-300","school_type":"Gymnasium (G8)","school_type_entity":"Gymnasium","state":"BW"},{"address":"Laudenbacher Straße 20, 97990 Weikersheim","fax":"07934/9112-20","full_time_school":false,"id":"BW-79845","lat":49.477802,"lon":9.903194,"name":"Gymnasium Weikersheim","official_id":"79845","phone":"07934/9112-10","school_type":"Gymnasium (G8)","school_type_entity":"Gymnasium","state":"BW"},{"address":"Max-Caspar-Straße 47, 71263 Weil der Stadt","fax":"07033/80884","full_time_school":false,"id":"BW-79881","lat":48.752121,"lon":8.861035,"name":"Johannes-Kepler-Gymnasium","official_id":"79881","phone":"07033/6077","school_type":"Gymnasium (G8)","school_type_entity":"Gymnasium","state":"BW"},{"address":"Rossäckerstraße 11, 74189 Weinsberg","fax":"07134/994120","full_time_school":false,"id":"BW-79917","lat":49.148045,"lon":9.280635,"name":"Justinus-Kerner-Gymnasium","official_id":"79917","phone":"07134/994100","school_type":"Gymnasium (G8)","school_type_entity":"Gymnasium","state":"BW"},{"address":"Beutelsbacher Straße 64, 71384 Weinstadt","fax":"07151/99919-41","full_time_school":false,"id":"BW-79953","lat":48.808743,"lon":9.373051,"name":"Remstal-Gymnasium Weinstadt","official_id":"79953","phone":"07151/99919-0","school_type":"Gymnasium (G8)","school_type_entity":"Gymnasium","state":"BW"},{"address":"Helmut-Glock-Straße 2, 73642 Welzheim","fax":"07182/93855-13","full_time_school":false,"id":"BW-79992","lat":48.87434,"lon":9.637425,"name":"Limes-Gymnasium","official_id":"79992","phone":"07182/93855-0","school_type":"Gymnasium (G8)","school_type_entity":"Gymnasium","state":"BW"},{"address":"Hähenstraße 31, 73240 Wendlingen am Neckar","fax":"07024/9200270","full_time_school":false,"id":"BW-80028","lat":48.67472,"lon":9.38167,"name":"Robert-Bosch-Gymnasium","official_id":"80028","phone":"07024/9200210","school_type":"Gymnasium (G8)","school_type_entity":"Gymnasium","state":"BW"},{"address":"Conrad-Wellin-Straße 6-8, 97877 Wertheim","fax":"09342/935629","full_time_school":false,"id":"BW-80064","lat":49.755305,"lon":9.513398,"name":"Dietrich-Bonhäffer-Gymnasium","official_id":"80064","phone":"09342/93560","school_type":"Gymnasium (G8)","school_type_entity":"Gymnasium","state":"BW"},{"address":"Paulinenstraße 29-31, 71364 Winnenden","fax":"07195/910215","full_time_school":false,"id":"BW-80100","lat":48.874582,"lon":9.401018,"name":"Georg-Büchner-Gymnasium Winnenden","official_id":"80100","phone":"07195/910312","school_type":"Gymnasium (G8)","school_type_entity":"Gymnasium","state":"BW"},{"address":"Albertviller Straße 26, 71364 Winnenden","fax":"07195/910212","full_time_school":false,"id":"BW-80136","lat":48.869518,"lon":9.398648,"name":"Lessing-Gymnasium Winnenden","official_id":"80136","phone":"07195/67748","school_type":"Gymnasium (G8)","school_type_entity":"Gymnasium","state":"BW"},{"address":"Steiner Straße 48, 75203 Känigsbach-Stein","fax":"07232/3065-222","full_time_school":false,"id":"BW-80154","lat":48.962322,"lon":8.61681,"name":"Lise-Meitner-Gymnasium Bildungszentrum Känigsbach","official_id":"80154","phone":"07232/3065100","school_type":"Gymnasium (G9)","school_type_entity":"Gymnasium","state":"BW"},{"address":"Steiner Straße 48, 75203 Känigsbach-Stein","fax":"07232/3065-222","full_time_school":false,"id":"BW-80154","lat":48.962322,"lon":8.61681,"name":"Lise-Meitner-Gymnasium Bildungszentrum Känigsbach","official_id":"80154","phone":"07232/3065100","school_type":"Gymnasium (G8)","school_type_entity":"Gymnasium","state":"BW"},{"address":"Im Eichbäumle 1, 76139 Karlsruhe","fax":"0721/133-4555","full_time_school":false,"id":"BW-80190","lat":49.032635,"lon":8.445219,"name":"Otto-Hahn-Gymnasium","official_id":"80190","phone":"0721/133-4556","school_type":"Gymnasium (G8)","school_type_entity":"Gymnasium","state":"BW"},{"address":"Krokusweg 49, 76199 Karlsruhe","fax":"0721/133-4989","full_time_school":false,"id":"BW-80226","lat":48.975964,"lon":8.414067,"name":"Max-Planck-Gymnasium Rüppurr","official_id":"80226","phone":"0721/133-4550","school_type":"Gymnasium (G8)","school_type_entity":"Gymnasium","state":"BW"},{"address":"Sophienstraße 147, 76135 Karlsruhe","fax":"0721/133-4533","full_time_school":false,"id":"BW-80229","lat":49.008024,"lon":8.37526,"name":"Lessing-Gymnasium","official_id":"80229","phone":"0721/133-4536","school_type":"Gymnasium (G8)","school_type_entity":"Gymnasium","state":"BW"},{"address":"Gymnasiumstraße 1-3, 76227 Karlsruhe","fax":"0721/133-4568","full_time_school":false,"id":"BW-80265","lat":48.998829,"lon":8.478084,"name":"Markgrafen-Gymnasium Durlach","official_id":"80265","phone":"0721/133-4540","school_type":"Gymnasium (G8)","school_type_entity":"Gymnasium","state":"BW"},{"address":"Englerstraße 10, 76131 Karlsruhe","fax":"0721/133-4539","full_time_school":false,"id":"BW-80301","lat":49.010811,"lon":8.410394,"name":"Kant-Gymnasium","official_id":"80301","phone":"0721/133-4529","school_type":"Gymnasium (G8)","school_type_entity":"Gymnasium","state":"BW"},{"address":"Wilhelm-Hausenstein-Allee 22, 76187 Karlsruhe","fax":"0721/133-2513","full_time_school":false,"id":"BW-80337","lat":49.033457,"lon":8.370746,"name":"Humboldt-Gymnasium Nordweststadt","official_id":"80337","phone":"0721/133-4523","school_type":"Gymnasium (G9)","school_type_entity":"Gymnasium","state":"BW"},{"address":"Wilhelm-Hausenstein-Allee 22, 76187 Karlsruhe","fax":"0721/133-2513","full_time_school":false,"id":"BW-80337","lat":49.033457,"lon":8.370746,"name":"Humboldt-Gymnasium Nordweststadt","official_id":"80337","phone":"0721/133-4523","school_type":"Gymnasium (G8)","school_type_entity":"Gymnasium","state":"BW"},{"address":"Kaiserallee 6, 76133 Karlsruhe","fax":"0721/133-4979","full_time_school":false,"id":"BW-80373","lat":49.010879,"lon":8.383897,"name":"Helmholtz-Gymnasium","official_id":"80373","phone":"0721/133-4518","school_type":"Gymnasium (G8)","school_type_entity":"Gymnasium","state":"BW"},{"address":"Renckstraße 2, 76133 Karlsruhe","fax":"0721/133-4588","full_time_school":false,"id":"BW-80412","lat":49.003709,"lon":8.396434,"name":"Goethe-Gymnasium","official_id":"80412","phone":"0721/133-4512","school_type":"Gymnasium (G8)","school_type_entity":"Gymnasium","state":"BW"},{"address":"Sophienstraße 12-16, 76133 Karlsruhe","fax":"0721/1334960","full_time_school":false,"id":"BW-80451","lat":49.00767,"lon":8.388058,"name":"Fichte-Gymnasium","official_id":"80451","phone":"0721/133-4506","school_type":"Gymnasium (G8)","school_type_entity":"Gymnasium","state":"BW"},{"address":"Bismarckstraße 8, 76133 Karlsruhe","fax":"0721/133-4569","full_time_school":false,"id":"BW-80487","lat":49.013389,"lon":8.394863,"name":"Bismarck-Gymnasium","official_id":"80487","phone":"0721/133-4502","school_type":"Gymnasium (G8)","school_type_entity":"Gymnasium","state":"BW"},{"address":"Am Schelmenbusch 1, 76307 Karlsbad","fax":"07202/9302-58","full_time_school":false,"id":"BW-80523","lat":48.911518,"lon":8.501143,"name":"Gymnasium Karlsbad","official_id":"80523","phone":"07202/9302-50","school_type":"Gymnasium (G8)","school_type_entity":"Gymnasium","state":"BW"},{"address":"Fürstabt-Gerbert-Straße 21, 72160 Horb am Neckar","fax":"07451/60153","full_time_school":false,"id":"BW-80562","lat":48.442139,"lon":8.683046,"name":"Martin-Gerbert-Gymnasium","official_id":"80562","phone":"07451/2466","school_type":"Gymnasium (G8)","school_type_entity":"Gymnasium","state":"BW"},{"address":"Schubertstraße 5, 68766 Hockenheim","fax":"06205/21-630","full_time_school":false,"id":"BW-80598","lat":49.316631,"lon":8.543989,"name":"Carl-Friedrich-Gauss-Gymnasium","official_id":"80598","phone":"06205/204730","school_type":"Gymnasium (G8)","school_type_entity":"Gymnasium","state":"BW"},{"address":"Silcherweg 8, 69502 Hemsbach","fax":"06201/477357","full_time_school":false,"id":"BW-80634","lat":49.596169,"lon":8.651559,"name":"Bergstraßen-Gymnasium","official_id":"80634","phone":"06201/7691","school_type":"Gymnasium (G8)","school_type_entity":"Gymnasium","state":"BW"},{"address":"Neckarstaden 2, 69117 Heidelberg","fax":"06221/181096","full_time_school":false,"id":"BW-80706","lat":49.411334,"lon":8.694012,"name":"Kurfürst-Friedrich-Gymnasium","official_id":"80706","phone":"06221/5832150","school_type":"Gymnasium (G8)","school_type_entity":"Gymnasium","state":"BW"},{"address":"Rohrbacher Straße 102, 69126 Heidelberg","fax":"06221/300359","full_time_school":false,"id":"BW-80709","lat":49.395746,"lon":8.68883,"name":"Helmholtz-Gymnasium","official_id":"80709","phone":"06221/37040","school_type":"Gymnasium (G8)","school_type_entity":"Gymnasium","state":"BW"},{"address":"Humboldtstraße 23, 69120 Heidelberg","fax":"06221/419421","full_time_school":false,"id":"BW-80760","lat":49.416218,"lon":8.677788,"name":"Bunsen-Gymnasium","official_id":"80760","phone":"06221/64340","school_type":"Gymnasium (G8)","school_type_entity":"Gymnasium","state":"BW"},{"address":"Sulzberg 52, 72275 Alpirsbach","fax":"07444/9518-258","full_time_school":false,"id":"BW-80796","lat":48.345259,"lon":8.396208,"name":"Bildungszentrum Sulzberg Progymnasium","official_id":"80796","phone":"07444/9518-241","school_type":"Progymnasium","school_type_entity":"Pro-Gymnasium","state":"BW"},{"address":"Leo-Wohleb-Weg 1, 76530 Baden-Baden","fax":"07221/93-2394","full_time_school":false,"id":"BW-80799","lat":48.762928,"lon":8.245264,"name":"Gymnasium Hohenbaden","official_id":"80799","phone":"07221/93-2391","school_type":"Gymnasium (G8)","school_type_entity":"Gymnasium","state":"BW"},{"address":"Hardstraße 2, 76530 Baden-Baden","fax":"07221/932370","full_time_school":false,"id":"BW-80835","lat":48.759605,"lon":8.243842,"name":"Markgraf-Ludwig-Gymnasium","official_id":"80835","phone":"07221/932366","school_type":"Gymnasium (G9)","school_type_entity":"Gymnasium","state":"BW"},{"address":"Hardstraße 2, 76530 Baden-Baden","fax":"07221/932370","full_time_school":false,"id":"BW-80835","lat":48.759605,"lon":8.243842,"name":"Markgraf-Ludwig-Gymnasium","official_id":"80835","phone":"07221/932366","school_type":"Gymnasium (G8)","school_type_entity":"Gymnasium","state":"BW"},{"address":"Rheinstraße 152, 76532 Baden-Baden","fax":"07221/93-1916","full_time_school":false,"id":"BW-80871","lat":48.783431,"lon":8.206474,"name":"Richard-Wagner-Gymnasium","official_id":"80871","phone":"07221/93-1910","school_type":"Gymnasium (G8)","school_type_entity":"Gymnasium","state":"BW"},{"address":"Oberdorfstraße 68, 72270 Baiersbronn","fax":"07442/8499513","full_time_school":false,"id":"BW-80907","lat":48.502494,"lon":8.375467,"name":"Richard-von-Weizsäcker-Gymnasium","official_id":"80907","phone":"07442/8499510","school_type":"Gymnasium (G8)","school_type_entity":"Gymnasium","state":"BW"},{"address":"Weißhofer Straße 48, 75015 Bretten","fax":"07252/9352-12","full_time_school":false,"id":"BW-80943","lat":49.035761,"lon":8.711256,"name":"Melanchthon-Gymnasium","official_id":"80943","phone":"07252/9352-0","school_type":"Gymnasium (G8)","school_type_entity":"Gymnasium","state":"BW"},{"address":"Belvedere 6, 76646 Bruchsal","fax":"07251/9167-30","full_time_school":false,"id":"BW-80982","lat":49.126767,"lon":8.602694,"name":"Schänborn-Gymnasium","official_id":"80982","phone":"07251/7976-0","school_type":"Gymnasium (G8)","school_type_entity":"Gymnasium","state":"BW"},{"address":"Moltkestraße 33, 76646 Bruchsal","fax":"07251/795625","full_time_school":false,"id":"BW-81018","lat":49.120246,"lon":8.590595,"name":"Justus-Knecht-Gymnasium","official_id":"81018","phone":"07251/79560","school_type":"Gymnasium (G9)","school_type_entity":"Gymnasium","state":"BW"},{"address":"Moltkestraße 33, 76646 Bruchsal","fax":"07251/795625","full_time_school":false,"id":"BW-81018","lat":49.120246,"lon":8.590595,"name":"Justus-Knecht-Gymnasium","official_id":"81018","phone":"07251/79560","school_type":"Gymnasium (G8)","school_type_entity":"Gymnasium","state":"BW"},{"address":"St.-Rochus-Straße 5, 74722 Buchen (Odenwald)","fax":"06281/5288-22","full_time_school":false,"id":"BW-81072","lat":49.519653,"lon":9.325875,"name":"Burghardt-Gymnasium","official_id":"81072","phone":"06281/5288-0","school_type":"Gymnasium (G9)","school_type_entity":"Gymnasium","state":"BW"},{"address":"St.-Rochus-Straße 5, 74722 Buchen (Odenwald)","fax":"06281/5288-22","full_time_school":false,"id":"BW-81072","lat":49.519653,"lon":9.325875,"name":"Burghardt-Gymnasium","official_id":"81072","phone":"06281/5288-0","school_type":"Gymnasium (G8)","school_type_entity":"Gymnasium","state":"BW"},{"address":"Humboldtstraße 3, 77815 Bühl","fax":"07223/94095-56","full_time_school":false,"id":"BW-81108","lat":48.691929,"lon":8.129751,"name":"Windeck-Gymnasium","official_id":"81108","phone":"07223/94095-6","school_type":"Gymnasium (G8)","school_type_entity":"Gymnasium","state":"BW"},{"address":"Schindelbergweg 11, 75365 Calw","fax":"07051/9326-60","full_time_school":false,"id":"BW-81144","lat":48.691344,"lon":8.765399,"name":"Maria-von-Linden-Gymnasium Stammheim","official_id":"81144","phone":"07051/93260","school_type":"Gymnasium (G8)","school_type_entity":"Gymnasium","state":"BW"},{"address":"Riedsteige 9, 72280 Dornstetten","fax":"07443/9642920","full_time_school":false,"id":"BW-81180","lat":48.472184,"lon":8.500436,"name":"Gymnasium","official_id":"81180","phone":"07443/964290","school_type":"Gymnasium (G8)","school_type_entity":"Gymnasium","state":"BW"},{"address":"Weißenburgerstraße 42, 76448 Durmersheim","fax":"07245/9196611","full_time_school":false,"id":"BW-81216","lat":48.93533,"lon":8.267986,"name":"Wilhelm-Hausenstein-Gymnasium Durmersheim","official_id":"81216","phone":"07245/919660","school_type":"Gymnasium (G8)","school_type_entity":"Gymnasium","state":"BW"},{"address":"Parallelweg 1, 69412 Eberbach","fax":"06271/9465-299","full_time_school":false,"id":"BW-81219","lat":49.467169,"lon":8.977577,"name":"Hohenstaufen-Gymnasium","official_id":"81219","phone":"06271/94650","school_type":"Gymnasium (G8)","school_type_entity":"Gymnasium","state":"BW"},{"address":"Maximilian-Kolbe-Weg 5, 69214 Eppelheim","fax":"06221/768743","full_time_school":false,"id":"BW-81255","lat":49.394722,"lon":8.634174,"name":"Dietrich-Bonhäffer-Gymnasium","official_id":"81255","phone":"06221/765500","school_type":"Gymnasium (G8)","school_type_entity":"Gymnasium","state":"BW"},{"address":"Middelkerker Straße 1-5, 76275 Ettlingen","fax":"07243/101-495","full_time_school":false,"id":"BW-81291","lat":48.93746,"lon":8.399875,"name":"Albertus-Magnus-Gymnasium Schulzentrum am Kapellenweg","official_id":"81291","phone":"07243/101585","school_type":"Gymnasium (G8)","school_type_entity":"Gymnasium","state":"BW"},{"address":"Goethestraße 2-10, 76275 Ettlingen","fax":"07243/101-558","full_time_school":false,"id":"BW-81327","lat":48.942478,"lon":8.394709,"name":"Eichendorff-Gymnasium","official_id":"81327","phone":"07243/101-347","school_type":"Gymnasium (G8)","school_type_entity":"Gymnasium","state":"BW"},{"address":"Ludwig-Jahn-Straße 54, 72250 Freudenstadt","fax":"07441/86059666","full_time_school":false,"id":"BW-81345","lat":48.473601,"lon":8.413033,"name":"Kepler-Gymnasium","official_id":"81345","phone":"07441/86059600","school_type":"Gymnasium (G9)","school_type_entity":"Gymnasium","state":"BW"},{"address":"Ludwig-Jahn-Straße 54, 72250 Freudenstadt","fax":"07441/86059666","full_time_school":false,"id":"BW-81345","lat":48.473601,"lon":8.413033,"name":"Kepler-Gymnasium","official_id":"81345","phone":"07441/86059600","school_type":"Gymnasium (G8)","school_type_entity":"Gymnasium","state":"BW"},{"address":"Gutenbergstraße 6, 76571 Gaggenau","fax":"07225/9605-20","full_time_school":false,"id":"BW-81381","lat":48.803589,"lon":8.324874,"name":"Goethe-Gymnasium","official_id":"81381","phone":"07225/9605-0","school_type":"Gymnasium (G8)","school_type_entity":"Gymnasium","state":"BW"},{"address":"Otto-Hahn-Straße 4, 76593 Gernsbach","fax":"07224/99199-30","full_time_school":false,"id":"BW-81417","lat":48.766533,"lon":8.328182,"name":"Albert-Schweitzer Gymnasium","official_id":"81417","phone":"07224/991990","school_type":"Gymnasium (G8)","school_type_entity":"Gymnasium","state":"BW"},{"address":"Realschulstraße 4, 68526 Ladenburg","fax":"06203/70-415","full_time_school":false,"id":"BW-81453","lat":49.468975,"lon":8.609894,"name":"Carl-Benz-Gymnasium","official_id":"81453","phone":"06203/70410","school_type":"Gymnasium (G8)","school_type_entity":"Gymnasium","state":"BW"},{"address":"D 7 8, 68159 Mannheim","fax":"0621/293-2549","full_time_school":false,"id":"BW-81492","lat":49.490019,"lon":8.459642,"name":"Elisabeth-Gymnasium","official_id":"81492","phone":"0621/293-3030","school_type":"Gymnasium (G8)","school_type_entity":"Gymnasium","state":"BW"},{"address":"Mecklenburger Straße 62, 68309 Mannheim","fax":"0621/701-025","full_time_school":false,"id":"BW-81528","lat":49.508007,"lon":8.537772,"name":"Geschwister-Scholl-Gymnasium","official_id":"81528","phone":"0621/701-027","school_type":"Gymnasium (G8)","school_type_entity":"Gymnasium","state":"BW"},{"address":"Roonstraße 4-6, 68165 Mannheim","fax":"0621/441730","full_time_school":false,"id":"BW-81564","lat":49.4822306,"lon":8.4757348,"name":"Karl-Friedrich-Gymnasium","official_id":"81564","phone":"0621/293-6700","school_type":"Gymnasium (G9)","school_type_entity":"Gymnasium","state":"BW"},{"address":"Roonstraße 4-6, 68165 Mannheim","fax":"0621/441730","full_time_school":false,"id":"BW-81564","lat":49.4822306,"lon":8.4757348,"name":"Karl-Friedrich-Gymnasium","official_id":"81564","phone":"0621/293-6700","school_type":"Gymnasium (G8)","school_type_entity":"Gymnasium","state":"BW"},{"address":"Josef-Braun-Ufer 15-16, 68165 Mannheim","fax":"0621/293-6519","full_time_school":false,"id":"BW-81600","lat":49.487984,"lon":8.488828,"name":"Lessing-Gymnasium","official_id":"81600","phone":"0621/293-6523","school_type":"Gymnasium (G8)","school_type_entity":"Gymnasium","state":"BW"},{"address":"Wespinstraße 21-25, 68165 Mannheim","fax":"0621/293-6969","full_time_school":false,"id":"BW-81636","lat":49.477924,"lon":8.485318,"name":"Liselotte-Gymnasium","official_id":"81636","phone":"0621/293-6524","school_type":"Gymnasium (G8)","school_type_entity":"Gymnasium","state":"BW"},{"address":"Käfertaler Straße 117-127, 68167 Mannheim","fax":"0621/293-8249","full_time_school":false,"id":"BW-81654","lat":49.4955864,"lon":8.4891598,"name":"Ludwig-Frank-Gymnasium","official_id":"81654","phone":"0621/293-8247","school_type":"Gymnasium (G8)","school_type_entity":"Gymnasium","state":"BW"},{"address":"Feldbergstraße 16, 68163 Mannheim","fax":"0621/83399-11","full_time_school":false,"id":"BW-81690","lat":49.461168,"lon":8.472079,"name":"Moll-Gymnasium Mannheim","official_id":"81690","phone":"0621/833990","school_type":"Gymnasium (G8)","school_type_entity":"Gymnasium","state":"BW"},{"address":"Neckarstraße 4, 68259 Mannheim","fax":"0621/795518","full_time_school":false,"id":"BW-81729","lat":49.485883,"lon":8.53158,"name":"Feudenheim-Gymnasium","official_id":"81729","phone":"0621/293-8413","school_type":"Gymnasium (G8)","school_type_entity":"Gymnasium","state":"BW"},{"address":"Lätzener Weg 2-4, 68307 Mannheim","fax":"0621/77701-11","full_time_school":false,"id":"BW-81765","lat":49.560551,"lon":8.462189,"name":"Johanna-Geissmar-Gymnasium","official_id":"81765","phone":"0621/777010","school_type":"Gymnasium (G8)","school_type_entity":"Gymnasium","state":"BW"},{"address":"Stuttgarter Straße 18, 75433 Maulbronn","fax":"07043/920171","full_time_school":false,"id":"BW-81801","lat":48.99994,"lon":8.812195,"name":"Salzach-Gymnasium","official_id":"81801","phone":"07043/908004","school_type":"Gymnasium (G8)","school_type_entity":"Gymnasium","state":"BW"},{"address":"Jean de la Fontaine-Straße 6-10, 74821 Mosbach","fax":"06261/9280-80","full_time_school":false,"id":"BW-81912","lat":49.35,"lon":9.13333,"name":"Nicolaus-Kistner-Gymnasium","official_id":"81912","phone":"06261/9280-0","school_type":"Gymnasium (G8)","school_type_entity":"Gymnasium","state":"BW"},{"address":"Rappstraße 9, 75417 Mühlacker","fax":"07041/8767-50","full_time_school":false,"id":"BW-81963","lat":48.94555,"lon":8.838797,"name":"Theodor-Heuss-Gymnasium","official_id":"81963","phone":"07041/8767-30","school_type":"Gymnasium (G8)","school_type_entity":"Gymnasium","state":"BW"},{"address":"Burgstraße 20, 72202 Nagold","fax":"07452/8465-32","full_time_school":false,"id":"BW-82002","lat":48.552895,"lon":8.722833,"name":"Otto-Hahn-Gymnasium","official_id":"82002","phone":"07452/8465-0","school_type":"Gymnasium (G8)","school_type_entity":"Gymnasium","state":"BW"},{"address":"Obere Turmstraße 34, 74924 Neckarbischofsheim","fax":"07263/60282","full_time_school":false,"id":"BW-82038","lat":49.291678,"lon":8.965034,"name":"Adolf-Schmitthenner-Gymnasium","official_id":"82038","phone":"07263/9181-0","school_type":"Gymnasium (G9)","school_type_entity":"Gymnasium","state":"BW"},{"address":"Obere Turmstraße 34, 74924 Neckarbischofsheim","fax":"07263/60282","full_time_school":false,"id":"BW-82038","lat":49.291678,"lon":8.965034,"name":"Adolf-Schmitthenner-Gymnasium","official_id":"82038","phone":"07263/9181-0","school_type":"Gymnasium (G8)","school_type_entity":"Gymnasium","state":"BW"},{"address":"Heidelberger Straße 39, 74821 Mosbach","fax":"06261/9724-40","full_time_school":false,"id":"BW-82074","lat":49.345273,"lon":9.103838,"name":"Auguste-Pattberg-Gymnasium Neckarelz","official_id":"82074","phone":"06261/9724-0","school_type":"Gymnasium (G9)","school_type_entity":"Gymnasium","state":"BW"},{"address":"Heidelberger Straße 39, 74821 Mosbach","fax":"06261/9724-40","full_time_school":false,"id":"BW-82074","lat":49.345273,"lon":9.103838,"name":"Auguste-Pattberg-Gymnasium Neckarelz","official_id":"82074","phone":"06261/9724-0","school_type":"Gymnasium (G8)","school_type_entity":"Gymnasium","state":"BW"},{"address":"Alter Postweg 10, 69151 Neckargemünd","fax":"06223/9225-55","full_time_school":false,"id":"BW-82110","lat":49.39181,"lon":8.803223,"name":"Gymnasium","official_id":"82110","phone":"06223/9225-0","school_type":"Gymnasium (G8)","school_type_entity":"Gymnasium","state":"BW"},{"address":"Waldenburgweg 10, 75305 Neuenbürg","fax":"07082/948389","full_time_school":false,"id":"BW-82146","lat":48.850613,"lon":8.58186,"name":"Gymnasium Neuenbürg","official_id":"82146","phone":"07082/2616","school_type":"Gymnasium (G8)","school_type_entity":"Gymnasium","state":"BW"},{"address":"Unterfeldstraße 6, 76149 Karlsruhe","fax":"0721/97837-25","full_time_school":false,"id":"BW-82149","lat":49.045697,"lon":8.378064,"name":"Gymnasium Neureut","official_id":"82149","phone":"0721/97837-0","school_type":"Gymnasium (G8)","school_type_entity":"Gymnasium","state":"BW"},{"address":"Hemsbacher Straße 24, 74706 Osterburken","fax":"06291/6408-13","full_time_school":false,"id":"BW-82185","lat":49.43186,"lon":9.414272,"name":"Ganztagsgymnasium","official_id":"82185","phone":"06291/6408-0","school_type":"Gymnasium (G8)","school_type_entity":"Gymnasium","state":"BW"},{"address":"Mozartstraße 1, 76684 …stringen","fax":"07253/928325","full_time_school":false,"id":"BW-82221","lat":49.216903,"lon":8.70821,"name":"Leibniz-Gymnasium","official_id":"82221","phone":"07253/928311","school_type":"Gymnasium (G9)","school_type_entity":"Gymnasium","state":"BW"},{"address":"Mozartstraße 1, 76684 …stringen","fax":"07253/928325","full_time_school":false,"id":"BW-82221","lat":49.216903,"lon":8.70821,"name":"Leibniz-Gymnasium","official_id":"82221","phone":"07253/928311","school_type":"Gymnasium (G8)","school_type_entity":"Gymnasium","state":"BW"},{"address":"Schloßgartenstraße 11, 76327 Pfinztal","fax":"0721/4659550","full_time_school":false,"id":"BW-82239","lat":49.002786,"lon":8.533078,"name":"Ludwig-Marum-Gymnasium Pfinztal","official_id":"82239","phone":"0721/4659510","school_type":"Gymnasium (G8)","school_type_entity":"Gymnasium","state":"BW"},{"address":"Simmlerstraße 1, 75172 Pforzheim","fax":"07231/392695","full_time_school":false,"id":"BW-82275","lat":48.8903,"lon":8.694865,"name":"Hebel-Gymnasium","official_id":"82275","phone":"07231/39-2359","school_type":"Gymnasium (G8)","school_type_entity":"Gymnasium","state":"BW"},{"address":"Kiehnlestraße 25, 75172 Pforzheim","fax":"07231/39-2954","full_time_school":false,"id":"BW-82311","lat":48.892867,"lon":8.699106,"name":"Hilda-Gymnasium Pforzheim","official_id":"82311","phone":"07231/39-2361","school_type":"Gymnasium (G8)","school_type_entity":"Gymnasium","state":"BW"},{"address":"Redtenbacherstraße 101, 75177 Pforzheim","fax":"07231/39-1689","full_time_school":false,"id":"BW-82347","lat":48.90155,"lon":8.722571,"name":"Kepler-Gymnasium","official_id":"82347","phone":"07231/39-2712","school_type":"Gymnasium (G8)","school_type_entity":"Gymnasium","state":"BW"},{"address":"Schwarzwaldstraße 84, 75173 Pforzheim","fax":"07231/39-1677","full_time_school":false,"id":"BW-82383","lat":48.882046,"lon":8.684947,"name":"Reuchlin-Gymnasium","official_id":"82383","phone":"07231/392557","school_type":"Gymnasium (G8)","school_type_entity":"Gymnasium","state":"BW"},{"address":"Zerrennerstraße 43-45, 75172 Pforzheim","fax":"07231/39-1678","full_time_school":false,"id":"BW-82458","lat":48.890865,"lon":8.695672,"name":"Theodor-Heuss-Gymnasium","official_id":"82458","phone":"07231/39-2785","school_type":"Gymnasium (G9)","school_type_entity":"Gymnasium","state":"BW"},{"address":"Zerrennerstraße 43-45, 75172 Pforzheim","fax":"07231/39-1678","full_time_school":false,"id":"BW-82458","lat":48.890865,"lon":8.695672,"name":"Theodor-Heuss-Gymnasium","official_id":"82458","phone":"07231/39-2785","school_type":"Gymnasium (G8)","school_type_entity":"Gymnasium","state":"BW"},{"address":"Lessingstraße 27, 76661 Philippsburg","fax":"07256/87254","full_time_school":false,"id":"BW-82494","lat":49.235222,"lon":8.462683,"name":"Copernicus-Gymnasium","official_id":"82494","phone":"07256/87250","school_type":"Gymnasium (G8)","school_type_entity":"Gymnasium","state":"BW"},{"address":"Lyzeumstraße 11, 76437 Rastatt","fax":"07222/37227","full_time_school":false,"id":"BW-82530","lat":48.859957,"lon":8.20408,"name":"Ludwig-Wilhelm-Gymnasium","official_id":"82530","phone":"07222/32639","school_type":"Gymnasium (G9)","school_type_entity":"Gymnasium","state":"BW"},{"address":"Lyzeumstraße 11, 76437 Rastatt","fax":"07222/37227","full_time_school":false,"id":"BW-82530","lat":48.859957,"lon":8.20408,"name":"Ludwig-Wilhelm-Gymnasium","official_id":"82530","phone":"07222/32639","school_type":"Gymnasium (G8)","school_type_entity":"Gymnasium","state":"BW"},{"address":"Danziger Straße 1, 76437 Rastatt","fax":"07222/9687581","full_time_school":false,"id":"BW-82548","lat":48.866266,"lon":8.21671,"name":"Tulla-Gymnasium","official_id":"82548","phone":"07222/23141","school_type":"Gymnasium (G8)","school_type_entity":"Gymnasium","state":"BW"},{"address":"Am Tummelplatz 10, 76287 Rheinstetten","fax":"07242/9375-75","full_time_school":false,"id":"BW-82584","lat":48.96056,"lon":8.28972,"name":"Walahfrid-Strabo-Gymnasium","official_id":"82584","phone":"07242/9375-0","school_type":"Gymnasium (G8)","school_type_entity":"Gymnasium","state":"BW"},{"address":"Albert-Schweitzer-Straße 5, 69207 Sandhausen","fax":"06224/9332-11","full_time_school":false,"id":"BW-82620","lat":49.338064,"lon":8.661499,"name":"Friedrich-Ebert-Gymnasium","official_id":"82620","phone":"06224/9332-0","school_type":"Gymnasium (G8)","school_type_entity":"Gymnasium","state":"BW"},{"address":"Hirschberger Straße 1, 69198 Schriesheim","fax":"06203/697268","full_time_school":false,"id":"BW-82656","lat":49.472169,"lon":8.656428,"name":"Kurpfalz-Gymnasium","official_id":"82656","phone":"06203/6972-50","school_type":"Gymnasium (G8)","school_type_entity":"Gymnasium","state":"BW"},{"address":"Goethestraße 23, 68723 Schwetzingen","fax":"06202/2005-11","full_time_school":false,"id":"BW-82659","lat":49.382551,"lon":8.584453,"name":"Hebel-Gymnasium","official_id":"82659","phone":"06202/2005-0","school_type":"Gymnasium (G8)","school_type_entity":"Gymnasium","state":"BW"},{"address":"Schubertstraße 2, 74889 Sinsheim","fax":"07261/9259-22","full_time_school":false,"id":"BW-82695","lat":49.2538,"lon":8.88191,"name":"Wilhelmi-Gymnasium","official_id":"82695","phone":"07261/9259-0","school_type":"Gymnasium (G8)","school_type_entity":"Gymnasium","state":"BW"},{"address":"Gymnasiumstraße 20, 76297 Stutensee","fax":"07244/735219","full_time_school":false,"id":"BW-82731","lat":49.064917,"lon":8.476256,"name":"Thomas-Mann-Gymnasium Stutensee","official_id":"82731","phone":"07244/735210","school_type":"Gymnasium (G8)","school_type_entity":"Gymnasium","state":"BW"},{"address":"Schwetzinger Straße 95, 69190 Walldorf","fax":"06227/353009","full_time_school":false,"id":"BW-82767","lat":49.313587,"lon":8.636251,"name":"Gymnasium Walldorf","official_id":"82767","phone":"06227/353000","school_type":"Gymnasium (G8)","school_type_entity":"Gymnasium","state":"BW"},{"address":"Friedrichstraße 7, 69469 Weinheim","fax":"06201/2908855","full_time_school":false,"id":"BW-82803","lat":49.552194,"lon":8.671617,"name":"Werner-Heisenberg-Gymnasium","official_id":"82803","phone":"06201/2908830","school_type":"Gymnasium (G8)","school_type_entity":"Gymnasium","state":"BW"},{"address":"Gymnasiumstraße 1-3, 69168 Wiesloch","fax":"06222/9294-26","full_time_school":false,"id":"BW-82857","lat":49.296872,"lon":8.684935,"name":"Ottheinrich-Gymnasium Wiesloch","official_id":"82857","phone":"06222/929413","school_type":"Gymnasium (G8)","school_type_entity":"Gymnasium","state":"BW"},{"address":"Paulinenstraße 39, 75323 Bad Wildbad","fax":"07081/9398-99","full_time_school":false,"id":"BW-82893","lat":48.756839,"lon":8.549623,"name":"Enztal-Gymnasium Bad Wildbad","official_id":"82893","phone":"07081/9398-0","school_type":"Gymnasium (G9)","school_type_entity":"Gymnasium","state":"BW"},{"address":"Paulinenstraße 39, 75323 Bad Wildbad","fax":"07081/9398-99","full_time_school":false,"id":"BW-82893","lat":48.756839,"lon":8.549623,"name":"Enztal-Gymnasium Bad Wildbad","official_id":"82893","phone":"07081/9398-0","school_type":"Gymnasium (G8)","school_type_entity":"Gymnasium","state":"BW"},{"address":"Berliner Straße 30, 77855 Achern","fax":"07841/642-3760","full_time_school":false,"id":"BW-82932","lat":48.636664,"lon":8.080825,"name":"Gymnasium","official_id":"82932","phone":"07841/642-1760","school_type":"Gymnasium (G8)","school_type_entity":"Gymnasium","state":"BW"},{"address":"Leo-Woleb-Straße 2, 79206 Breisach am Rhein","fax":"07667/90604109","full_time_school":false,"id":"BW-82968","lat":48.02889,"lon":7.58,"name":"Martin-Schongauer-Gymnasium","official_id":"82968","phone":"07667/90604-0","school_type":"Gymnasium (G8)","school_type_entity":"Gymnasium","state":"BW"},{"address":"Stuttgarter Straße 15, 79211 Denzlingen","fax":"07666/9322-60","full_time_school":false,"id":"BW-83004","lat":48.070139,"lon":7.89519,"name":"Erasmus-Gymnasium","official_id":"83004","phone":"07666/9322-50","school_type":"Gymnasium (G8)","school_type_entity":"Gymnasium","state":"BW"},{"address":"Humboldtstraße 1, 78166 Donaueschingen","fax":"0771/898647-19","full_time_school":false,"id":"BW-83040","lat":47.956571,"lon":8.504493,"name":"Fürstenberg-Gymnasium","official_id":"83040","phone":"0771/898647-0","school_type":"Gymnasium (G8)","school_type_entity":"Gymnasium","state":"BW"},{"address":"Neubronnstraße 20, 79312 Emmendingen","fax":"07641/93335959","full_time_school":false,"id":"BW-83076","lat":48.113879,"lon":7.863292,"name":"Goethe-Gymnasium Emmendingen","official_id":"83076","phone":"07641/9333590","school_type":"Gymnasium (G8)","school_type_entity":"Gymnasium","state":"BW"},{"address":"J.-B.-von-Weiss-Straße 7, 77955 Ettenheim","fax":"07822/3008290","full_time_school":false,"id":"BW-83079","lat":48.25556,"lon":7.81194,"name":"Gymnasium Ettenheim","official_id":"83079","phone":"07822/30080","school_type":"Gymnasium (G8)","school_type_entity":"Gymnasium","state":"BW"},{"address":"Runzstraße 83, 79102 Freiburg im Breisgau","fax":"0761/35164","full_time_school":false,"id":"BW-83115","lat":47.989871,"lon":7.872622,"name":"Deutsch-Franzäsisches Gymnasium","official_id":"83115","phone":"0761/201-7639","school_type":"Gymnasium (G8)","school_type_entity":"Gymnasium","state":"BW"},{"address":"Hirzbergstraße 12, 79102 Freiburg im Breisgau","fax":"0761/201-7479","full_time_school":false,"id":"BW-83166","lat":47.990471,"lon":7.874884,"name":"Berthold-Gymnasium","official_id":"83166","phone":"0761/201-7631","school_type":"Gymnasium (G8)","school_type_entity":"Gymnasium","state":"BW"},{"address":"Jacobistraße 22, 79104 Freiburg im Breisgau","fax":"0761/2017459","full_time_school":false,"id":"BW-83169","lat":48.004505,"lon":7.859301,"name":"Friedrich-Gymnasium","official_id":"83169","phone":"0761/201-7660","school_type":"Gymnasium (G8)","school_type_entity":"Gymnasium","state":"BW"},{"address":"Holzmarkt 5, 79098 Freiburg im Breisgau","fax":"0761/201-7449","full_time_school":false,"id":"BW-83205","lat":47.992405,"lon":7.849832,"name":"Goethe-Gymnasium","official_id":"83205","phone":"0761/201-7668","school_type":"Gymnasium (G8)","school_type_entity":"Gymnasium","state":"BW"},{"address":"Johanna-Kohlund-Straße 5, 79111 Freiburg im Breisgau","fax":"0761/201-7439","full_time_school":false,"id":"BW-83241","lat":48.000767,"lon":7.793738,"name":"Kepler-Gymnasium","official_id":"83241","phone":"0761/201-7676","school_type":"Gymnasium (G8)","school_type_entity":"Gymnasium","state":"BW"},{"address":"Lessingstraße 16, 79100 Freiburg im Breisgau","fax":"0761/201-7429","full_time_school":false,"id":"BW-83277","lat":47.990461,"lon":7.841575,"name":"Rotteck-Gymnasium","official_id":"83277","phone":"0761/201-7686","school_type":"Gymnasium (G8)","school_type_entity":"Gymnasium","state":"BW"},{"address":"Brucknerstraße 2, 79104 Freiburg im Breisgau","fax":"0761/201-7469","full_time_school":false,"id":"BW-83313","lat":48.010435,"lon":7.86194,"name":"Droste-Hülshoff-Gymnasium","official_id":"83313","phone":"0761/201-7647","school_type":"Gymnasium (G8)","school_type_entity":"Gymnasium","state":"BW"},{"address":"Andreas-Hofer-Straße 1, 79111 Freiburg im Breisgau","fax":"0761/201-7497","full_time_school":false,"id":"BW-83352","lat":47.977871,"lon":7.813013,"name":"Theodor-Heuss-Gymnasium","official_id":"83352","phone":"0761/2017690","school_type":"Gymnasium (G8)","school_type_entity":"Gymnasium","state":"BW"},{"address":"Falkenbergerstraße 21, 79110 Freiburg im Breisgau","fax":"0761/201-7419","full_time_school":false,"id":"BW-83388","lat":48.013135,"lon":7.823864,"name":"Wentzinger-Gymnasium","official_id":"83388","phone":"0761/201-7700","school_type":"Gymnasium (G9)","school_type_entity":"Gymnasium","state":"BW"},{"address":"Falkenbergerstraße 21, 79110 Freiburg im Breisgau","fax":"0761/201-7419","full_time_school":false,"id":"BW-83388","lat":48.013135,"lon":7.823864,"name":"Wentzinger-Gymnasium","official_id":"83388","phone":"0761/201-7700","school_type":"Gymnasium (G8)","school_type_entity":"Gymnasium","state":"BW"},{"address":"Colnestraße 6, 78120 Furtwangen im Schwarzwald","fax":"07723/50476199","full_time_school":false,"id":"BW-83424","lat":48.05494,"lon":8.195285,"name":"Otto-Hahn-Gymnasium mit Realschule","official_id":"83424","phone":"07723/504760","school_type":"Realschule","school_type_entity":"Realschule","state":"BW"},{"address":"Colnestraße 6, 78120 Furtwangen im Schwarzwald","fax":"07723/50476199","full_time_school":false,"id":"BW-83424","lat":48.05494,"lon":8.195285,"name":"Otto-Hahn-Gymnasium mit Realschule","official_id":"83424","phone":"07723/504760","school_type":"Gymnasium (G8)","school_type_entity":"Gymnasium","state":"BW"},{"address":"Am Erhardt-Schrempp-Schulzentrum 1, 77723 Gengenbach","fax":"07803/9388-118","full_time_school":false,"id":"BW-83463","lat":48.397611,"lon":8.018838,"name":"Marta-Schanzenbach-Gymnasium","official_id":"83463","phone":"07803/9388-0","school_type":"Gymnasium (G9)","school_type_entity":"Gymnasium","state":"BW"},{"address":"Am Erhardt-Schrempp-Schulzentrum 1, 77723 Gengenbach","fax":"07803/9388-118","full_time_school":false,"id":"BW-83463","lat":48.397611,"lon":8.018838,"name":"Marta-Schanzenbach-Gymnasium","official_id":"83463","phone":"07803/9388-0","school_type":"Gymnasium (G8)","school_type_entity":"Gymnasium","state":"BW"},{"address":"Im Weiher 4, 78564 Wehingen","fax":"07426/9498-19","full_time_school":false,"id":"BW-83502","lat":48.1475,"lon":8.7925,"name":"Gymnasium Gosheim-Wehingen","official_id":"83502","phone":"07426/9498-20","school_type":"Gymnasium (G8)","school_type_entity":"Gymnasium","state":"BW"},{"address":"Kantstraße 1, 79639 Grenzach-Wyhlen","fax":"07624/91289-40","full_time_school":false,"id":"BW-83538","lat":47.552123,"lon":7.67821,"name":"Lise-Meitner-Gymnasium Grenzach-Wyhlen","official_id":"83538","phone":"07624/9128910","school_type":"Gymnasium (G8)","school_type_entity":"Gymnasium","state":"BW"},{"address":"Kandelstraße 47, 79194 Gundelfingen","fax":"0761/150651109","full_time_school":false,"id":"BW-83574","lat":48.0414,"lon":7.871132,"name":"Albert-Schweitzer-Gymnasium","official_id":"83574","phone":"0761/1506510","school_type":"Gymnasium (G8)","school_type_entity":"Gymnasium","state":"BW"},{"address":"Hauptstraße 3, 77756 Hausach","fax":"07831/9368-33","full_time_school":false,"id":"BW-83610","lat":48.28406,"lon":8.173656,"name":"Robert-Gerwig-Gymnasium","official_id":"83610","phone":"07831/9368-0","school_type":"Gymnasium (G9)","school_type_entity":"Gymnasium","state":"BW"},{"address":"Hauptstraße 3, 77756 Hausach","fax":"07831/9368-33","full_time_school":false,"id":"BW-83610","lat":48.28406,"lon":8.173656,"name":"Robert-Gerwig-Gymnasium","official_id":"83610","phone":"07831/9368-0","school_type":"Gymnasium (G8)","school_type_entity":"Gymnasium","state":"BW"},{"address":"Haydnstraße 3, 77694 Kehl","fax":"07851/9947-29","full_time_school":false,"id":"BW-83646","lat":48.56314,"lon":7.82516,"name":"Einstein-Gymnasium","official_id":"83646","phone":"07851/99470","school_type":"Gymnasium (G8)","school_type_entity":"Gymnasium","state":"BW"},{"address":"Breslauerstraße 13, 79341 Kenzingen","fax":"07644/9113-33","full_time_school":false,"id":"BW-83649","lat":48.195604,"lon":7.770226,"name":"Gymnasium Kenzingen","official_id":"83649","phone":"07644/9113-0","school_type":"Gymnasium (G8)","school_type_entity":"Gymnasium","state":"BW"},{"address":"Giersbergstraße 33, 79199 Kirchzarten","fax":"07661/90964199","full_time_school":false,"id":"BW-83685","lat":47.960033,"lon":7.956233,"name":"Marie-Curie-Gymnasium Kirchzarten","official_id":"83685","phone":"07661/90964100","school_type":"Gymnasium (G8)","school_type_entity":"Gymnasium","state":"BW"},{"address":"Schottenstraße 2, 78462 Konstanz","fax":"07531/905024","full_time_school":false,"id":"BW-83721","lat":47.662482,"lon":9.171179,"name":"Alexander-von-Humboldt-Gymnasium","official_id":"83721","phone":"07531/905000","school_type":"Gymnasium (G8)","school_type_entity":"Gymnasium","state":"BW"},{"address":"Neuhauser Straße 1, 78464 Konstanz","fax":"07531/54741","full_time_school":false,"id":"BW-83739","lat":47.669316,"lon":9.187173,"name":"Heinrich-Suso-Gymnasium","official_id":"83739","phone":"07531/66278","school_type":"Gymnasium (G8)","school_type_entity":"Gymnasium","state":"BW"},{"address":"Brauneggerstraße 29, 78462 Konstanz","fax":"07531/18780","full_time_school":false,"id":"BW-83775","lat":47.66517,"lon":9.170642,"name":"Ellenrieder-Gymnasium","official_id":"83775","phone":"07531/914257","school_type":"Gymnasium (G8)","school_type_entity":"Gymnasium","state":"BW"},{"address":"Max-Planck-Straße 12, 77933 Lahr","fax":"07821/9195-25","full_time_school":false,"id":"BW-83811","lat":48.33817,"lon":7.876927,"name":"Max-Planck-Gymnasium","official_id":"83811","phone":"07821/91950","school_type":"Gymnasium (G8)","school_type_entity":"Gymnasium","state":"BW"},{"address":"Otto-Hahn-Straße 7, 77933 Lahr","fax":"07821/919635","full_time_school":false,"id":"BW-83847","lat":48.337739,"lon":7.849668,"name":"Scheffel-Gymnasium","official_id":"83847","phone":"07821/919630","school_type":"Gymnasium (G8)","school_type_entity":"Gymnasium","state":"BW"},{"address":"Baumgartnerstraße 28, 79540 Lärrach","fax":"07621/3242","full_time_school":false,"id":"BW-83883","lat":47.607871,"lon":7.664832,"name":"Hebel-Gymnasium","official_id":"83883","phone":"07621/2830","school_type":"Gymnasium (G8)","school_type_entity":"Gymnasium","state":"BW"},{"address":"Baumgartnerstraße 26, 79540 Lärrach","fax":"07621/91404815","full_time_school":false,"id":"BW-83922","lat":47.608158,"lon":7.663898,"name":"Hans-Thoma-Gymnasium Lärrach","official_id":"83922","phone":"07621/9140480","school_type":"Gymnasium (G8)","school_type_entity":"Gymnasium","state":"BW"},{"address":"Bismarckstraße 10, 79379 Müllheim","fax":"07631/4270","full_time_school":false,"id":"BW-83958","lat":47.811049,"lon":7.626395,"name":"Markgräfler Gymnasium","official_id":"83958","phone":"07631/2322","school_type":"Gymnasium (G8)","school_type_entity":"Gymnasium","state":"BW"},{"address":"Butschbacherstraße 48, 77704 Oberkirch","fax":"07802/82-215","full_time_school":false,"id":"BW-83994","lat":48.527722,"lon":8.071303,"name":"Hans-Furler-Gymnasium","official_id":"83994","phone":"07802/82-211","school_type":"Gymnasium (G8)","school_type_entity":"Gymnasium","state":"BW"},{"address":"Eugen-Frueth-Straße 5, 78727 Oberndorf am Neckar","fax":"07423/8678-31","full_time_school":false,"id":"BW-84030","lat":48.290921,"lon":8.573081,"name":"Gymnasium am Rosenberg","official_id":"84030","phone":"07423/8678-10","school_type":"Gymnasium (G8)","school_type_entity":"Gymnasium","state":"BW"},{"address":"Gymnasiumstraße 9, 77652 Offenburg","fax":"0781/9706290","full_time_school":false,"id":"BW-84048","lat":48.467302,"lon":7.944738,"name":"Grimmelshausen-Gymnasium","official_id":"84048","phone":"0781/9706280","school_type":"Gymnasium (G8)","school_type_entity":"Gymnasium","state":"BW"},{"address":"Vogesenstraße 10, 77652 Offenburg","fax":"0781/9259-27","full_time_school":false,"id":"BW-84084","lat":48.477669,"lon":7.940118,"name":"Oken-Gymnasium","official_id":"84084","phone":"0781/9259-0","school_type":"Gymnasium (G8)","school_type_entity":"Gymnasium","state":"BW"},{"address":"Zeller Straße 33, 77654 Offenburg","fax":"0781/9377-28","full_time_school":false,"id":"BW-84120","lat":48.473528,"lon":7.951569,"name":"Schiller-Gymnasium","official_id":"84120","phone":"0781/9377-0","school_type":"Gymnasium (G8)","school_type_entity":"Gymnasium","state":"BW"},{"address":"Markelfinger Straße 15, 78315 Radolfzell am Bodensee","fax":"07732/9478-99","full_time_school":false,"id":"BW-84156","lat":47.746426,"lon":8.979572,"name":"Friedrich-Hecker-Gymnasium","official_id":"84156","phone":"07732/9478-0","school_type":"Gymnasium (G8)","school_type_entity":"Gymnasium","state":"BW"},{"address":"Gymnasiumstraße 10, 77866 Rheinau","fax":"07844/99268-18","full_time_school":false,"id":"BW-84159","lat":48.654542,"lon":7.930429,"name":"Anne-Frank-Gymnasium Rheinau","official_id":"84159","phone":"07844/99268-0","school_type":"Gymnasium (G8)","school_type_entity":"Gymnasium","state":"BW"},{"address":"Maurice-Sadorge-Straße 6, 79618 Rheinfelden (Baden)","fax":"07623/3386","full_time_school":false,"id":"BW-84195","lat":47.561414,"lon":7.776979,"name":"Georg-Büchner-Gymnasium","official_id":"84195","phone":"07623/8627","school_type":"Gymnasium (G8)","school_type_entity":"Gymnasium","state":"BW"},{"address":"Bismarckstraße 2, 78628 Rottweil","fax":"0741/23658","full_time_school":false,"id":"BW-84231","lat":48.16148,"lon":8.625592,"name":"Albertus-Magnus-Gymnasium","official_id":"84231","phone":"0741/13466","school_type":"Gymnasium (G8)","school_type_entity":"Gymnasium","state":"BW"},{"address":"Bismarckstraße 4, 78628 Rottweil","fax":"0741/15649","full_time_school":false,"id":"BW-84267","lat":48.160717,"lon":8.625187,"name":"Droste-Hülshoff-Gymnasium","official_id":"84267","phone":"0741/23990","school_type":"Gymnasium (G8)","school_type_entity":"Gymnasium","state":"BW"},{"address":"Heerstraße 140, 78628 Rottweil","fax":"0741/2007","full_time_school":false,"id":"BW-84303","lat":48.161037,"lon":8.620908,"name":"Leibniz-Gymnasium","official_id":"84303","phone":"0741/15116","school_type":"Gymnasium (G8)","school_type_entity":"Gymnasium","state":"BW"},{"address":"Untere Flüh 4, 79713 Bad Säckingen","fax":"07761/929832","full_time_school":false,"id":"BW-84357","lat":47.555331,"lon":7.943676,"name":"Scheffel-Gymnasium","official_id":"84357","phone":"07761/929830","school_type":"Gymnasium (G8)","school_type_entity":"Gymnasium","state":"BW"},{"address":"Im Hochwald 8, 78112 St. Georgen","fax":"07724/3318","full_time_school":false,"id":"BW-84393","lat":48.128904,"lon":8.325525,"name":"Thomas-Strittmatter-Gymnasium","official_id":"84393","phone":"07724/87140","school_type":"Gymnasium (G8)","school_type_entity":"Gymnasium","state":"BW"},{"address":"Talstraße 15, 79677 Schänau","fax":"07673/7865","full_time_school":false,"id":"BW-84432","lat":47.786375,"lon":7.893816,"name":"Gymnasium","official_id":"84432","phone":"07673/7190","school_type":"Gymnasium (G8)","school_type_entity":"Gymnasium","state":"BW"},{"address":"Schlierbachstraße 19, 79650 Schopfheim","fax":"07622/68441844","full_time_school":false,"id":"BW-84468","lat":47.647243,"lon":7.829029,"name":"Theodor-Heuss-Gymnasium","official_id":"84468","phone":"07622/684418-0","school_type":"Gymnasium (G9)","school_type_entity":"Gymnasium","state":"BW"},{"address":"Schlierbachstraße 19, 79650 Schopfheim","fax":"07622/68441844","full_time_school":false,"id":"BW-84468","lat":47.647243,"lon":7.829029,"name":"Theodor-Heuss-Gymnasium","official_id":"84468","phone":"07622/684418-0","school_type":"Gymnasium (G8)","school_type_entity":"Gymnasium","state":"BW"},{"address":"Berneckstraße 32, 78713 Schramberg","fax":"07422/29649","full_time_school":false,"id":"BW-84504","lat":48.221127,"lon":8.385907,"name":"Gymnasium","official_id":"84504","phone":"07422/29600","school_type":"Gymnasium (G8)","school_type_entity":"Gymnasium","state":"BW"},{"address":"Alemannenstraße 21, 78224 Singen (Hohentwiel)","fax":"07731/9597-27","full_time_school":false,"id":"BW-84540","lat":47.764785,"lon":8.838166,"name":"Hegau-Gymnasium","official_id":"84540","phone":"07731/9597-0","school_type":"Gymnasium (G8)","school_type_entity":"Gymnasium","state":"BW"},{"address":"Münchriedstraße 4, 78224 Singen (Hohentwiel)","fax":"07731/8732-20","full_time_school":false,"id":"BW-84576","lat":47.753665,"lon":8.835902,"name":"Friedrich-Wähler-Gymnasium","official_id":"84576","phone":"07731/87320","school_type":"Gymnasium (G8)","school_type_entity":"Gymnasium","state":"BW"},{"address":"Sallancher Straße 5, 78549 Spaichingen","fax":"07424/9589579","full_time_school":false,"id":"BW-84579","lat":48.074427,"lon":8.73286,"name":"Gymnasium Spaichingen","official_id":"84579","phone":"07424/958956","school_type":"Gymnasium (G8)","school_type_entity":"Gymnasium","state":"BW"},{"address":"Krichelnweg 1, 79219 Staufen im Breisgau","fax":"07633/95800-119","full_time_school":false,"id":"BW-84615","lat":47.878011,"lon":7.727865,"name":"Faust-Gymnasium","official_id":"84615","phone":"07633/95800-0","school_type":"Gymnasium (G8)","school_type_entity":"Gymnasium","state":"BW"},{"address":"Dillstraße 9-11, 78333 Stockach","fax":"07771/802-489","full_time_school":false,"id":"BW-84666","lat":47.8513671,"lon":9.0153986,"name":"Nellenburg-Gymnasium","official_id":"84666","phone":"07771/802-470","school_type":"Gymnasium (G9)","school_type_entity":"Gymnasium","state":"BW"},{"address":"Dillstraße 9-11, 78333 Stockach","fax":"07771/802-489","full_time_school":false,"id":"BW-84666","lat":47.8513671,"lon":9.0153986,"name":"Nellenburg-Gymnasium","official_id":"84666","phone":"07771/802-470","school_type":"Gymnasium (G8)","school_type_entity":"Gymnasium","state":"BW"},{"address":"Weilerstraße 79, 72172 Sulz am Neckar","fax":"07454/259725","full_time_school":false,"id":"BW-84669","lat":48.356281,"lon":8.619521,"name":"Albeck-Gymnasium","official_id":"84669","phone":"07454/9597-0","school_type":"Gymnasium (G9)","school_type_entity":"Gymnasium","state":"BW"},{"address":"Weilerstraße 79, 72172 Sulz am Neckar","fax":"07454/259725","full_time_school":false,"id":"BW-84669","lat":48.356281,"lon":8.619521,"name":"Albeck-Gymnasium","official_id":"84669","phone":"07454/9597-0","school_type":"Gymnasium (G8)","school_type_entity":"Gymnasium","state":"BW"},{"address":"Sudetenstraße 1, 79761 Waldshut-Tiengen","fax":"07751/833-533","full_time_school":false,"id":"BW-84705","lat":47.630812,"lon":8.273876,"name":"Klettgau-Gymnasium Tiengen","official_id":"84705","phone":"07751/833-531","school_type":"Gymnasium (G8)","school_type_entity":"Gymnasium","state":"BW"},{"address":"Wilhelm-Sutter-Straße 30, 79822 Titisee-Neustadt","fax":"07651/9335-29","full_time_school":false,"id":"BW-84741","lat":47.919708,"lon":8.20683,"name":"Kreisgymnasium Hochschwarzwald","official_id":"84741","phone":"07651/9335-0","school_type":"Gymnasium (G8)","school_type_entity":"Gymnasium","state":"BW"},{"address":"Bergstraße 11-13, 78098 Triberg im Schwarzwald","fax":"07722/21499","full_time_school":false,"id":"BW-84777","lat":48.13083,"lon":8.23167,"name":"Schwarzwald-Gymnasium Triberg","official_id":"84777","phone":"07722/21498","school_type":"Gymnasium (G8)","school_type_entity":"Gymnasium","state":"BW"},{"address":"Hangenstraße 52, 78647 Trossingen","fax":"07425/25350","full_time_school":false,"id":"BW-84813","lat":48.079077,"lon":8.628694,"name":"Gymnasium","official_id":"84813","phone":"07425/25340","school_type":"Gymnasium (G8)","school_type_entity":"Gymnasium","state":"BW"},{"address":"Mühlenweg 15, 78532 Tuttlingen","fax":"07461/7600190","full_time_school":false,"id":"BW-84852","lat":47.987221,"lon":8.806281,"name":"Immanuel-Kant-Gymnasium","official_id":"84852","phone":"07461/760010","school_type":"Gymnasium (G8)","school_type_entity":"Gymnasium","state":"BW"},{"address":"Mühlenweg 9, 78532 Tuttlingen","fax":"07461/943-190","full_time_school":false,"id":"BW-84888","lat":47.986669,"lon":8.808472,"name":"Otto-Hahn-Gymnasium","official_id":"84888","phone":"07461/943-0","school_type":"Gymnasium (G8)","school_type_entity":"Gymnasium","state":"BW"},{"address":"Staufenstraße 65, 78056 Villingen-Schwenningen","fax":"07721/821264","full_time_school":false,"id":"BW-84924","lat":48.068163,"lon":8.542777,"name":"Gymnasium am Deutenberg Schwenningen","official_id":"84924","phone":"07721/82-1272","school_type":"Gymnasium (G8)","school_type_entity":"Gymnasium","state":"BW"},{"address":"Romäusring 17, 78050 Villingen-Schwenningen","fax":"07721/82-1727","full_time_school":false,"id":"BW-84942","lat":48.056175,"lon":8.458036,"name":"Gymnasium am Romäusring Villingen-Schwenningen","official_id":"84942","phone":"07721/82-1712","school_type":"Gymnasium (G8)","school_type_entity":"Gymnasium","state":"BW"},{"address":"Stationenweg 2, 78048 Villingen-Schwenningen","fax":"07721/821707","full_time_school":false,"id":"BW-84978","lat":48.057368,"lon":8.468367,"name":"Gymnasium am Hoptbühl","official_id":"84978","phone":"07721/82-1690","school_type":"Gymnasium (G8)","school_type_entity":"Gymnasium","state":"BW"},{"address":"Beethovenstraße 9, 79183 Waldkirch","fax":"07681/23797","full_time_school":false,"id":"BW-85014","lat":48.094309,"lon":7.953597,"name":"Geschwister-Scholl-Gymnasium","official_id":"85014","phone":"07681/9278","school_type":"Gymnasium (G8)","school_type_entity":"Gymnasium","state":"BW"},{"address":"Waldtorstraße 8, 79761 Waldshut-Tiengen","fax":"07751/833-273","full_time_school":false,"id":"BW-85050","lat":47.624797,"lon":8.213791,"name":"Hochrhein-Gymnasium Waldshut","official_id":"85050","phone":"07751/833-271","school_type":"Gymnasium (G8)","school_type_entity":"Gymnasium","state":"BW"},{"address":"Kantstraße 2, 79576 Weil Am Rhein","fax":"07621/74078","full_time_school":false,"id":"BW-85086","lat":47.595215,"lon":7.612486,"name":"Kant-Gymnasium","official_id":"85086","phone":"07621/78006","school_type":"Gymnasium (G8)","school_type_entity":"Gymnasium","state":"BW"},{"address":"Gymnasiumstraße 15, 72458 Albstadt","fax":"07431/53029","full_time_school":false,"id":"BW-85089","lat":48.224162,"lon":9.02995,"name":"Gymnasium Ebingen","official_id":"85089","phone":"07431/53028","school_type":"Gymnasium (G9)","school_type_entity":"Gymnasium","state":"BW"},{"address":"Gymnasiumstraße 15, 72458 Albstadt","fax":"07431/53029","full_time_school":false,"id":"BW-85089","lat":48.224162,"lon":9.02995,"name":"Gymnasium Ebingen","official_id":"85089","phone":"07431/53028","school_type":"Gymnasium (G8)","school_type_entity":"Gymnasium","state":"BW"},{"address":"Ebersbacher Straße 18, 88361 Altshausen","fax":"07584/92078-19","full_time_school":false,"id":"BW-85125","lat":47.936524,"lon":9.539859,"name":"Progymnasium","official_id":"85125","phone":"07584/920780","school_type":"Progymnasium","school_type_entity":"Pro-Gymnasium","state":"BW"},{"address":"Schussenrieder Straße 25, 88326 Aulendorf","fax":"07525/934504","full_time_school":false,"id":"BW-85161","lat":47.957601,"lon":9.638814,"name":"Gymnasium Aulendorf","official_id":"85161","phone":"07525/9238101","school_type":"Gymnasium (G8)","school_type_entity":"Gymnasium","state":"BW"},{"address":"Gymnasiumstraße 31, 72336 Balingen","fax":"07433/26025149","full_time_school":false,"id":"BW-85197","lat":48.272178,"lon":8.86576,"name":"Gymnasium Balingen Schulzentrum Längenfeld","official_id":"85197","phone":"07433/260250","school_type":"Gymnasium (G8)","school_type_entity":"Gymnasium","state":"BW"},{"address":"Breslaustraße 8, 88400 Biberach an der Riss","fax":"07351/51518","full_time_school":false,"id":"BW-85233","lat":48.097519,"lon":9.794581,"name":"Pestalozzi-Gymnasium","official_id":"85233","phone":"07351/51358","school_type":"Gymnasium (G8)","school_type_entity":"Gymnasium","state":"BW"},{"address":"Max-Eyth-Straße 30, 73431 Aalen","fax":"07361/937080","full_time_school":false,"id":"BW-85251","lat":48.840618,"lon":10.100217,"name":"Hermann-Hesse-Schule Sonderpädagogisches Bildungs- und Beratungszentrum mit dem Färderschwerpunkt Lernen und Emotionale und soziale Entwicklung","official_id":"85251","phone":"07361/93706","school_type":"SBBZ Lernen","school_type_entity":"SBBZ Lernen","state":"BW"},{"address":"Max-Eyth-Straße 30, 73431 Aalen","fax":"07361/937080","full_time_school":false,"id":"BW-85251","lat":48.840618,"lon":10.100217,"name":"Hermann-Hesse-Schule Sonderpädagogisches Bildungs- und Beratungszentrum mit dem Färderschwerpunkt Lernen und Emotionale und soziale Entwicklung","official_id":"85251","phone":"07361/93706","school_type":"SBBZ Emotionale und soziale Entwicklung","school_type_entity":"SBBZ Emotionale und soziale Entwicklung","state":"BW"},{"address":"Max-Eyth-Straße 30, 73431 Aalen","fax":"07361/937080","full_time_school":false,"id":"BW-85251","lat":48.840618,"lon":10.100217,"name":"Hermann-Hesse-Schule Sonderpädagogisches Bildungs- und Beratungszentrum mit dem Färderschwerpunkt Lernen und Emotionale und soziale Entwicklung","official_id":"85251","phone":"07361/93706","school_type":"SBBZ Emotionale und soziale Entwicklung","school_type_entity":"SBBZ Emotionale und soziale Entwicklung","state":"BW"},{"address":"Bahnhofstraße 3, 71522 Backnang","fax":"07191/952267","full_time_school":false,"id":"BW-85323","lat":48.944289,"lon":9.4299,"name":"Pestalozzi-Schule Sonderpädagogisches Bildungs- und Beratungszentrum mit dem Färderschwerpunkt Lernen","official_id":"85323","phone":"07191/952260","school_type":"SBBZ Lernen","school_type_entity":"SBBZ Lernen","state":"BW"},{"address":"Seestraße 22, 70794 Filderstadt","fax":"07158/981-1829","full_time_school":false,"id":"BW-85362","lat":48.670989,"lon":9.229082,"name":"Pestalozzi-Schule Sonderpädagogisches Bildungs- und Beratungszentrum mit dem Färderschwerpunkt Lernen Sielmingen","official_id":"85362","phone":"07158/981-180","school_type":"SBBZ Lernen","school_type_entity":"SBBZ Lernen","state":"BW"},{"address":"Kirchstraße 79, 74354 Besigheim","fax":"07143/80300-44","full_time_school":false,"id":"BW-85398","lat":48.998552,"lon":9.143664,"name":"Schule am Steinhaus Sonderpädagogisches Bildungs- und Beratungszentrum mit dem Färderschwerpunkt Lernen","official_id":"85398","phone":"07143/80300-0","school_type":"SBBZ Lernen","school_type_entity":"SBBZ Lernen","state":"BW"},{"address":"Friedrich-Fräbel-Straße 4, 71083 Herrenberg","fax":"07032/9470-30","full_time_school":false,"id":"BW-95694","lat":48.59667,"lon":8.87083,"name":"Friedrich-Fräbel-Schule Sonderpädagogisches Bildungs- und Beratungszentrum mit dem Färderschwerpunkt Geistige Entwicklung","official_id":"95694","phone":"07032/9470-0","school_type":"SBBZ Geistige Entwicklung","school_type_entity":"SBBZ Geistige Entwicklung","state":"BW"},{"address":"Gustav-Rau-Straße 10, 75173 Pforzheim","fax":"07231/39-3061","full_time_school":false,"id":"BW-95748","lat":48.888303,"lon":8.687438,"name":"Bohrainschule Sonderpädagogisches Bildungs- und Beratungszentrum mit dem Färderschwerpunkt Lernen","official_id":"95748","phone":"07231/39-2259","school_type":"SBBZ Lernen","school_type_entity":"SBBZ Lernen","state":"BW"},{"address":"Makartstraße 9-11, 75175 Pforzheim","fax":"07231/651416","full_time_school":false,"id":"BW-95784","lat":48.886496,"lon":8.727887,"name":"Pestalozzischule Sonderpädagogisches Bildungs- und Beratungszentrum mit dem Färderschwerpunkt Lernen","official_id":"95784","phone":"07231/963940","school_type":"SBBZ Lernen","school_type_entity":"SBBZ Lernen","state":"BW"},{"address":"Tullastraße 57, 76131 Karlsruhe","fax":"0721/133-2511","full_time_school":false,"id":"BW-95820","lat":49.009714,"lon":8.432369,"name":"Lidellschule Sonderpädagogisches Bildungs- und Beratungszentrum mit dem Färderschwerpunkt Lernen","official_id":"95820","phone":"0721/133-4744","school_type":"SBBZ Lernen","school_type_entity":"SBBZ Lernen","state":"BW"},{"address":"Hardtstraße 1, 76185 Karlsruhe","fax":"0721/1334381","full_time_school":false,"id":"BW-95856","lat":49.010366,"lon":8.355332,"name":"Vogesenschule Sonderpädagogisches Bildungs- und Beratungszentrum mit dem Färderschwerpunkt Lernen","official_id":"95856","phone":"0721/1334689","school_type":"SBBZ Lernen","school_type_entity":"SBBZ Lernen","state":"BW"},