address,fax,full_time_school,id,lat,lon,name,official_id,phone,school_type,school_type_entity,state
"Rombacher Straße 30, 73430 Aalen",07361/9561-20,false,BW-75774,48.838598,10.08184,Schubart-Gymnasium Partnerschule für Europa,75774,07361/9561-0,Gymnasium (G8),Gymnasium,BW
"Friedrichstraße 70, 73430 Aalen",07361/9560-50,false,BW-75810,48.841283,10.08923,Theodor-Heuss-Gymnasium,75810,07361/95603,Gymnasium (G9),Gymnasium,BW
"Friedrichstraße 70, 73430 Aalen",07361/9560-50,false,BW-75810,48.841283,10.08923,Theodor-Heuss-Gymnasium,75810,07361/95603,Gymnasium (G8),Gymnasium,BW
"Am Schäle 19, 73433 Aalen",07361/977080,false,BW-75846,48.869381,10.097729,Kopernikus-Gymnasium Wasseralfingen,75846,07361/97706,Gymnasium (G8),Gymnasium,BW
"Karlstraße 19, 71638 Ludwigsburg",07141/910-2653,false,BW-75849,48.892007,9.188984,Märike-Gymnasium,75849,07141/910-2339,Gymnasium (G9),Gymnasium,BW
"Karlstraße 19, 71638 Ludwigsburg",07141/910-2653,false,BW-75849,48.892007,9.188984,Märike-Gymnasium,75849,07141/910-2339,Gymnasium (G8),Gymnasium,BW
"Lyonel-Feininger-Weg 3, 71679 Asperg",07141/6812120,false,BW-75885,48.900504,9.134425,Friedrich-List-Gymnasium Asperg,75885,07141/6812110,Gymnasium (G8),Gymnasium,BW
"Maubacher Straße 62, 71522 Backnang",07191/914050,false,BW-75921,48.94103,9.429386,Max-Born-Gymnasium,75921,07191/91400,Gymnasium (G8),Gymnasium,BW
"Häfnersweg 63, 71522 Backnang",07191/904646,false,BW-75939,48.953517,9.445765,Gymnasium in der Taus,75939,07191/90460,Gymnasium (G9),Gymnasium,BW
"Häfnersweg 63, 71522 Backnang",07191/904646,false,BW-75939,48.953517,9.445765,Gymnasium in der Taus,75939,07191/90460,Gymnasium (G8),Gymnasium,BW
"Kopernikusstraße 11, 97980 Bad Mergentheim",07931/574913,false,BW-75975,49.487687,9.785563,Deutschorden-Gymnasium,75975,07931/574070,Gymnasium (G8),Gymnasium,BW
"Schulstraße 23, 74206 Bad Wimpfen",07063/933612,false,BW-76011,49.228046,9.160848,Hohenstaufen-Gymnasium,76011,07063/9336-0,Gymnasium (G8),Gymnasium,BW
"Dammstraße 20, 71717 Beilstein",07062/3074,false,BW-76047,49.044147,9.309506,Herzog-Christoph-Gymnasium,76047,07062/3232,Gymnasium (G9),Gymnasium,BW
"Dammstraße 20, 71717 Beilstein",07062/3074,false,BW-76047,49.044147,9.309506,Herzog-Christoph-Gymnasium,76047,07062/3232,Gymnasium (G8),Gymnasium,BW
"Auf dem Kies 27, 74354 Besigheim",07143/35471,false,BW-76083,48.999049,9.147398,Christoph-Schrempf-Gymnasium Besigheim,76083,07143/80560,Gymnasium (G8),Gymnasium,BW
"Ellentalstraße 10, 74321 Bietigheim-Bissingen",07142/74-536,false,BW-76122,48.954492,9.124443,Gymnasium I im Ellental,76122,07142/74-503,Gymnasium (G8),Gymnasium,BW
"Ellentalstraße 10, 74321 Bietigheim-Bissingen",07142/74-536,false,BW-76158,48.954492,9.124443,Gymnasium II im Ellental,76158,07142/74-503,Gymnasium (G8),Gymnasium,BW
"Zeppelinstraße 50, 71032 Bäblingen",07031/669-4469,false,BW-76194,48.688093,9.019702,Albert-Einstein-Gymnasium,76194,07031/669-4443,Gymnasium (G8),Gymnasium,BW
"Danziger Straße 10, 71034 Bäblingen",07031/6694499,false,BW-76230,48.679227,8.998006,Otto-Hahn-Gymnasium,76230,07031/6694473,Gymnasium (G8),Gymnasium,BW
"Murkenbachweg 4, 71032 Bäblingen",07031/669-4529,false,BW-76248,48.679552,9.025329,Max-Planck-Gymnasium,76248,07031/6694503,Gymnasium (G8),Gymnasium,BW
"Alte Neresheimer Straße 39, 73441 Bopfingen",07362/956038-19,false,BW-76320,48.853459,10.345841,Ostalb-Gymnasium,76320,07362/956038-10,Gymnasium (G8),Gymnasium,BW
"Hirnerweg 15, 74336 Brackenheim",07135/982915,false,BW-76356,49.077665,9.061467,Zabergäu-Gymnasium,76356,07135/982911,Gymnasium (G8),Gymnasium,BW
"Dr.-Ascher-Weg 1, 74564 Crailsheim",07951/42046,false,BW-76359,49.141381,10.070767,Albert-Schweitzer-Gymnasium,76359,07951/297910,Gymnasium (G9),Gymnasium,BW
"Dr.-Ascher-Weg 1, 74564 Crailsheim",07951/42046,false,BW-76359,49.141381,10.070767,Albert-Schweitzer-Gymnasium,76359,07951/297910,Gymnasium (G8),Gymnasium,BW
"Gräninger Straße 29, 71254 Ditzingen",07156/968613,false,BW-76395,48.82639,9.06667,Gymnasium in der Glemsaue Ditzingen,76395,07156/9686-0,Gymnasium (G8),Gymnasium,BW
"Dr.-Frey-Straße 38, 73072 Donzdorf",07162/922639,false,BW-76431,48.686204,9.818798,Rechberg-Gymnasium,76431,07162/922625,Gymnasium (G8),Gymnasium,BW
"Bünzwanger Straße 35, 73061 Ebersbach an der Fils",07163/6902,false,BW-76467,48.70893,9.526379,Raichberg-Gymnasium,76467,07163/912320,Gymnasium (G8),Gymnasium,BW
"Talstraße 50, 73054 Eislingen",07161/98425-19,false,BW-76503,48.701019,9.718872,Erich-Kästner-Gymnasium,76503,07161/98425-0,Gymnasium (G8),Gymnasium,BW
"Peutingerstraße 16, 73479 Ellwangen (Jagst)",07961/84858,false,BW-76557,48.965721,10.134689,Peutinger-Gymnasium,76557,07961/84-850,Gymnasium (G8),Gymnasium,BW
"Berliner Straße 25, 73479 Ellwangen (Jagst)",07961/84826,false,BW-76593,48.968504,10.118373,Hariolf-Gymnasium,76593,07961/84815,Gymnasium (G8),Gymnasium,BW
"Adolf-Vielhauer-Straße 13, 75031 Eppingen",07262/920-201,false,BW-76632,49.131036,8.912228,Hartmanni-Gymnasium Eppingen,76632,07262/920-200,Gymnasium (G8),Gymnasium,BW
"Lohwasen 1, 73728 Esslingen am Neckar",0711/3512-3208,false,BW-76668,48.742762,9.301292,Georgii-Gymnasium,76668,0711/3512-2324,Gymnasium (G8),Gymnasium,BW
"Neckarstraße 38, 73728 Esslingen am Neckar",0711/3512-2756,false,BW-76704,48.736966,9.310579,Märike-Gymnasium,76704,0711/3512-2328,Gymnasium (G8),Gymnasium,BW
"Barbarossastraße 85, 73732 Esslingen am Neckar",0711/3512-3360,false,BW-76740,48.755884,9.305436,Schelztor-Gymnasium Esslingen,76740,0711/3512-3350,Gymnasium (G8),Gymnasium,BW
"Breslauer Straße 19, 73730 Esslingen am Neckar",0711/3512-3222,false,BW-76776,48.731409,9.3415,Theodor-Heuss-Gymnasium,76776,0711/3512-2456,Gymnasium (G8),Gymnasium,BW
"Pestalozzistraße 50, 70736 Fellbach",0711/5851-7575,false,BW-76779,48.817943,9.275419,Friedrich-Schiller-Gymnasium,76779,0711/5851-293,Gymnasium (G8),Gymnasium,BW
"Hofäckerstraße 8, 70736 Fellbach",0711/5404897,false,BW-76815,48.833001,9.269179,Gustav-Stresemann-Gymnasium Schmiden,76815,0711/5851-632,Gymnasium (G8),Gymnasium,BW
"Tübinger Straße 71, 70794 Filderstadt",0711/7086129,false,BW-76866,48.668241,9.211959,Eduard-Spranger-Gymnasium Bernhausen,76866,0711/7086110,Gymnasium (G8),Gymnasium,BW
"Schloßstraße 24, 74405 Gaildorf",07971/253-230,false,BW-76869,49.003193,9.773727,Schenk-von-Limpurg-Gymnasium Gaildorf,76869,07971/253-200,Gymnasium (G8),Gymnasium,BW
"Kaiser-Wilhelm-Straße 3, 73312 Geislingen an der Steige",07331/941608,false,BW-76905,48.620738,9.839852,Helfenstein-Gymnasium,76905,07331/941675,Gymnasium (G9),Gymnasium,BW
"Kaiser-Wilhelm-Straße 3, 73312 Geislingen an der Steige",07331/941608,false,BW-76905,48.620738,9.839852,Helfenstein-Gymnasium,76905,07331/941675,Gymnasium (G8),Gymnasium,BW
"Staubstraße 50, 73312 Geislingen an der Steige",07331/954712,false,BW-76941,48.621174,9.817471,Michelberg-Gymnasium,76941,07331/954711,Gymnasium (G8),Gymnasium,BW
"Jahnstraße 5-7, 74582 Gerabronn",07952/6960-21,false,BW-76977,49.251577,9.927587,Gymnasium Gerabronn,76977,07952/9660-11,Gymnasium (G8),Gymnasium,BW
"Hasenbergstraße 16/2, 70839 Gerlingen",07156/205-398,false,BW-77013,48.797113,9.060836,Robert-Bosch-Gymnasium,77013,07156/205-280,Gymnasium (G8),Gymnasium,BW
"Beethovenstraße 10, 89537 Giengen an der Brenz",07322/963516,false,BW-77052,48.623678,10.240292,Margarete-Steiff-Gymnasium,77052,07322/963512,Gymnasium (G9),Gymnasium,BW
"Beethovenstraße 10, 89537 Giengen an der Brenz",07322/963516,false,BW-77052,48.623678,10.240292,Margarete-Steiff-Gymnasium,77052,07322/963512,Gymnasium (G8),Gymnasium,BW
"Freihofstraße 43, 73033 Gäppingen",07161/650-386,false,BW-77088,48.704671,9.653296,Freihof-Gymnasium,77088,07161/650-397,Gymnasium (G8),Gymnasium,BW
"Hohenstaufenstraße 39, 73033 Gäppingen",07161/96296-27,false,BW-77124,48.704582,9.667929,Hohenstaufen-Gymnasium,77124,07161/962960,Gymnasium (G8),Gymnasium,BW
"Märikestraße 29, 73033 Gäppingen",07161/9629727,false,BW-77142,48.707926,9.655542,Märike-Gymnasium,77142,07161/96297-0,Gymnasium (G8),Gymnasium,BW
"Jahnstraße 4, 73037 Gäppingen",07161/96298-23,false,BW-77178,48.700074,9.647938,Werner-Heisenberg-Gymnasium,77178,07161/96298-0,Gymnasium (G8),Gymnasium,BW
"Bahnhofplatz 8, 89518 Heidenheim an der Brenz",07321/327-5413,false,BW-77214,48.680212,10.155317,Hellenstein-Gymnasium,77214,07321/327-5400,Gymnasium (G8),Gymnasium,BW
"Friedrich-Ebert-Straße 8, 89522 Heidenheim an der Brenz",07321/923017,false,BW-77250,48.675291,10.161355,Schiller-Gymnasium,77250,07321/327-5420,Gymnasium (G8),Gymnasium,BW
"Virchowstraße 30-44, 89518 Heidenheim an der Brenz",07321/3275449,false,BW-77286,48.686866,10.148952,Max-Planck-Gymnasium,77286,07321/327-5440,Gymnasium (G8),Gymnasium,BW
"Kraichgauplatz 17, 74080 Heilbronn",07131/46930,false,BW-77289,49.145307,9.180162,Elly-Heuss-Knapp-Gymnasium,77289,07131/897721,Gymnasium (G8),Gymnasium,BW
"Max-von-Laue-Straße 1-3, 74081 Heilbronn",07131/564022,false,BW-77325,49.118296,9.211799,Justinus-Kerner-Gymnasium Heilbronn,77325,07131/562448,Gymnasium (G8),Gymnasium,BW
"Bismarckstraße 10, 74072 Heilbronn",07131/84915,false,BW-77361,49.139962,9.226822,Robert-Mayer-Gymnasium,77361,07131/642800,Gymnasium (G8),Gymnasium,BW
"Gymnasiumstraße 70, 74072 Heilbronn",07131/562416,false,BW-77397,49.142476,9.226522,Theodor-Heuss-Gymnasium,77397,07131/562451,Gymnasium (G8),Gymnasium,BW
"Karlstraße 44, 74072 Heilbronn",07131/564229,false,BW-77433,49.142609,9.228245,Mänchsee-Gymnasium,77433,07131/562452,Gymnasium (G8),Gymnasium,BW
"Brückenstraße 10, 89542 Herbrechtingen",07324/955-1410,false,BW-77439,48.620632,10.173092,Buigen-Gymnasium,77439,07324/9551422,Gymnasium (G8),Gymnasium,BW
"Längenholz 2, 71083 Herrenberg",07032/949919,false,BW-77475,48.590253,8.874371,Schickhardt-Gymnasium,77475,07032/949910,Gymnasium (G8),Gymnasium,BW
"Schießtäle 33, 71083 Herrenberg",07032/9498-19,false,BW-77511,48.59234,8.854316,Andreä-Gymnasium,77511,07032/9498-0,Gymnasium (G8),Gymnasium,BW
"Helmut-Härmann-Straße 19, 73540 Heubach",07173/929924,false,BW-77547,48.78333,9.93333,Rosenstein-Gymnasium,77547,07173/929922,Gymnasium (G8),Gymnasium,BW
"Jesinger Halde 5, 73230 Kirchheim unter Teck",07021/5039133,false,BW-77583,48.644142,9.470309,Schloßgymnasium,77583,07021/503910,Gymnasium (G8),Gymnasium,BW
"Hahnweidstraße 34, 73230 Kirchheim unter Teck",07021/504113,false,BW-77622,48.641748,9.446446,Ludwig-Uhland-Gymnasium,77622,07021/50410,Gymnasium (G8),Gymnasium,BW
"Charlottenstraße 53, 70825 Korntal-Münchingen",0711/831640,false,BW-77658,48.830448,9.115771,Gymnasium Korntal-Münchingen,77658,0711/8398720,Gymnasium (G8),Gymnasium,BW
"Hohenstaufenallee 8, 70806 Kornwestheim",07154/202-6110,false,BW-77694,48.858404,9.189367,Ernst-Sigle-Gymnasium,77694,07154/2026101,Gymnasium (G8),Gymnasium,BW
"Mühlbergstraße 65, 74653 Künzelsau",07940/982222,false,BW-77730,49.28837,9.68153,Ganerben-Gymnasium,77730,07940/9822-0,Gymnasium (G8),Gymnasium,BW
"Charlottenstraße 87, 74348 Lauffen am Neckar",07133/21943,false,BW-77748,49.070664,9.139579,Hälderlin-Gymnasium,77748,07133/7673,Gymnasium (G8),Gymnasium,BW
"Schimmelwiesenstraße 24, 70771 Leinfelden-Echterdingen",0711/7945534-30,false,BW-77784,48.688851,9.155329,Philipp-Matthäus-Hahn-Gymnasium Echterdingen,77784,0711/79455340,Gymnasium (G8),Gymnasium,BW
"Anemonenstraße 15, 70771 Leinfelden-Echterdingen",0711/1600-503,false,BW-77820,48.699114,9.13622,Immanuel-Kant-Gymnasium Leinfelden,77820,0711/1600-500,Gymnasium (G8),Gymnasium,BW
"Gerhart-Hauptmann-Straße 15, 71229 Leonberg",07152/990-4190,false,BW-77856,48.797583,9.009644,Albert-Schweitzer-Gymnasium,77856,07152/9904103,Gymnasium (G8),Gymnasium,BW
"Lindenstraße 4, 71229 Leonberg",07152/990-4290,false,BW-77859,48.799843,9.011348,Johannes-Kepler-Gymnasium,77859,07152/990-4202,Gymnasium (G8),Gymnasium,BW
"Becksteiner Straße 80, 97922 Lauda-Känigshofen",09343/5012101,false,BW-77895,49.560941,9.705011,Martin-Schleyer-Gymnasium,77895,09343/5012100,Gymnasium (G9),Gymnasium,BW
"Becksteiner Straße 80, 97922 Lauda-Känigshofen",09343/5012101,false,BW-77895,49.560941,9.705011,Martin-Schleyer-Gymnasium,77895,09343/5012100,Gymnasium (G8),Gymnasium,BW
"Auf dem Schäfersfeld 4, 73547 Lorch",07172/186190,false,BW-77931,48.801149,9.697669,Gymnasium Friedrich II Lorch,77931,07172/186100,Gymnasium (G8),Gymnasium,BW
"Alleenstraße 16, 71638 Ludwigsburg",07141/910-2367,false,BW-77967,48.892998,9.188914,Friedrich-Schiller-Gymnasium,77967,07141/910-2337,Gymnasium (G8),Gymnasium,BW
"Seestraße 37, 71638 Ludwigsburg",07141/910-2268,false,BW-78003,48.892764,9.190709,Goethe-Gymnasium,78003,07141/910-2338,Gymnasium (G8),Gymnasium,BW
"Kaiserstraße 14, 71636 Ludwigsburg",07141/910-2545,false,BW-78057,48.897951,9.17589,Otto-Hahn-Gymnasium,78057,07141/910-2545,Gymnasium (G8),Gymnasium,BW
"Schwieberdinger Straße 12, 71706 Markgräningen",07145/9610-30,false,BW-78093,48.901576,9.081803,Hans-Grüninger-Gymnasium,78093,07145/9610-0,Gymnasium (G8),Gymnasium,BW
"Lehlestraße 9, 74219 Mäckmühl",06298/927158-11,false,BW-78132,49.321749,9.366367,Gymnasium Mäckmühl,78132,06298/92715810,Gymnasium (G8),Gymnasium,BW
"Rudi-Gehring-Straße 1, 71540 Murrhardt",07192/91901-16,false,BW-78168,48.989263,9.584193,Heinrich-von-Zügel-Gymnasium,78168,07192/91901-0,Gymnasium (G8),Gymnasium,BW
"Gymnasiumstraße 6, 74172 Neckarsulm",07132/9630-40,false,BW-78204,49.193204,9.231223,Albert-Schweitzer-Gymnasium,78204,07132/9630-0,Gymnasium (G8),Gymnasium,BW
"Auwiesen 4, 72654 Neckartenzlingen",07127/93297-80,false,BW-78240,48.585825,9.243485,Gymnasium Neckartenzlingen,78240,07127/93297-0,Gymnasium (G8),Gymnasium,BW
"Karl-Bonhoeffer-Straße 14, 73450 Neresheim",07326/9614-17,false,BW-78276,48.757175,10.327723,Benedikt-Maria-Werkmeister-Gymnasium,78276,07326/9614-0,Gymnasium (G8),Gymnasium,BW
"Gymnasiumstraße 14, 74196 Neuenstadt am Kocher",07139/472615,false,BW-78279,49.234333,9.336922,Eduard-Märike-Gymnasium,78279,07139/472610,Gymnasium (G8),Gymnasium,BW
"Steinenbergstraße 17, 72622 Nürtingen",07022/927130,false,BW-78315,48.629753,9.339944,Max-Planck-Gymnasium,78315,07022/92710,Gymnasium (G8),Gymnasium,BW
"Am Lerchenberg 75, 72622 Nürtingen",07022/93251-41,false,BW-78366,48.614388,9.336725,Hälderlin-Gymnasium,78366,07022/93251-0,Gymnasium (G8),Gymnasium,BW
"Ernst-Abbe-Platz 1, 73447 Oberkochen",07364/961322,false,BW-78369,48.788487,10.113797,Ernst-Abbe-Gymnasium,78369,07364/96130,Gymnasium (G8),Gymnasium,BW
"Weygangstraße 13-15, 74613 …hringen",07941/9257-99,false,BW-78405,49.199494,9.512878,Hohenlohe-Gymnasium …hringen,78405,07941/9257-0,Gymnasium (G9),Gymnasium,BW
"Weygangstraße 13-15, 74613 …hringen",07941/9257-99,false,BW-78405,49.199494,9.512878,Hohenlohe-Gymnasium …hringen,78405,07941/9257-0,Gymnasium (G8),Gymnasium,BW
"In den Anlagen 7, 73760 Ostfildern",0711/3482802,false,BW-78441,48.716761,9.29285,Otto-Hahn-Gymnasium Nellingen,78441,0711/3411060,Gymnasium (G8),Gymnasium,BW
"In den Anlagen 11, 73760 Ostfildern",0711/3400402,false,BW-78477,48.717139,9.292181,Heinrich-Heine-Gymnasium Nellingen,78477,0711/2207070,Gymnasium (G8),Gymnasium,BW
"Tannenstraße 47, 73207 Plochingen",07153/8900-140,false,BW-78513,48.714575,9.419146,Gymnasium Plochingen,78513,07153/8900-0,Gymnasium (G9),Gymnasium,BW
"Tannenstraße 47, 73207 Plochingen",07153/8900-140,false,BW-78513,48.714575,9.419146,Gymnasium Plochingen,78513,07153/8900-0,Gymnasium (G8),Gymnasium,BW
"Rehhaldenweg 2, 73614 Schorndorf",07181/600679,false,BW-78552,48.795357,9.531979,Max-Planck-Gymnasium,78552,07181/6029402,Gymnasium (G8),Gymnasium,BW
"Hinter der Burg 6, 73614 Schorndorf",07181/602483,false,BW-78588,48.803026,9.527806,Burg-Gymnasium,78588,07181/602497,Gymnasium (G8),Gymnasium,BW
"Haußmannstraße 34, 73525 Schwäbisch Gmünd",07171/929937,false,BW-78624,48.794831,9.79351,Parler-Gymnasium,78624,07171/929936,Gymnasium (G8),Gymnasium,BW
"Märikestraße 5, 73525 Schwäbisch Gmünd",07171/929764,false,BW-78642,48.8,9.8,Hans-Baldung-Gymnasium,78642,07171/929763,Gymnasium (G9),Gymnasium,BW
"Märikestraße 5, 73525 Schwäbisch Gmünd",07171/929764,false,BW-78642,48.8,9.8,Hans-Baldung-Gymnasium,78642,07171/929763,Gymnasium (G8),Gymnasium,BW
"Scheffoldstraße 102, 73529 Schwäbisch Gmünd",07171/86907,false,BW-78678,48.787254,9.827727,Scheffold-Gymnasium,78678,07171/82908,Gymnasium (G8),Gymnasium,BW
"Berliner Straße 16, 74523 Schwäbisch Hall",0791/955252,false,BW-78714,49.099365,9.72796,Erasmus-Widmann-Gymnasium im Schulzentrum West,78714,0791/955251,Gymnasium (G8),Gymnasium,BW
"Tüngentaler Straße 92, 74523 Schwäbisch Hall",0791/490517,false,BW-78750,49.113757,9.754302,Gymnasium bei St. Michael,78750,0791/93240-0,Gymnasium (G8),Gymnasium,BW
"Frankenstraße 15, 71065 Sindelfingen",07031/9574-14,false,BW-78786,48.697501,9.008685,Goldberg-Gymnasium,78786,07031/9574-0,Gymnasium (G8),Gymnasium,BW
"Pfarrwiesenallee 1-3, 71067 Sindelfingen",07031/808068,false,BW-78789,48.721055,9.004362,Gymnasium in den Pfarrwiesen,78789,07031/416050,Gymnasium (G8),Gymnasium,BW
"Bäblinger Straße 26, 71065 Sindelfingen",07031/2043333,false,BW-78825,48.71118,9.055965,Stiftsgymnasium,78825,07031/204330,Gymnasium (G8),Gymnasium,BW
"Rudolf-Harbig-Straße 40, 71069 Sindelfingen",07031/7371-40,false,BW-78861,48.716585,8.972794,Gymnasium Unterrieden,78861,07031/7371-0,Gymnasium (G8),Gymnasium,BW
"Forststraße 43, 70176 Stuttgart",0711/21659757,false,BW-78897,48.779651,9.163203,Dillmann-Gymnasium,78897,0711/216-59755,Gymnasium (G8),Gymnasium,BW
"Herdweg 72, 70174 Stuttgart",0711/2238486,false,BW-78933,48.787157,9.161571,Eberhard-Ludwigs-Gymnasium,78933,0711/391506-0,Gymnasium (G8),Gymnasium,BW
"Silberburgstraße 86, 70176 Stuttgart",0711/21660980,false,BW-78951,48.779121,9.16266,Friedrich-Eugens-Gymnasium,78951,0711/21660990,Gymnasium (G8),Gymnasium,BW
"Hälderlinstraße 28, 70174 Stuttgart",0711/2269049,false,BW-78987,48.781914,9.171141,Hälderlin-Gymnasium,78987,0711/216-33700,Gymnasium (G8),Gymnasium,BW
"Tübinger Straße 38, 70178 Stuttgart",0711/216-60585,false,BW-79023,48.769358,9.171714,Karls-Gymnasium,79023,0711/21660590,Gymnasium (G8),Gymnasium,BW
"Schillerstraße 5, 70173 Stuttgart",0711/216-96652,false,BW-79062,48.781468,9.185594,Känigin-Katharina-Stift Gymnasium,79062,0711/21696651,Gymnasium (G8),Gymnasium,BW
"Johannesstraße 18, 70176 Stuttgart",0711/216-57612,false,BW-79098,48.77518,9.16347,Känigin-Olga-Stift Gymnasium,79098,0711/21657610,Gymnasium (G8),Gymnasium,BW
"Schickhardtstraße 26, 70199 Stuttgart",0711/216-91667,false,BW-79134,48.765434,9.160407,Schickhardt-Gymnasium,79134,0711/216-91650,Gymnasium (G8),Gymnasium,BW
"Wagenburgstraße 30, 70184 Stuttgart",0711/4891989,false,BW-79170,48.779362,9.195424,Wagenburg-Gymnasium,79170,0711/462036,Gymnasium (G8),Gymnasium,BW
"Neckarstraße 149, 70190 Stuttgart",0711/2164104,false,BW-79206,48.78984,9.195591,Zeppelin-Gymnasium,79206,0711/21621100,Gymnasium (G9),Gymnasium,BW
"Neckarstraße 149, 70190 Stuttgart",0711/2164104,false,BW-79206,48.78984,9.195591,Zeppelin-Gymnasium,79206,0711/21621100,Gymnasium (G8),Gymnasium,BW
"Remstalstraße 35, 70374 Stuttgart",0711/52089750,false,BW-79209,48.802483,9.240998,Elly-Heuss-Knapp-Gymnasium Bad Cannstatt,79209,0711/5208973,Gymnasium (G8),Gymnasium,BW
"Kattowitzer Straße 8, 70374 Stuttgart",0711/21620890,false,BW-79260,48.800988,9.234654,Gottlieb-Daimler-Gymnasium Bad Cannstatt,79260,0711/21620880,Gymnasium (G8),Gymnasium,BW
"Daimlerstraße 8, 70372 Stuttgart",0711/21680950,false,BW-79296,48.807344,9.218201,Johannes-Kepler-Gymnasium Bad Cannstatt,79296,0711/21680940,Gymnasium (G8),Gymnasium,BW
"Albstraße 80, 70597 Stuttgart",0711/21689340,false,BW-79299,48.741114,9.164717,Wilhelms-Gymnasium Degerloch,79299,0711/21689330,Gymnasium (G9),Gymnasium,BW
"Albstraße 80, 70597 Stuttgart",0711/21689340,false,BW-79299,48.741114,9.164717,Wilhelms-Gymnasium Degerloch,79299,0711/21689330,Gymnasium (G8),Gymnasium,BW
"Klagenfurter Straße 71, 70469 Stuttgart",0711/216-59844,false,BW-79335,48.811613,9.156341,Neues Gymnasium Feuerbach,79335,0711/216-59850,Gymnasium (G8),Gymnasium,BW
"Klagenfurter Straße 75, 70469 Stuttgart",0711/216-60520,false,BW-79371,48.812082,9.155915,Leibniz-Gymnasium Feuerbach,79371,0711/21660510,Gymnasium (G9),Gymnasium,BW
"Klagenfurter Straße 75, 70469 Stuttgart",0711/216-60520,false,BW-79371,48.812082,9.155915,Leibniz-Gymnasium Feuerbach,79371,0711/21660510,Gymnasium (G8),Gymnasium,BW
"Sigmaringer Straße 85, 70567 Stuttgart",0711/216-4990,false,BW-79407,48.73005,9.152682,Känigin-Charlotte-Gymnasium Mähringen,79407,0711/216-4993,Gymnasium (G8),Gymnasium,BW
"Paracelsusstraße 36, 70599 Stuttgart",0711/45999470,false,BW-79443,48.705492,9.210989,Paracelsus-Gymnasium Hohenheim Plieningen-Birkach,79443,0711/459994-6,Gymnasium (G8),Gymnasium,BW
"Richard-Schmid-Straße 25, 70619 Stuttgart",0711/45999350,false,BW-79482,48.737667,9.22119,Geschwister-Scholl-Gymnasium Stuttgart-Sillenbuch,79482,0711/4599933,Gymnasium (G8),Gymnasium,BW
"Lindenschulstraße 20, 70327 Stuttgart",0711/216-20380,false,BW-79518,48.777443,9.249013,Wirtemberg-Gymnasium Untertürkheim,79518,0711/21620361,Gymnasium (G8),Gymnasium,BW
"Krehlstraße 65, 70563 Stuttgart",0711/732550,false,BW-79572,48.723373,9.102418,Hegel-Gymnasium Vaihingen,79572,0711/216-98640,Gymnasium (G8),Gymnasium,BW
"Fanny-Leicht-Straße 13, 70563 Stuttgart",0711/733610,false,BW-79608,48.731169,9.116854,Fanny-Leicht-Gymnasium Vaihingen,79608,0711/733624,Gymnasium (G8),Gymnasium,BW
"Spechtweg 40, 70499 Stuttgart",0711/216-91905,false,BW-79644,48.803785,9.104333,Solitude-Gymnasium Stuttgart-Weilimdorf,79644,0711/216-91890,Gymnasium (G8),Gymnasium,BW
"Haldenrainstraße 136, 70437 Stuttgart",0711/216-57222,false,BW-79680,48.831143,9.193676,Ferdinand-Porsche-Gymnasium Zuffenhausen,79680,0711/21657220,Gymnasium (G8),Gymnasium,BW
"Adalbert-Stifter-Straße 40, 70437 Stuttgart",0711/216-89889,false,BW-79716,48.839654,9.21118,Eschbach-Gymnasium Stuttgart-Freiberg,79716,0711/21689499,Gymnasium (G8),Gymnasium,BW
"Taubenhausweg 2, 97941 Tauberbischofsheim",09341/897097,false,BW-79719,49.62054,9.664296,Matthias-Grünewald-Gymnasium,79719,09341/3140,Gymnasium (G8),Gymnasium,BW
"Alter Postweg 6, 71665 Vaihingen an der Enz",07042/9734-15,false,BW-79755,48.935527,8.955473,Friedrich-Abel-Gymnasium,79755,07042/9734-0,Gymnasium (G8),Gymnasium,BW
"Im Sämann 32, 71334 Waiblingen",07151/2008110,false,BW-79791,48.835434,9.329159,Salier-Gymnasium,79791,07151/2008100,Gymnasium (G8),Gymnasium,BW
"Mayenner Straße 30, 71332 Waiblingen",07151/98116-305,false,BW-79827,48.827241,9.313319,Staufer-Gymnasium,79827,07151/98116-300,Gymnasium (G8),Gymnasium,BW
"Laudenbacher Straße 20, 97990 Weikersheim",07934/9112-20,false,BW-79845,49.477802,9.903194,Gymnasium Weikersheim,79845,07934/9112-10,Gymnasium (G8),Gymnasium,BW
"Max-Caspar-Straße 47, 71263 Weil der Stadt",07033/80884,false,BW-79881,48.752121,8.861035,Johannes-Kepler-Gymnasium,79881,07033/6077,Gymnasium (G8),Gymnasium,BW
"Rossäckerstraße 11, 74189 Weinsberg",07134/994120,false,BW-79917,49.148045,9.280635,Justinus-Kerner-Gymnasium,79917,07134/994100,Gymnasium (G8),Gymnasium,BW
"Beutelsbacher Straße 64, 71384 Weinstadt",07151/99919-41,false,BW-79953,48.808743,9.373051,Remstal-Gymnasium Weinstadt,79953,07151/99919-0,Gymnasium (G8),Gymnasium,BW
"Helmut-Glock-Straße 2, 73642 Welzheim",07182/93855-13,false,BW-79992,48.87434,9.637425,Limes-Gymnasium,79992,07182/93855-0,Gymnasium (G8),Gymnasium,BW
"Hähenstraße 31, 73240 Wendlingen am Neckar",07024/9200270,false,BW-80028,48.67472,9.38167,Robert-Bosch-Gymnasium,80028,07024/9200210,Gymnasium (G8),Gymnasium,BW
"Conrad-Wellin-Straße 6-8, 97877 Wertheim",09342/935629,false,BW-80064,49.755305,9.513398,Dietrich-Bonhäffer-Gymnasium,80064,09342/93560,Gymnasium (G8),Gymnasium,BW
"Paulinenstraße 29-31, 71364 Winnenden",07195/910215,false,BW-80100,48.874582,9.401018,Georg-Büchner-Gymnasium Winnenden,80100,07195/910312,Gymnasium (G8),Gymnasium,BW
"Albertviller Straße 26, 71364 Winnenden",07195/910212,false,BW-80136,48.869518,9.398648,Lessing-Gymnasium Winnenden,80136,07195/67748,Gymnasium (G8),Gymnasium,BW
"Steiner Straße 48, 75203 Känigsbach-Stein",07232/3065-222,false,BW-80154,48.962322,8.61681,Lise-Meitner-Gymnasium Bildungszentrum Känigsbach,80154,07232/3065100,Gymnasium (G9),Gymnasium,BW
"Steiner Straße 48, 75203 Känigsbach-Stein",07232/3065-222,false,BW-80154,48.962322,8.61681,Lise-Meitner-Gymnasium Bildungszentrum Känigsbach,80154,07232/3065100,Gymnasium (G8),Gymnasium,BW
"Im Eichbäumle 1, 76139 Karlsruhe",0721/133-4555,false,BW-80190,49.032635,8.445219,Otto-Hahn-Gymnasium,80190,0721/133-4556,Gymnasium (G8),Gymnasium,BW
"Krokusweg 49, 76199 Karlsruhe",0721/133-4989,false,BW-80226,48.975964,8.414067,Max-Planck-Gymnasium Rüppurr,80226,0721/133-4550,Gymnasium (G8),Gymnasium,BW
"Sophienstraße 147, 76135 Karlsruhe",0721/133-4533,false,BW-80229,49.008024,8.37526,Lessing-Gymnasium,80229,0721/133-4536,Gymnasium (G8),Gymnasium,BW
"Gymnasiumstraße 1-3, 76227 Karlsruhe",0721/133-4568,false,BW-80265,48.998829,8.478084,Markgrafen-Gymnasium Durlach,80265,0721/133-4540,Gymnasium (G8),Gymnasium,BW
"Englerstraße 10, 76131 Karlsruhe",0721/133-4539,false,BW-80301,49.010811,8.410394,Kant-Gymnasium,80301,0721/133-4529,Gymnasium (G8),Gymnasium,BW
"Wilhelm-Hausenstein-Allee 22, 76187 Karlsruhe",0721/133-2513,false,BW-80337,49.033457,8.370746,Humboldt-Gymnasium Nordweststadt,80337,0721/133-4523,Gymnasium (G9),Gymnasium,BW
"Wilhelm-Hausenstein-Allee 22, 76187 Karlsruhe",0721/133-2513,false,BW-80337,49.033457,8.370746,Humboldt-Gymnasium Nordweststadt,80337,0721/133-4523,Gymnasium (G8),Gymnasium,BW
"Kaiserallee 6, 76133 Karlsruhe",0721/133-4979,false,BW-80373,49.010879,8.383897,Helmholtz-Gymnasium,80373,0721/133-4518,Gymnasium (G8),Gymnasium,BW
"Renckstraße 2, 76133 Karlsruhe",0721/133-4588,false,BW-80412,49.003709,8.396434,Goethe-Gymnasium,80412,0721/133-4512,Gymnasium (G8),Gymnasium,BW
"Sophienstraße 12-16, 76133 Karlsruhe",0721/1334960,false,BW-80451,49.00767,8.388058,Fichte-Gymnasium,80451,0721/133-4506,Gymnasium (G8),Gymnasium,BW
"Bismarckstraße 8, 76133 Karlsruhe",0721/133-4569,false,BW-80487,49.013389,8.394863,Bismarck-Gymnasium,80487,0721/133-4502,Gymnasium (G8),Gymnasium,BW
"Am Schelmenbusch 1, 76307 Karlsbad",07202/9302-58,false,BW-80523,48.911518,8.501143,Gymnasium Karlsbad,80523,07202/9302-50,Gymnasium (G8),Gymnasium,BW
"Fürstabt-Gerbert-Straße 21, 72160 Horb am Neckar",07451/60153,false,BW-80562,48.442139,8.683046,Martin-Gerbert-Gymnasium,80562,07451/2466,Gymnasium (G8),Gymnasium,BW
"Schubertstraße 5, 68766 Hockenheim",06205/21-630,false,BW-80598,49.316631,8.543989,Carl-Friedrich-Gauss-Gymnasium,80598,06205/204730,Gymnasium (G8),Gymnasium,BW
"Silcherweg 8, 69502 Hemsbach",06201/477357,false,BW-80634,49.596169,8.651559,Bergstraßen-Gymnasium,80634,06201/7691,Gymnasium (G8),Gymnasium,BW
"Neckarstaden 2, 69117 Heidelberg",06221/181096,false,BW-80706,49.411334,8.694012,Kurfürst-Friedrich-Gymnasium,80706,06221/5832150,Gymnasium (G8),Gymnasium,BW
"Rohrbacher Straße 102, 69126 Heidelberg",06221/300359,false,BW-80709,49.395746,8.68883,Helmholtz-Gymnasium,80709,06221/37040,Gymnasium (G8),Gymnasium,BW
"Humboldtstraße 23, 69120 Heidelberg",06221/419421,false,BW-80760,49.416218,8.677788,Bunsen-Gymnasium,80760,06221/64340,Gymnasium (G8),Gymnasium,BW
"Sulzberg 52, 72275 Alpirsbach",07444/9518-258,false,BW-80796,48.345259,8.396208,Bildungszentrum Sulzberg Progymnasium,80796,07444/9518-241,Progymnasium,Pro-Gymnasium,BW
"Leo-Wohleb-Weg 1, 76530 Baden-Baden",07221/93-2394,false,BW-80799,48.762928,8.245264,Gymnasium Hohenbaden,80799,07221/93-2391,Gymnasium (G8),Gymnasium,BW
"Hardstraße 2, 76530 Baden-Baden",07221/932370,false,BW-80835,48.759605,8.243842,Markgraf-Ludwig-Gymnasium,80835,07221/932366,Gymnasium (G9),Gymnasium,BW
"Hardstraße 2, 76530 Baden-Baden",07221/932370,false,BW-80835,48.759605,8.243842,Markgraf-Ludwig-Gymnasium,80835,07221/932366,Gymnasium (G8),Gymnasium,BW
"Rheinstraße 152, 76532 Baden-Baden",07221/93-1916,false,BW-80871,48.783431,8.206474,Richard-Wagner-Gymnasium,80871,07221/93-1910,Gymnasium (G8),Gymnasium,BW
"Oberdorfstraße 68, 72270 Baiersbronn",07442/8499513,false,BW-80907,48.502494,8.375467,Richard-von-Weizsäcker-Gymnasium,80907,07442/8499510,Gymnasium (G8),Gymnasium,BW
"Weißhofer Straße 48, 75015 Bretten",07252/9352-12,false,BW-80943,49.035761,8.711256,Melanchthon-Gymnasium,80943,07252/9352-0,Gymnasium (G8),Gymnasium,BW
"Belvedere 6, 76646 Bruchsal",07251/9167-30,false,BW-80982,49.126767,8.602694,Schänborn-Gymnasium,80982,07251/7976-0,Gymnasium (G8),Gymnasium,BW
"Moltkestraße 33, 76646 Bruchsal",07251/795625,false,BW-81018,49.120246,8.590595,Justus-Knecht-Gymnasium,81018,07251/79560,Gymnasium (G9),Gymnasium,BW
"Moltkestraße 33, 76646 Bruchsal",07251/795625,false,BW-81018,49.120246,8.590595,Justus-Knecht-Gymnasium,81018,07251/79560,Gymnasium (G8),Gymnasium,BW
"St.-Rochus-Straße 5, 74722 Buchen (Odenwald)",06281/5288-22,false,BW-81072,49.519653,9.325875,Burghardt-Gymnasium,81072,06281/5288-0,Gymnasium (G9),Gymnasium,BW
"St.-Rochus-Straße 5, 74722 Buchen (Odenwald)",06281/5288-22,false,BW-81072,49.519653,9.325875,Burghardt-Gymnasium,81072,06281/5288-0,Gymnasium (G8),Gymnasium,BW
"Humboldtstraße 3, 77815 Bühl",07223/94095-56,false,BW-81108,48.691929,8.129751,Windeck-Gymnasium,81108,07223/94095-6,Gymnasium (G8),Gymnasium,BW
"Schindelbergweg 11, 75365 Calw",07051/9326-60,false,BW-81144,48.691344,8.765399,Maria-von-Linden-Gymnasium Stammheim,81144,07051/93260,Gymnasium (G8),Gymnasium,BW
"Riedsteige 9, 72280 Dornstetten",07443/9642920,false,BW-81180,48.472184,8.500436,Gymnasium,81180,07443/964290,Gymnasium (G8),Gymnasium,BW
"Weißenburgerstraße 42, 76448 Durmersheim",07245/9196611,false,BW-81216,48.93533,8.267986,Wilhelm-Hausenstein-Gymnasium Durmersheim,81216,07245/919660,Gymnasium (G8),Gymnasium,BW
"Parallelweg 1, 69412 Eberbach",06271/9465-299,false,BW-81219,49.467169,8.977577,Hohenstaufen-Gymnasium,81219,06271/94650,Gymnasium (G8),Gymnasium,BW
"Maximilian-Kolbe-Weg 5, 69214 Eppelheim",06221/768743,false,BW-81255,49.394722,8.634174,Dietrich-Bonhäffer-Gymnasium,81255,06221/765500,Gymnasium (G8),Gymnasium,BW
"Middelkerker Straße 1-5, 76275 Ettlingen",07243/101-495,false,BW-81291,48.93746,8.399875,Albertus-Magnus-Gymnasium Schulzentrum am Kapellenweg,81291,07243/101585,Gymnasium (G8),Gymnasium,BW
"Goethestraße 2-10, 76275 Ettlingen",07243/101-558,false,BW-81327,48.942478,8.394709,Eichendorff-Gymnasium,81327,07243/101-347,Gymnasium (G8),Gymnasium,BW
"Ludwig-Jahn-Straße 54, 72250 Freudenstadt",07441/86059666,false,BW-81345,48.473601,8.413033,Kepler-Gymnasium,81345,07441/86059600,Gymnasium (G9),Gymnasium,BW
"Ludwig-Jahn-Straße 54, 72250 Freudenstadt",07441/86059666,false,BW-81345,48.473601,8.413033,Kepler-Gymnasium,81345,07441/86059600,Gymnasium (G8),Gymnasium,BW
"Gutenbergstraße 6, 76571 Gaggenau",07225/9605-20,false,BW-81381,48.803589,8.324874,Goethe-Gymnasium,81381,07225/9605-0,Gymnasium (G8),Gymnasium,BW
"Otto-Hahn-Straße 4, 76593 Gernsbach",07224/99199-30,false,BW-81417,48.766533,8.328182,Albert-Schweitzer Gymnasium,81417,07224/991990,Gymnasium (G8),Gymnasium,BW
"Realschulstraße 4, 68526 Ladenburg",06203/70-415,false,BW-81453,49.468975,8.609894,Carl-Benz-Gymnasium,81453,06203/70410,Gymnasium (G8),Gymnasium,BW
"D 7 8, 68159 Mannheim",0621/293-2549,false,BW-81492,49.490019,8.459642,Elisabeth-Gymnasium,81492,0621/293-3030,Gymnasium (G8),Gymnasium,BW
"Mecklenburger Straße 62, 68309 Mannheim",0621/701-025,false,BW-81528,49.508007,8.537772,Geschwister-Scholl-Gymnasium,81528,0621/701-027,Gymnasium (G8),Gymnasium,BW
"Roonstraße 4-6, 68165 Mannheim",0621/441730,false,BW-81564,49.4822306,8.4757348,Karl-Friedrich-Gymnasium,81564,0621/293-6700,Gymnasium (G9),Gymnasium,BW
"Roonstraße 4-6, 68165 Mannheim",0621/441730,false,BW-81564,49.4822306,8.4757348,Karl-Friedrich-Gymnasium,81564,0621/293-6700,Gymnasium (G8),Gymnasium,BW
"Josef-Braun-Ufer 15-16, 68165 Mannheim",0621/293-6519,false,BW-81600,49.487984,8.488828,Lessing-Gymnasium,81600,0621/293-6523,Gymnasium (G8),Gymnasium,BW
"Wespinstraße 21-25, 68165 Mannheim",0621/293-6969,false,BW-81636,49.477924,8.485318,Liselotte-Gymnasium,81636,0621/293-6524,Gymnasium (G8),Gymnasium,BW
"Käfertaler Straße 117-127, 68167 Mannheim",0621/293-8249,false,BW-81654,49.4955864,8.4891598,Ludwig-Frank-Gymnasium,81654,0621/293-8247,Gymnasium (G8),Gymnasium,BW
"Feldbergstraße 16, 68163 Mannheim",0621/83399-11,false,BW-81690,49.461168,8.472079,Moll-Gymnasium Mannheim,81690,0621/833990,Gymnasium (G8),Gymnasium,BW
"Neckarstraße 4, 68259 Mannheim",0621/795518,false,BW-81729,49.485883,8.53158,Feudenheim-Gymnasium,81729,0621/293-8413,Gymnasium (G8),Gymnasium,BW
"Lätzener Weg 2-4, 68307 Mannheim",0621/77701-11,false,BW-81765,49.560551,8.462189,Johanna-Geissmar-Gymnasium,81765,0621/777010,Gymnasium (G8),Gymnasium,BW
"Stuttgarter Straße 18, 75433 Maulbronn",07043/920171,false,BW-81801,48.99994,8.812195,Salzach-Gymnasium,81801,07043/908004,Gymnasium (G8),Gymnasium,BW
"Jean de la Fontaine-Straße 6-10, 74821 Mosbach",06261/9280-80,false,BW-81912,49.35,9.13333,Nicolaus-Kistner-Gymnasium,81912,06261/9280-0,Gymnasium (G8),Gymnasium,BW
"Rappstraße 9, 75417 Mühlacker",07041/8767-50,false,BW-81963,48.94555,8.838797,Theodor-Heuss-Gymnasium,81963,07041/8767-30,Gymnasium (G8),Gymnasium,BW
"Burgstraße 20, 72202 Nagold",07452/8465-32,false,BW-82002,48.552895,8.722833,Otto-Hahn-Gymnasium,82002,07452/8465-0,Gymnasium (G8),Gymnasium,BW
"Obere Turmstraße 34, 74924 Neckarbischofsheim",07263/60282,false,BW-82038,49.291678,8.965034,Adolf-Schmitthenner-Gymnasium,82038,07263/9181-0,Gymnasium (G9),Gymnasium,BW
"Obere Turmstraße 34, 74924 Neckarbischofsheim",07263/60282,false,BW-82038,49.291678,8.965034,Adolf-Schmitthenner-Gymnasium,82038,07263/9181-0,Gymnasium (G8),Gymnasium,BW
"Heidelberger Straße 39, 74821 Mosbach",06261/9724-40,false,BW-82074,49.345273,9.103838,Auguste-Pattberg-Gymnasium Neckarelz,82074,06261/9724-0,Gymnasium (G9),Gymnasium,BW
"Heidelberger Straße 39, 74821 Mosbach",06261/9724-40,false,BW-82074,49.345273,9.103838,Auguste-Pattberg-Gymnasium Neckarelz,82074,06261/9724-0,Gymnasium (G8),Gymnasium,BW
"Alter Postweg 10, 69151 Neckargemünd",06223/9225-55,false,BW-82110,49.39181,8.803223,Gymnasium,82110,06223/9225-0,Gymnasium (G8),Gymnasium,BW
"Waldenburgweg 10, 75305 Neuenbürg",07082/948389,false,BW-82146,48.850613,8.58186,Gymnasium Neuenbürg,82146,07082/2616,Gymnasium (G8),Gymnasium,BW
"Unterfeldstraße 6, 76149 Karlsruhe",0721/97837-25,false,BW-82149,49.045697,8.378064,Gymnasium Neureut,82149,0721/97837-0,Gymnasium (G8),Gymnasium,BW
"Hemsbacher Straße 24, 74706 Osterburken",06291/6408-13,false,BW-82185,49.43186,9.414272,Ganztagsgymnasium,82185,06291/6408-0,Gymnasium (G8),Gymnasium,BW
"Mozartstraße 1, 76684 …stringen",07253/928325,false,BW-82221,49.216903,8.70821,Leibniz-Gymnasium,82221,07253/928311,Gymnasium (G9),Gymnasium,BW
"Mozartstraße 1, 76684 …stringen",07253/928325,false,BW-82221,49.216903,8.70821,Leibniz-Gymnasium,82221,07253/928311,Gymnasium (G8),Gymnasium,BW
"Schloßgartenstraße 11, 76327 Pfinztal",0721/4659550,false,BW-82239,49.002786,8.533078,Ludwig-Marum-Gymnasium Pfinztal,82239,0721/4659510,Gymnasium (G8),Gymnasium,BW
"Simmlerstraße 1, 75172 Pforzheim",07231/392695,false,BW-82275,48.8903,8.694865,Hebel-Gymnasium,82275,07231/39-2359,Gymnasium (G8),Gymnasium,BW
"Kiehnlestraße 25, 75172 Pforzheim",07231/39-2954,false,BW-82311,48.892867,8.699106,Hilda-Gymnasium Pforzheim,82311,07231/39-2361,Gymnasium (G8),Gymnasium,BW
"Redtenbacherstraße 101, 75177 Pforzheim",07231/39-1689,false,BW-82347,48.90155,8.722571,Kepler-Gymnasium,82347,07231/39-2712,Gymnasium (G8),Gymnasium,BW
"Schwarzwaldstraße 84, 75173 Pforzheim",07231/39-1677,false,BW-82383,48.882046,8.684947,Reuchlin-Gymnasium,82383,07231/392557,Gymnasium (G8),Gymnasium,BW
"Zerrennerstraße 43-45, 75172 Pforzheim",07231/39-1678,false,BW-82458,48.890865,8.695672,Theodor-Heuss-Gymnasium,82458,07231/39-2785,Gymnasium (G9),Gymnasium,BW
"Zerrennerstraße 43-45, 75172 Pforzheim",07231/39-1678,false,BW-82458,48.890865,8.695672,Theodor-Heuss-Gymnasium,82458,07231/39-2785,Gymnasium (G8),Gymnasium,BW
"Lessingstraße 27, 76661 Philippsburg",07256/87254,false,BW-82494,49.235222,8.462683,Copernicus-Gymnasium,82494,07256/87250,Gymnasium (G8),Gymnasium,BW
"Lyzeumstraße 11, 76437 Rastatt",07222/37227,false,BW-82530,48.859957,8.20408,Ludwig-Wilhelm-Gymnasium,82530,07222/32639,Gymnasium (G9),Gymnasium,BW
"Lyzeumstraße 11, 76437 Rastatt",07222/37227,false,BW-82530,48.859957,8.20408,Ludwig-Wilhelm-Gymnasium,82530,07222/32639,Gymnasium (G8),Gymnasium,BW
"Danziger Straße 1, 76437 Rastatt",07222/9687581,false,BW-82548,48.866266,8.21671,Tulla-Gymnasium,82548,07222/23141,Gymnasium (G8),Gymnasium,BW
"Am Tummelplatz 10, 76287 Rheinstetten",07242/9375-75,false,BW-82584,48.96056,8.28972,Walahfrid-Strabo-Gymnasium,82584,07242/9375-0,Gymnasium (G8),Gymnasium,BW
"Albert-Schweitzer-Straße 5, 69207 Sandhausen",06224/9332-11,false,BW-82620,49.338064,8.661499,Friedrich-Ebert-Gymnasium,82620,06224/9332-0,Gymnasium (G8),Gymnasium,BW
"Hirschberger Straße 1, 69198 Schriesheim",06203/697268,false,BW-82656,49.472169,8.656428,Kurpfalz-Gymnasium,82656,06203/6972-50,Gymnasium (G8),Gymnasium,BW
"Goethestraße 23, 68723 Schwetzingen",06202/2005-11,false,BW-82659,49.382551,8.584453,Hebel-Gymnasium,82659,06202/2005-0,Gymnasium (G8),Gymnasium,BW
"Schubertstraße 2, 74889 Sinsheim",07261/9259-22,false,BW-82695,49.2538,8.88191,Wilhelmi-Gymnasium,82695,07261/9259-0,Gymnasium (G8),Gymnasium,BW
"Gymnasiumstraße 20, 76297 Stutensee",07244/735219,false,BW-82731,49.064917,8.476256,Thomas-Mann-Gymnasium Stutensee,82731,07244/735210,Gymnasium (G8),Gymnasium,BW
"Schwetzinger Straße 95, 69190 Walldorf",06227/353009,false,BW-82767,49.313587,8.636251,Gymnasium Walldorf,82767,06227/353000,Gymnasium (G8),Gymnasium,BW
"Friedrichstraße 7, 69469 Weinheim",06201/2908855,false,BW-82803,49.552194,8.671617,Werner-Heisenberg-Gymnasium,82803,06201/2908830,Gymnasium (G8),Gymnasium,BW
"Gymnasiumstraße 1-3, 69168 Wiesloch",06222/9294-26,false,BW-82857,49.296872,8.684935,Ottheinrich-Gymnasium Wiesloch,82857,06222/929413,Gymnasium (G8),Gymnasium,BW
"Paulinenstraße 39, 75323 Bad Wildbad",07081/9398-99,false,BW-82893,48.756839,8.549623,Enztal-Gymnasium Bad Wildbad,82893,07081/9398-0,Gymnasium (G9),Gymnasium,BW
"Paulinenstraße 39, 75323 Bad Wildbad",07081/9398-99,false,BW-82893,48.756839,8.549623,Enztal-Gymnasium Bad Wildbad,82893,07081/9398-0,Gymnasium (G8),Gymnasium,BW
"Berliner Straße 30, 77855 Achern",07841/642-3760,false,BW-82932,48.636664,8.080825,Gymnasium,82932,07841/642-1760,Gymnasium (G8),Gymnasium,BW
"Leo-Woleb-Straße 2, 79206 Breisach am Rhein",07667/90604109,false,BW-82968,48.02889,7.58,Martin-Schongauer-Gymnasium,82968,07667/90604-0,Gymnasium (G8),Gymnasium,BW
"Stuttgarter Straße 15, 79211 Denzlingen",07666/9322-60,false,BW-83004,48.070139,7.89519,Erasmus-Gymnasium,83004,07666/9322-50,Gymnasium (G8),Gymnasium,BW
"Humboldtstraße 1, 78166 Donaueschingen",0771/898647-19,false,BW-83040,47.956571,8.504493,Fürstenberg-Gymnasium,83040,0771/898647-0,Gymnasium (G8),Gymnasium,BW
"Neubronnstraße 20, 79312 Emmendingen",07641/93335959,false,BW-83076,48.113879,7.863292,Goethe-Gymnasium Emmendingen,83076,07641/9333590,Gymnasium (G8),Gymnasium,BW
"J.-B.-von-Weiss-Straße 7, 77955 Ettenheim",07822/3008290,false,BW-83079,48.25556,7.81194,Gymnasium Ettenheim,83079,07822/30080,Gymnasium (G8),Gymnasium,BW
"Runzstraße 83, 79102 Freiburg im Breisgau",0761/35164,false,BW-83115,47.989871,7.872622,Deutsch-Franzäsisches Gymnasium,83115,0761/201-7639,Gymnasium (G8),Gymnasium,BW
"Hirzbergstraße 12, 79102 Freiburg im Breisgau",0761/201-7479,false,BW-83166,47.990471,7.874884,Berthold-Gymnasium,83166,0761/201-7631,Gymnasium (G8),Gymnasium,BW
"Jacobistraße 22, 79104 Freiburg im Breisgau",0761/2017459,false,BW-83169,48.004505,7.859301,Friedrich-Gymnasium,83169,0761/201-7660,Gymnasium (G8),Gymnasium,BW
"Holzmarkt 5, 79098 Freiburg im Breisgau",0761/201-7449,false,BW-83205,47.992405,7.849832,Goethe-Gymnasium,83205,0761/201-7668,Gymnasium (G8),Gymnasium,BW
"Johanna-Kohlund-Straße 5, 79111 Freiburg im Breisgau",0761/201-7439,false,BW-83241,48.000767,7.793738,Kepler-Gymnasium,83241,0761/201-7676,Gymnasium (G8),Gymnasium,BW
"Lessingstraße 16, 79100 Freiburg im Breisgau",0761/201-7429,false,BW-83277,47.990461,7.841575,Rotteck-Gymnasium,83277,0761/201-7686,Gymnasium (G8),Gymnasium,BW
"Brucknerstraße 2, 79104 Freiburg im Breisgau",0761/201-7469,false,BW-83313,48.010435,7.86194,Droste-Hülshoff-Gymnasium,83313,0761/201-7647,Gymnasium (G8),Gymnasium,BW
"Andreas-Hofer-Straße 1, 79111 Freiburg im Breisgau",0761/201-7497,false,BW-83352,47.977871,7.813013,Theodor-Heuss-Gymnasium,83352,0761/2017690,Gymnasium (G8),Gymnasium,BW
"Falkenbergerstraße 21, 79110 Freiburg im Breisgau",0761/201-7419,false,BW-83388,48.013135,7.823864,Wentzinger-Gymnasium,83388,0761/201-7700,Gymnasium (G9),Gymnasium,BW
"Falkenbergerstraße 21, 79110 Freiburg im Breisgau",0761/201-7419,false,BW-83388,48.013135,7.823864,Wentzinger-Gymnasium,83388,0761/201-7700,Gymnasium (G8),Gymnasium,BW
"Colnestraße 6, 78120 Furtwangen im Schwarzwald",07723/50476199,false,BW-83424,48.05494,8.195285,Otto-Hahn-Gymnasium mit Realschule,83424,07723/504760,Realschule,Realschule,BW
"Colnestraße 6, 78120 Furtwangen im Schwarzwald",07723/50476199,false,BW-83424,48.05494,8.195285,Otto-Hahn-Gymnasium mit Realschule,83424,07723/504760,Gymnasium (G8),Gymnasium,BW
"Am Erhardt-Schrempp-Schulzentrum 1, 77723 Gengenbach",07803/9388-118,false,BW-83463,48.397611,8.018838,Marta-Schanzenbach-Gymnasium,83463,07803/9388-0,Gymnasium (G9),Gymnasium,BW
"Am Erhardt-Schrempp-Schulzentrum 1, 77723 Gengenbach",07803/9388-118,false,BW-83463,48.397611,8.018838,Marta-Schanzenbach-Gymnasium,83463,07803/9388-0,Gymnasium (G8),Gymnasium,BW
"Im Weiher 4, 78564 Wehingen",07426/9498-19,false,BW-83502,48.1475,8.7925,Gymnasium Gosheim-Wehingen,83502,07426/9498-20,Gymnasium (G8),Gymnasium,BW
"Kantstraße 1, 79639 Grenzach-Wyhlen",07624/91289-40,false,BW-83538,47.552123,7.67821,Lise-Meitner-Gymnasium Grenzach-Wyhlen,83538,07624/9128910,Gymnasium (G8),Gymnasium,BW
"Kandelstraße 47, 79194 Gundelfingen",0761/150651109,false,BW-83574,48.0414,7.871132,Albert-Schweitzer-Gymnasium,83574,0761/1506510,Gymnasium (G8),Gymnasium,BW
"Hauptstraße 3, 77756 Hausach",07831/9368-33,false,BW-83610,48.28406,8.173656,Robert-Gerwig-Gymnasium,83610,07831/9368-0,Gymnasium (G9),Gymnasium,BW
"Hauptstraße 3, 77756 Hausach",07831/9368-33,false,BW-83610,48.28406,8.173656,Robert-Gerwig-Gymnasium,83610,07831/9368-0,Gymnasium (G8),Gymnasium,BW
"Haydnstraße 3, 77694 Kehl",07851/9947-29,false,BW-83646,48.56314,7.82516,Einstein-Gymnasium,83646,07851/99470,Gymnasium (G8),Gymnasium,BW
"Breslauerstraße 13, 79341 Kenzingen",07644/9113-33,false,BW-83649,48.195604,7.770226,Gymnasium Kenzingen,83649,07644/9113-0,Gymnasium (G8),Gymnasium,BW
"Giersbergstraße 33, 79199 Kirchzarten",07661/90964199,false,BW-83685,47.960033,7.956233,Marie-Curie-Gymnasium Kirchzarten,83685,07661/90964100,Gymnasium (G8),Gymnasium,BW
"Schottenstraße 2, 78462 Konstanz",07531/905024,false,BW-83721,47.662482,9.171179,Alexander-von-Humboldt-Gymnasium,83721,07531/905000,Gymnasium (G8),Gymnasium,BW
"Neuhauser Straße 1, 78464 Konstanz",07531/54741,false,BW-83739,47.669316,9.187173,Heinrich-Suso-Gymnasium,83739,07531/66278,Gymnasium (G8),Gymnasium,BW
"Brauneggerstraße 29, 78462 Konstanz",07531/18780,false,BW-83775,47.66517,9.170642,Ellenrieder-Gymnasium,83775,07531/914257,Gymnasium (G8),Gymnasium,BW
"Max-Planck-Straße 12, 77933 Lahr",07821/9195-25,false,BW-83811,48.33817,7.876927,Max-Planck-Gymnasium,83811,07821/91950,Gymnasium (G8),Gymnasium,BW
"Otto-Hahn-Straße 7, 77933 Lahr",07821/919635,false,BW-83847,48.337739,7.849668,Scheffel-Gymnasium,83847,07821/919630,Gymnasium (G8),Gymnasium,BW
"Baumgartnerstraße 28, 79540 Lärrach",07621/3242,false,BW-83883,47.607871,7.664832,Hebel-Gymnasium,83883,07621/2830,Gymnasium (G8),Gymnasium,BW
"Baumgartnerstraße 26, 79540 Lärrach",07621/91404815,false,BW-83922,47.608158,7.663898,Hans-Thoma-Gymnasium Lärrach,83922,07621/9140480,Gymnasium (G8),Gymnasium,BW
"Bismarckstraße 10, 79379 Müllheim",07631/4270,false,BW-83958,47.811049,7.626395,Markgräfler Gymnasium,83958,07631/2322,Gymnasium (G8),Gymnasium,BW
"Butschbacherstraße 48, 77704 Oberkirch",07802/82-215,false,BW-83994,48.527722,8.071303,Hans-Furler-Gymnasium,83994,07802/82-211,Gymnasium (G8),Gymnasium,BW
"Eugen-Frueth-Straße 5, 78727 Oberndorf am Neckar",07423/8678-31,false,BW-84030,48.290921,8.573081,Gymnasium am Rosenberg,84030,07423/8678-10,Gymnasium (G8),Gymnasium,BW
"Gymnasiumstraße 9, 77652 Offenburg",0781/9706290,false,BW-84048,48.467302,7.944738,Grimmelshausen-Gymnasium,84048,0781/9706280,Gymnasium (G8),Gymnasium,BW
"Vogesenstraße 10, 77652 Offenburg",0781/9259-27,false,BW-84084,48.477669,7.940118,Oken-Gymnasium,84084,0781/9259-0,Gymnasium (G8),Gymnasium,BW
"Zeller Straße 33, 77654 Offenburg",0781/9377-28,false,BW-84120,48.473528,7.951569,Schiller-Gymnasium,84120,0781/9377-0,Gymnasium (G8),Gymnasium,BW
"Markelfinger Straße 15, 78315 Radolfzell am Bodensee",07732/9478-99,false,BW-84156,47.746426,8.979572,Friedrich-Hecker-Gymnasium,84156,07732/9478-0,Gymnasium (G8),Gymnasium,BW
"Gymnasiumstraße 10, 77866 Rheinau",07844/99268-18,false,BW-84159,48.654542,7.930429,Anne-Frank-Gymnasium Rheinau,84159,07844/99268-0,Gymnasium (G8),Gymnasium,BW
"Maurice-Sadorge-Straße 6, 79618 Rheinfelden (Baden)",07623/3386,false,BW-84195,47.561414,7.776979,Georg-Büchner-Gymnasium,84195,07623/8627,Gymnasium (G8),Gymnasium,BW
"Bismarckstraße 2, 78628 Rottweil",0741/23658,false,BW-84231,48.16148,8.625592,Albertus-Magnus-Gymnasium,84231,0741/13466,Gymnasium (G8),Gymnasium,BW
"Bismarckstraße 4, 78628 Rottweil",0741/15649,false,BW-84267,48.160717,8.625187,Droste-Hülshoff-Gymnasium,84267,0741/23990,Gymnasium (G8),Gymnasium,BW
"Heerstraße 140, 78628 Rottweil",0741/2007,false,BW-84303,48.161037,8.620908,Leibniz-Gymnasium,84303,0741/15116,Gymnasium (G8),Gymnasium,BW
"Untere Flüh 4, 79713 Bad Säckingen",07761/929832,false,BW-84357,47.555331,7.943676,Scheffel-Gymnasium,84357,07761/929830,Gymnasium (G8),Gymnasium,BW
"Im Hochwald 8, 78112 St. Georgen",07724/3318,false,BW-84393,48.128904,8.325525,Thomas-Strittmatter-Gymnasium,84393,07724/87140,Gymnasium (G8),Gymnasium,BW
"Talstraße 15, 79677 Schänau",07673/7865,false,BW-84432,47.786375,7.893816,Gymnasium,84432,07673/7190,Gymnasium (G8),Gymnasium,BW
"Schlierbachstraße 19, 79650 Schopfheim",07622/68441844,false,BW-84468,47.647243,7.829029,Theodor-Heuss-Gymnasium,84468,07622/684418-0,Gymnasium (G9),Gymnasium,BW
"Schlierbachstraße 19, 79650 Schopfheim",07622/68441844,false,BW-84468,47.647243,7.829029,Theodor-Heuss-Gymnasium,84468,07622/684418-0,Gymnasium (G8),Gymnasium,BW
"Berneckstraße 32, 78713 Schramberg",07422/29649,false,BW-84504,48.221127,8.385907,Gymnasium,84504,07422/29600,Gymnasium (G8),Gymnasium,BW
"Alemannenstraße 21, 78224 Singen (Hohentwiel)",07731/9597-27,false,BW-84540,47.764785,8.838166,Hegau-Gymnasium,84540,07731/9597-0,Gymnasium (G8),Gymnasium,BW
"Münchriedstraße 4, 78224 Singen (Hohentwiel)",07731/8732-20,false,BW-84576,47.753665,8.835902,Friedrich-Wähler-Gymnasium,84576,07731/87320,Gymnasium (G8),Gymnasium,BW
"Sallancher Straße 5, 78549 Spaichingen",07424/9589579,false,BW-84579,48.074427,8.73286,Gymnasium Spaichingen,84579,07424/958956,Gymnasium (G8),Gymnasium,BW
"Krichelnweg 1, 79219 Staufen im Breisgau",07633/95800-119,false,BW-84615,47.878011,7.727865,Faust-Gymnasium,84615,07633/95800-0,Gymnasium (G8),Gymnasium,BW
"Dillstraße 9-11, 78333 Stockach",07771/802-489,false,BW-84666,47.8513671,9.0153986,Nellenburg-Gymnasium,84666,07771/802-470,Gymnasium (G9),Gymnasium,BW
"Dillstraße 9-11, 78333 Stockach",07771/802-489,false,BW-84666,47.8513671,9.0153986,Nellenburg-Gymnasium,84666,07771/802-470,Gymnasium (G8),Gymnasium,BW
"Weilerstraße 79, 72172 Sulz am Neckar",07454/259725,false,BW-84669,48.356281,8.619521,Albeck-Gymnasium,84669,07454/9597-0,Gymnasium (G9),Gymnasium,BW
"Weilerstraße 79, 72172 Sulz am Neckar",07454/259725,false,BW-84669,48.356281,8.619521,Albeck-Gymnasium,84669,07454/9597-0,Gymnasium (G8),Gymnasium,BW
"Sudetenstraße 1, 79761 Waldshut-Tiengen",07751/833-533,false,BW-84705,47.630812,8.273876,Klettgau-Gymnasium Tiengen,84705,07751/833-531,Gymnasium (G8),Gymnasium,BW
"Wilhelm-Sutter-Straße 30, 79822 Titisee-Neustadt",07651/9335-29,false,BW-84741,47.919708,8.20683,Kreisgymnasium Hochschwarzwald,84741,07651/9335-0,Gymnasium (G8),Gymnasium,BW
"Bergstraße 11-13, 78098 Triberg im Schwarzwald",07722/21499,false,BW-84777,48.13083,8.23167,Schwarzwald-Gymnasium Triberg,84777,07722/21498,Gymnasium (G8),Gymnasium,BW
"Hangenstraße 52, 78647 Trossingen",07425/25350,false,BW-84813,48.079077,8.628694,Gymnasium,84813,07425/25340,Gymnasium (G8),Gymnasium,BW
"Mühlenweg 15, 78532 Tuttlingen",07461/7600190,false,BW-84852,47.987221,8.806281,Immanuel-Kant-Gymnasium,84852,07461/760010,Gymnasium (G8),Gymnasium,BW
"Mühlenweg 9, 78532 Tuttlingen",07461/943-190,false,BW-84888,47.986669,8.808472,Otto-Hahn-Gymnasium,84888,07461/943-0,Gymnasium (G8),Gymnasium,BW
"Staufenstraße 65, 78056 Villingen-Schwenningen",07721/821264,false,BW-84924,48.068163,8.542777,Gymnasium am Deutenberg Schwenningen,84924,07721/82-1272,Gymnasium (G8),Gymnasium,BW
"Romäusring 17, 78050 Villingen-Schwenningen",07721/82-1727,false,BW-84942,48.056175,8.458036,Gymnasium am Romäusring Villingen-Schwenningen,84942,07721/82-1712,Gymnasium (G8),Gymnasium,BW
"Stationenweg 2, 78048 Villingen-Schwenningen",07721/821707,false,BW-84978,48.057368,8.468367,Gymnasium am Hoptbühl,84978,07721/82-1690,Gymnasium (G8),Gymnasium,BW
"Beethovenstraße 9, 79183 Waldkirch",07681/23797,false,BW-85014,48.094309,7.953597,Geschwister-Scholl-Gymnasium,85014,07681/9278,Gymnasium (G8),Gymnasium,BW
"Waldtorstraße 8, 79761 Waldshut-Tiengen",07751/833-273,false,BW-85050,47.624797,8.213791,Hochrhein-Gymnasium Waldshut,85050,07751/833-271,Gymnasium (G8),Gymnasium,BW
"Kantstraße 2, 79576 Weil Am Rhein",07621/74078,false,BW-85086,47.595215,7.612486,Kant-Gymnasium,85086,07621/78006,Gymnasium (G8),Gymnasium,BW
"Gymnasiumstraße 15, 72458 Albstadt",07431/53029,false,BW-85089,48.224162,9.02995,Gymnasium Ebingen,85089,07431/53028,Gymnasium (G9),Gymnasium,BW
"Gymnasiumstraße 15, 72458 Albstadt",07431/53029,false,BW-85089,48.224162,9.02995,Gymnasium Ebingen,85089,07431/53028,Gymnasium (G8),Gymnasium,BW
"Ebersbacher Straße 18, 88361 Altshausen",07584/92078-19,false,BW-85125,47.936524,9.539859,Progymnasium,85125,07584/920780,Progymnasium,Pro-Gymnasium,BW
"Schussenrieder Straße 25, 88326 Aulendorf",07525/934504,false,BW-85161,47.957601,9.638814,Gymnasium Aulendorf,85161,07525/9238101,Gymnasium (G8),Gymnasium,BW
"Gymnasiumstraße 31, 72336 Balingen",07433/26025149,false,BW-85197,48.272178,8.86576,Gymnasium Balingen Schulzentrum Längenfeld,85197,07433/260250,Gymnasium (G8),Gymnasium,BW
"Breslaustraße 8, 88400 Biberach an der Riss",07351/51518,false,BW-85233,48.097519,9.794581,Pestalozzi-Gymnasium,85233,07351/51358,Gymnasium (G8),Gymnasium,BW
"Max-Eyth-Straße 30, 73431 Aalen",07361/937080,false,BW-85251,48.840618,10.100217,Hermann-Hesse-Schule Sonderpädagogisches Bildungs- und Beratungszentrum mit dem Färderschwerpunkt Lernen und Emotionale und soziale Entwicklung,85251,07361/93706,SBBZ Lernen,SBBZ Lernen,BW
"Max-Eyth-Straße 30, 73431 Aalen",07361/937080,false,BW-85251,48.840618,10.100217,Hermann-Hesse-Schule Sonderpädagogisches Bildungs- und Beratungszentrum mit dem Färderschwerpunkt Lernen und Emotionale und soziale Entwicklung,85251,07361/93706,SBBZ Emotionale und soziale Entwicklung,SBBZ Emotionale und soziale Entwicklung,BW
"Max-Eyth-Straße 30, 73431 Aalen",07361/937080,false,BW-85251,48.840618,10.100217,Hermann-Hesse-Schule Sonderpädagogisches Bildungs- und Beratungszentrum mit dem Färderschwerpunkt Lernen und Emotionale und soziale Entwicklung,85251,07361/93706,SBBZ Emotionale und soziale Entwicklung,SBBZ Emotionale und soziale Entwicklung,BW
"Bahnhofstraße 3, 71522 Backnang",07191/952267,false,BW-85323,48.944289,9.4299,Pestalozzi-Schule Sonderpädagogisches Bildungs- und Beratungszentrum mit dem Färderschwerpunkt Lernen,85323,07191/952260,SBBZ Lernen,SBBZ Lernen,BW
"Seestraße 22, 70794 Filderstadt",07158/981-1829,false,BW-85362,48.670989,9.229082,Pestalozzi-Schule Sonderpädagogisches Bildungs- und Beratungszentrum mit dem Färderschwerpunkt Lernen Sielmingen,85362,07158/981-180,SBBZ Lernen,SBBZ Lernen,BW
"Kirchstraße 79, 74354 Besigheim",07143/80300-44,false,BW-85398,48.998552,9.143664,Schule am Steinhaus Sonderpädagogisches Bildungs- und Beratungszentrum mit dem Färderschwerpunkt Lernen,85398,07143/80300-0,SBBZ Lernen,SBBZ Lernen,BW
"Friedrich-Fräbel-Straße 4, 71083 Herrenberg",07032/9470-30,false,BW-95694,48.59667,8.87083,Friedrich-Fräbel-Schule Sonderpädagogisches Bildungs- und Beratungszentrum mit dem Färderschwerpunkt Geistige Entwicklung,95694,07032/9470-0,SBBZ Geistige Entwicklung,SBBZ Geistige Entwicklung,BW
"Gustav-Rau-Straße 10, 75173 Pforzheim",07231/39-3061,false,BW-95748,48.888303,8.687438,Bohrainschule Sonderpädagogisches Bildungs- und Beratungszentrum mit dem Färderschwerpunkt Lernen,95748,07231/39-2259,SBBZ Lernen,SBBZ Lernen,BW
"Makartstraße 9-11, 75175 Pforzheim",07231/651416,false,BW-95784,48.886496,8.727887,Pestalozzischule Sonderpädagogisches Bildungs- und Beratungszentrum mit dem Färderschwerpunkt Lernen,95784,07231/963940,SBBZ Lernen,SBBZ Lernen,BW
"Tullastraße 57, 76131 Karlsruhe",0721/133-2511,false,BW-95820,49.009714,8.432369,Lidellschule Sonderpädagogisches Bildungs- und Beratungszentrum mit dem Färderschwerpunkt Lernen,95820,0721/133-4744,SBBZ Lernen,SBBZ Lernen,BW
"Hardtstraße 1, 76185 Karlsruhe",0721/1334381,false,BW-95856,49.010366,8.355332,Vogesenschule Sonderpädagogisches Bildungs- und Beratungszentrum mit dem Färderschwerpunkt Lernen,95856,0721/1334689,SBBZ Lernen,SBBZ Lernen,BW
"Charlottenstraße 91, 74348 Lauffen am Neckar",07133/9803-25,false,BW-95895,49.069818,9.137009,Kaywaldschule Sonderpädagogisches Bildungs- und Beratungszentrum mit den Färderschwerpunkten Geistige Entwicklung und Kärperliche und motorische Entwicklung des Landkreises Heilbronn,95895,07133/9803-0,SBBZ Geistige Entwicklung,SBBZ Geistige Entwicklung,BW
"An der Breite 7, 72379 Hechingen",07471/6201016,false,BW-97881,48.357437,8.959975,Weiherschule Sonderpädagogisches Bildungs- und Beratungszentrum mit dem Färderschwerpunkt Geistige Entwicklung,97881,07471/3160,SBBZ Geistige Entwicklung,SBBZ Geistige Entwicklung,BW
"An der Breite 7, 72379 Hechingen",07471/6201016,false,BW-97881,48.357437,8.959975,Weiherschule Sonderpädagogisches Bildungs- und Beratungszentrum mit dem Färderschwerpunkt Geistige Entwicklung,97881,07471/3160,SBBZ Geistige Entwicklung,SBBZ Geistige Entwicklung,BW
"Gebrazhofer Straße 29, 88353 Kisslegg",07563/91399-18,false,BW-97917,47.785893,9.893613,Albert-Schweitzer-Schule Sonderpädagogisches Bildungs- und Beratungszentrum mit dem Färderschwerpunkt Geistige Entwicklung,97917,07563/91399-0,SBBZ Geistige Entwicklung,SBBZ Geistige Entwicklung,BW
"Gebrazhofer Straße 29, 88353 Kisslegg",07563/91399-18,false,BW-97917,47.785893,9.893613,Albert-Schweitzer-Schule Sonderpädagogisches Bildungs- und Beratungszentrum mit dem Färderschwerpunkt Geistige Entwicklung,97917,07563/91399-0,SBBZ Geistige Entwicklung,SBBZ Geistige Entwicklung,BW
"St.-Martinus-Straße 70, 88212 Ravensburg",0751/363615-18,false,BW-97953,47.793301,9.631091,Martinusschule Sonderpädagogisches Bildungs- und Beratungszentrum mit dem Färderschwerpunkt Geistige Entwicklung Ravensburg,97953,0751/363615-0,SBBZ Geistige Entwicklung,SBBZ Geistige Entwicklung,BW
"St.-Martinus-Straße 70, 88212 Ravensburg",0751/363615-18,false,BW-97953,47.793301,9.631091,Martinusschule Sonderpädagogisches Bildungs- und Beratungszentrum mit dem Färderschwerpunkt Geistige Entwicklung Ravensburg,97953,0751/363615-0,SBBZ Geistige Entwicklung,SBBZ Geistige Entwicklung,BW
"Hindenburgstraße 27, 88348 Bad Saulgau",07581/2007899,false,BW-97992,48.015407,9.506064,Aicher-Scholl-Sonderpädagogisches Bildungs- und Beratungszentrum mit dem Färderschwerpunkt Geistige Entwicklung Renhardsweiler,97992,07581/2007781,SBBZ Geistige Entwicklung,SBBZ Geistige Entwicklung,BW
"Hindenburgstraße 27, 88348 Bad Saulgau",07581/2007899,false,BW-97992,48.015407,9.506064,Aicher-Scholl-Sonderpädagogisches Bildungs- und Beratungszentrum mit dem Färderschwerpunkt Geistige Entwicklung Renhardsweiler,97992,07581/2007781,SBBZ Geistige Entwicklung,SBBZ Geistige Entwicklung,BW
"Sonnenstraße 58, 72760 Reutlingen",07121/3034523,false,BW-98028,48.504981,9.200955,Peter-Rosegger-Schule Sonderpädagogisches Bildungs- und Beratungszentrum mit dem Färderschwerpunkt Geistige Entwicklung,98028,07121/3034521,SBBZ Geistige Entwicklung,SBBZ Geistige Entwicklung,BW
"Sonnenstraße 58, 72760 Reutlingen",07121/3034523,false,BW-98028,48.504981,9.200955,Peter-Rosegger-Schule Sonderpädagogisches Bildungs- und Beratungszentrum mit dem Färderschwerpunkt Geistige Entwicklung,98028,07121/3034521,SBBZ Geistige Entwicklung,SBBZ Geistige Entwicklung,BW
"Leipziger Straße 3, 72108 Rottenburg am Neckar",07472/9499033,false,BW-98064,48.479736,8.931593,Lindenschule Sonderpädagogisches Bildungs- und Beratungszentrum mit dem Färderschwerpunkt Geistige Entwicklung,98064,07472/949900,SBBZ Geistige Entwicklung,SBBZ Geistige Entwicklung,BW
"Leipziger Straße 3, 72108 Rottenburg am Neckar",07472/9499033,false,BW-98064,48.479736,8.931593,Lindenschule Sonderpädagogisches Bildungs- und Beratungszentrum mit dem Färderschwerpunkt Geistige Entwicklung,98064,07472/949900,SBBZ Geistige Entwicklung,SBBZ Geistige Entwicklung,BW
"Laurentiusstraße 4, 88682 Salem",07553/827443,false,BW-98100,47.743804,9.303673,Sonnenbergschule Sonderpädagogisches Bildungs- und Beratungszentrum mit dem Färderschwerpunkt Geistige Entwicklung Buggensegel,98100,07553/82743,SBBZ Geistige Entwicklung,SBBZ Geistige Entwicklung,BW
"Hohenzollernstraße 37, 72488 Sigmaringen",07571/681198,false,BW-98136,48.094881,9.221831,Fidelis-Schule Sonderpädagogisches Bildungs- und Beratungszentrum mit dem Färderschwerpunkt Geistige Entwicklung,98136,07571/681117,SBBZ Geistige Entwicklung,SBBZ Geistige Entwicklung,BW
"Hohenzollernstraße 37, 72488 Sigmaringen",07571/681198,false,BW-98136,48.094881,9.221831,Fidelis-Schule Sonderpädagogisches Bildungs- und Beratungszentrum mit dem Färderschwerpunkt Geistige Entwicklung,98136,07571/681117,SBBZ Geistige Entwicklung,SBBZ Geistige Entwicklung,BW
"Pestalozzistraße 34, 71384 Weinstadt",07151/967402,false,BW-85434,48.807644,9.371314,Vollmarschule Sonderpädagogisches Bildungs- und Beratungszentrum mit dem Färderschwerpunkt Lernen Endersbach,85434,07151/967400,SBBZ Lernen,SBBZ Lernen,BW
"Weimarer Weg 33, 74321 Bietigheim-Bissingen",07142/912851,false,BW-85470,48.942509,9.145076,Sonderpädagogisches Bildungs- und Beratungszentrum mit dem Färderschwerpunkt Lernen Bietigheim-Bissingen,85470,07142/912870,SBBZ Lernen,SBBZ Lernen,BW
"Schulstraße 30, 74572 Blaufelden",07953/9850-24,false,BW-85506,49.300221,9.971274,Erich-Kästner-Schule Sonderpädagogisches Bildungs- und Beratungszentrum mit dem Färderschwerpunkt Lernen Blaufelden,85506,07953/9850-21,SBBZ Lernen,SBBZ Lernen,BW
"Pestalozzistraße 7, 71032 Bäblingen",07031/669-4580,false,BW-85509,48.683895,9.015064,Pestalozzi-Schule Sonderpädagogisches Bildungs- und Beratungszentrum mit dem Färderschwerpunkt Lernen,85509,07031/669-4583,SBBZ Lernen,SBBZ Lernen,BW
"Schulweg 2, 73087 Bad Boll",07164/9121722,false,BW-85596,48.640236,9.607746,Blumhardtschule Sonderpädagogisches Bildungs- und Beratungszentrum mit dem Färderschwerpunkt Lernen,85596,07164/9121715,SBBZ Lernen,SBBZ Lernen,BW
"Hauffstraße 54, 73441 Bopfingen",07362/919986,false,BW-85599,48.850319,10.357265,Stauferschule Sonderpädagogisches Bildungs- und Beratungszentrum mit dem Färderschwerpunkt Lernen,85599,07362/4811,SBBZ Lernen,SBBZ Lernen,BW
"Am Schulzentrum 8, 74336 Brackenheim",07135/9829-31,false,BW-85635,49.076843,9.062023,Henry-Miller-Schule Sonderpädagogisches Bildungs- und Beratungszentrum mit dem Färderschwerpunkt Lernen Brackenheim,85635,07135/9829-30,SBBZ Lernen,SBBZ Lernen,BW
"Salzburger Straße 32, 74564 Crailsheim",07951/9364-18,false,BW-85671,49.139104,10.056814,Käthe-Kollwitz-Schule Sonderpädagogisches Bildungs- und Beratungszentrum mit dem Färderschwerpunkt Lernen,85671,07951/9364-0,SBBZ Lernen,SBBZ Lernen,BW
"Bernhardusstraße 15, 73326 Deggingen",07334/78322,false,BW-85743,48.596291,9.72422,Berneck-Schule Sonderpädagogisches Bildungs- und Beratungszentrum mit dem Färderschwerpunkt Lernen Deggingen,85743,07334/78320,SBBZ Lernen,SBBZ Lernen,BW
"Gerlinger Straße 5, 71254 Ditzingen",07156/4361455,false,BW-85782,48.826215,9.068527,Wilhelmschule Sonderpädagogisches Bildungs- und Beratungszentrum mit dem Färderschwerpunkt Lernen,85782,07156/436140,SBBZ Lernen,SBBZ Lernen,BW
"Zeppelinstraße 3, 73061 Ebersbach an der Fils",07163/9419-31,false,BW-85818,48.718897,9.529091,Hardtschule Sonderpädagogisches Bildungs- und Beratungszentrum mit dem Färderschwerpunkt Lernen,85818,07163/9419-30,SBBZ Lernen,SBBZ Lernen,BW
"Ebertstraße 31, 73054 Eislingen",07161/98463-19,false,BW-85872,48.700856,9.70614,Pestalozzi-Schule Sonderpädagogisches Bildungs- und Beratungszentrum mit dem Färderschwerpunkt Lernen,85872,07161/98463-0,SBBZ Lernen,SBBZ Lernen,BW
"Schäner Graben 13, 73479 Ellwangen (Jagst)",07961/84844,false,BW-85944,48.96111,10.13056,Schäner-Graben-Schule Sonderpädagogisches Bildungs- und Beratungszentrum mit dem Färderschwerpunkt Lernen,85944,07961/84840,SBBZ Lernen,SBBZ Lernen,BW
"Schulstraße 3, 75031 Eppingen",07260/912222,false,BW-85980,49.179461,8.836171,Kraichgauschule Sonderpädagogisches Bildungs- und Beratungszentrum mit dem Färderschwerpunkt Lernen,85980,07260/9122-0,SBBZ Lernen,SBBZ Lernen,BW
"Traifelbergstraße 2, 73734 Esslingen am Neckar",0711/919935-99,false,BW-86016,48.725161,9.307669,Rohräckerschule Sonderpädagogisches Bildungs- und Beratungszentrum mit dem Färderschwerpunkt Lernen Zollberg,86016,0711/919935-0,SBBZ Lernen,SBBZ Lernen,BW
"Schillerstraße 8, 70734 Fellbach",0711/5851-348,false,BW-86019,48.807381,9.274426,Wichernschule Sonderpädagogisches Bildungs- und Beratungszentrum mit dem Färderschwerpunkt Lernen,86019,0711/5851-347,SBBZ Lernen,SBBZ Lernen,BW
"Christoph-von-Pfeil-Weg 3, 74579 Fichtenau",07962/902541,false,BW-86055,49.053633,10.231028,Oberlinschule Sonderpädagogisches Bildungs- und Beratungszentrum mit dem Färderschwerpunkt Lernen und Emotionale und soziale Entwicklung Unterdeufstetten,86055,07962/902531,SBBZ Lernen,SBBZ Lernen,BW
"Christoph-von-Pfeil-Weg 3, 74579 Fichtenau",07962/902541,false,BW-86055,49.053633,10.231028,Oberlinschule Sonderpädagogisches Bildungs- und Beratungszentrum mit dem Färderschwerpunkt Lernen und Emotionale und soziale Entwicklung Unterdeufstetten,86055,07962/902531,SBBZ Emotionale und soziale Entwicklung,SBBZ Emotionale und soziale Entwicklung,BW
"Christoph-von-Pfeil-Weg 3, 74579 Fichtenau",07962/902541,false,BW-86055,49.053633,10.231028,Oberlinschule Sonderpädagogisches Bildungs- und Beratungszentrum mit dem Färderschwerpunkt Lernen und Emotionale und soziale Entwicklung Unterdeufstetten,86055,07962/902531,SBBZ Emotionale und soziale Entwicklung,SBBZ Emotionale und soziale Entwicklung,BW
"Christoph-von-Pfeil-Weg 3, 74579 Fichtenau",07962/902541,false,BW-86055,49.053633,10.231028,Oberlinschule Sonderpädagogisches Bildungs- und Beratungszentrum mit dem Färderschwerpunkt Lernen und Emotionale und soziale Entwicklung Unterdeufstetten,86055,07962/902531,SBBZ Emotionale und soziale Entwicklung,SBBZ Emotionale und soziale Entwicklung,BW
"Hohbühl 2, 74405 Gaildorf",07971/23280,false,BW-86127,49.017536,9.770232,Peter-Härtling-Schule Sonderpädagogisches Bildungs- und Beratungszentrum mit dem Färderschwerpunkt Lernen Gaildorf,86127,07971/3990,SBBZ Lernen,SBBZ Lernen,BW
"Heidenheimer Straße 3, 73312 Geislingen an der Steige",07331/941656,false,BW-86145,48.62175,9.841727,Pestalozzi-Schule Sonderpädagogisches Bildungs- und Beratungszentrum mit dem Färderschwerpunkt Lernen,86145,07331/941655,SBBZ Lernen,SBBZ Lernen,BW
"Eberhardstraße 1, 89537 Giengen an der Brenz",07322/1349722,false,BW-86253,48.623243,10.245642,Jakob-Herbrandt-Schule Sonderpädagogisches Bildungs- und Beratungszentrum mit dem Färderschwerpunkt Lernen,86253,07322/134990,SBBZ Lernen,SBBZ Lernen,BW
"Eberhardstraße 33, 73033 Gäppingen",07161/91433-23,false,BW-86328,48.708379,9.645168,Pestalozzi-Schule Sonderpädagogisches Bildungs- und Beratungszentrum mit dem Färderschwerpunkt Lernen,86328,07161/91433-0,SBBZ Lernen,SBBZ Lernen,BW
"Lindenstraße 11, 71723 Grossbottwar",07148/16193399,false,BW-86364,49.000338,9.288463,Schule an der Linde Sonderpädagogisches Bildungs- und Beratungszentrum mit dem Färderschwerpunkt Lernen Großbottwar,86364,07148/16193300,SBBZ Lernen,SBBZ Lernen,BW
"Heckentalstraße 25, 89518 Heidenheim an der Brenz",07321/3275521,false,BW-86442,48.682889,10.138229,Christophorus-Schule Sonderpädagogisches Bildungs- und Beratungszentrum mit dem Färderschwerpunkt Lernen Heidenheim,86442,07321/3275522,SBBZ Lernen,SBBZ Lernen,BW
"Geschwister-Scholl-Straße 8, 74072 Heilbronn",07131/563429,false,BW-86514,49.144996,9.224893,Pestalozzi-Schule Sonderpädagogisches Bildungs- und Beratungszentrum mit dem Färderschwerpunkt Lernen Heilbronn,86514,07131/56-2434,SBBZ Lernen,SBBZ Lernen,BW
"Grünewaldstraße 14, 74080 Heilbronn",07131/6400629,false,BW-86550,49.142716,9.191883,Neckartalschule Sonderpädagogisches Bildungs- und Beratungszentrum mit dem Färderschwerpunkt Lernen Bäckingen,86550,07131/64006-0,SBBZ Lernen,SBBZ Lernen,BW
"Rottsteige 10, 89542 Herbrechtingen",07324/955-1482,false,BW-86625,48.630813,10.146031,Buchfeldschule Sonderpädagogisches Bildungs- und Beratungszentrum mit dem Färderschwerpunkt Lernen Herbrechtingen,86625,07324/9551481,SBBZ Lernen,SBBZ Lernen,BW
"Bismarckstraße 7, 71083 Herrenberg",07032/5206,false,BW-86661,48.593945,8.867844,Albert-Schweitzer-Schule Sonderpädagogisches Bildungs- und Beratungszentrum mit dem Färderschwerpunkt Lernen,86661,07032/5205,SBBZ Lernen,SBBZ Lernen,BW
"Im Stollberg 79, 73540 Heubach",07173/913055,false,BW-86697,48.793154,9.92615,Märikeschule Sonderpädagogisches Bildungs- und Beratungszentrum mit dem Färderschwerpunkt Lernen Heubach,86697,07173/913053,SBBZ Lernen,SBBZ Lernen,BW
"Berkenstraße 14, 71088 Holzgerlingen",07031/465948,false,BW-86733,48.641754,9.013651,Heinrich-Harpprecht-Schule Sonderpädagogisches Bildungs- und Beratungszentrum mit dem Färderschwerpunkt Lernen,86733,07031/68599-30,SBBZ Lernen,SBBZ Lernen,BW
"Bollwerkstraße 9, 74360 Ilsfeld",07062/905668,false,BW-86751,49.057305,9.248516,Sonderpädagogisches Bildungs- und Beratungszentrum mit dem Färderschwerpunkt Lernen Ilsfeld,86751,07062/905661,SBBZ Lernen,SBBZ Lernen,BW
"Gartenstraße 25, 74532 Ilshofen",07904/971290,false,BW-86787,49.167715,9.916231,Maria-Montessori-Schule Sonderpädagogisches Bildungs- und Beratungszentrum mit dem Färderschwerpunkt Lernen,86787,07904/971230,SBBZ Lernen,SBBZ Lernen,BW
"Schläzerstraße 1, 74592 Kirchberg an der Jagst",07954/925916,false,BW-86823,49.20389,9.98139,Johannes-Gutenberg-Schule Sonderpädagogisches Bildungs- und Beratungszentrum mit dem Färderschwerpunkt Lernen Rot am See,86823,07954/586,SBBZ Lernen,SBBZ Lernen,BW
"Bismarckstraße 39, 73230 Kirchheim unter Teck",07021/92005-22,false,BW-86862,48.644104,9.456376,Konrad-Widerholt-Schule Sonderpädagogisches Bildungs- und Beratungszentrum mit dem Färderschwerpunkt Lernen,86862,07021/92005-0,SBBZ Lernen,SBBZ Lernen,BW
"Feuerseeweg 1-3, 70825 Korntal-Münchingen",0711/8350078,false,BW-86898,48.83056,9.12139,Strohgäuschule Sonderpädagogisches Bildungs- und Beratungszentrum mit dem Färderschwerpunkt Lernen Korntal,86898,0711/8350088,SBBZ Lernen,SBBZ Lernen,BW
"Bolzstraße 96, 70806 Kornwestheim",07154/2026129,false,BW-86934,48.857111,9.174815,Eugen-Bolz-Schule Sonderpädagogisches Bildungs- und Beratungszentrum mit dem Färderschwerpunkt Lernen,86934,07154/2026123,SBBZ Lernen,SBBZ Lernen,BW
"Wolfgangstraße 50, 74238 Krautheim",06294/429938,false,BW-86970,49.382649,9.631288,Sonderpädagogisches Bildungs- und Beratungszentrum mit dem Färderschwerpunkt Lernen Bildungszentrum Hohenlohe-Franken,86970,06294/95370,SBBZ Lernen,SBBZ Lernen,BW
"Schulstraße 13, 74653 Künzelsau",07940/985916,false,BW-87006,49.281297,9.684692,Brüder-Grimm-Schule Sonderpädagogisches Bildungs- und Beratungszentrum mit dem Färderschwerpunkt Lernen Künzelsau,87006,07940/985915,SBBZ Lernen,SBBZ Lernen,BW
"Becksteiner Straße 64, 97922 Lauda-Känigshofen",09343/5012301,false,BW-87009,49.562046,9.703318,Florian-Geyer-Schule Sonderpädagogisches Bildungs- und Beratungszentrum mit dem Färderschwerpunkt Lernen Lauda,87009,09343/5012300,SBBZ Lernen,SBBZ Lernen,BW
"Herdegenstraße 17, 74348 Lauffen am Neckar",07133/965290,false,BW-87060,49.072093,9.14215,Erich Kästner Schule Sonderpädagogisches Bildungs- und Beratungszentrum mit dem Färderschwerpunkt Lernen,87060,07133/7207,SBBZ Lernen,SBBZ Lernen,BW
"Jahnstraße 60, 70771 Leinfelden-Echterdingen",0711/1600-519,false,BW-87096,48.666287,9.16998,Lindach-Sonderpädagogisches Bildungs- und Beratungszentrum mit dem Färderschwerpunkt Lernen Leinfelden-Echterdingen,87096,0711/79415628,SBBZ Lernen,SBBZ Lernen,BW
"Bahnhofstraße 69, 71229 Leonberg",07152/92864-90,false,BW-87135,48.800252,9.007253,Pestalozzi-Schule Sonderpädagogisches Bildungs- und Beratungszentrum mit dem Färderschwerpunkt Lernen,87135,07152/928640,SBBZ Lernen,SBBZ Lernen,BW
"Schulstraße 16, 73547 Lorch",07172/919461,false,BW-87171,48.798036,9.686947,Märikeschule Sonderpädagogisches Bildungs- und Beratungszentrum mit dem Färderschwerpunkt Lernen,87171,07172/8258,SBBZ Lernen,SBBZ Lernen,BW
"Tammer Straße 28, 71634 Ludwigsburg",07141/910-3334,false,BW-87243,48.909729,9.166456,Eberhard-Ludwig-Schule Sonderpädagogisches Bildungs- und Beratungszentrum mit dem Färderschwerpunkt Lernen Eglosheim,87243,07141/910-2475,SBBZ Lernen,SBBZ Lernen,BW
"Känig-Wilhelm-Platz 9, 71672 Marbach am Neckar",07144/8457-18,false,BW-87282,48.94056,9.2575,Uhlandschule Sonderpädagogisches Bildungs- und Beratungszentrum mit dem Färderschwerpunkt Lernen Marbach am Neckar,87282,07144/8457-0,SBBZ Lernen,SBBZ Lernen,BW
"Maurus-Weber-Straße 46, 97980 Bad Mergentheim",07931/574014,false,BW-87372,49.485769,9.781228,Lorenz-Fries-Schule Sonderpädagogisches Bildungs- und Beratungszentrum mit dem Färderschwerpunkt Lernen,87372,07931/574060,SBBZ Lernen,SBBZ Lernen,BW
"Hanfbachstraße 30, 71696 Mäglingen",07141/244523,false,BW-87408,48.886511,9.133433,Furtbachschule Sonderpädagogisches Bildungs- und Beratungszentrum mit dem Färderschwerpunkt Lernen,87408,07141/244520,SBBZ Lernen,SBBZ Lernen,BW
"Nägelestraße 17, 71540 Murrhardt",07192/901016,false,BW-87444,48.979939,9.576038,Herzog-Christoph-Schule Sonderpädagogisches Bildungs- und Beratungszentrum mit dem Färderschwerpunkt Lernen,87444,07192/9235-17,SBBZ Lernen,SBBZ Lernen,BW
"Frankenweg 1, 74172 Neckarsulm",07132/3499218,false,BW-87480,49.211448,9.248153,Pestalozzi-Schule Sonderpädagogisches Bildungs- und Beratungszentrum mit dem Färderschwerpunkt Lernen,87480,07132/349920,SBBZ Lernen,SBBZ Lernen,BW
"Lindenstraße 78, 73760 Ostfildern",0711/3482797,false,BW-87519,48.727783,9.271818,Lindenschule Sonderpädagogisches Bildungs- und Beratungszentrum mit dem Färderschwerpunkt Lernen Nellingen Parksiedlung,87519,0711/343121,SBBZ Lernen,SBBZ Lernen,BW
"…hringer Straße 12, 74196 Neuenstadt am Kocher",07139/454348,false,BW-87555,49.23333,9.33333,Lindenschule Sonderpädagogisches Bildungs- und Beratungszentrum mit dem Färderschwerpunkt Lernen,87555,07139/454346,SBBZ Lernen,SBBZ Lernen,BW
"Mühlstraße 25, 72622 Nürtingen",07022/35703,false,BW-87681,48.631063,9.333575,Theodor-Eisenlohr-Schule Sonderpädagogisches Bildungs- und Beratungszentrum mit dem Färderschwerpunkt Lernen Nürtingen,87681,07022/37388,SBBZ Lernen,SBBZ Lernen,BW
"Hohe Steige 10, 73252 Lenningen",07026/9101135,false,BW-87717,48.552193,9.47498,Karl-Erhard-Scheufelen-Schule Sonderpädagogisches Bildungs- und Beratungszentrum mit dem Färderschwerpunkt Lernen,87717,07026/9101130,SBBZ Lernen,SBBZ Lernen,BW
"Heilbronner Straße 66, 74182 Obersulm",07130/400516,false,BW-87753,49.118604,9.400534,Käthe-Kollwitz-Schule Obersulm Sonderpädagogisches Bildungs- und Beratungszentrum mit dem Färderschwerpunkt Lernen,87753,07130/40050,SBBZ Lernen,SBBZ Lernen,BW
"Büttelbronner Straße 21, 74613 …hringen",07941/647920,false,BW-87792,49.202316,9.497238,Albert-Schweitzer-Schule Sonderpädagogisches Bildungs- und Beratungszentrum mit dem Färderschwerpunkt Lernen,87792,07941/64790,SBBZ Lernen,SBBZ Lernen,BW
"Carl-Orff-Weg 7, 73207 Plochingen",07153/896275,false,BW-87828,48.710839,9.431137,Marquardt-Schule Sonderpädagogisches Bildungs- und Beratungszentrum mit dem Färderschwerpunkt Lernen,87828,07153/75511,SBBZ Lernen,SBBZ Lernen,BW
"Kantstraße 26, 73655 Plüderhausen",07181/9995556,false,BW-87864,48.790654,9.608885,Hohbergschule Sonderpädagogisches Bildungs- und Beratungszentrum mit dem Färderschwerpunkt Lernen,87864,07181/99955511,SBBZ Lernen,SBBZ Lernen,BW
"Wagnerstraße 7, 74906 Bad Rappenau",07264/6600,false,BW-87900,49.242956,9.106532,Albert-Schweitzer-Schule Sonderpädagogisches Bildungs- und Beratungszentrum mit dem Färderschwerpunkt Lernen Bad Rappenau,87900,07264/6651,SBBZ Lernen,SBBZ Lernen,BW
"Schulstraße 49, 73635 Rudersberg",07183/93631-29,false,BW-87990,48.888858,9.533858,Sonderpädagogisches Bildungs- und Beratungszentrum mit dem Färderschwerpunkt Lernen Schulzentrum Rudersberg,87990,07183/93631-75,SBBZ Lernen,SBBZ Lernen,BW
"Robert-Bosch-Straße 37, 71277 Rutesheim",07152/995756,false,BW-88026,48.804117,8.946819,Astrid-Lindgren-Schule Sonderpädagogisches Bildungs- und Beratungszentrum mit dem Färderschwerpunkt Lernen,88026,07152/995740,SBBZ Lernen,SBBZ Lernen,BW
"Oberriexinger Straße 33, 74343 Sachsenheim",07147/9604-310,false,BW-88029,48.957598,9.063596,Kraichertschule Sonderpädagogisches Bildungs- und Beratungszentrum mit dem Färderschwerpunkt Lernen,88029,07147/9604-300,SBBZ Lernen,SBBZ Lernen,BW
"Burgstraße 67, 73614 Schorndorf",07181/6029819,false,BW-88137,48.802642,9.523902,Albert-Schweitzer-Schule Sonderpädagogisches Bildungs- und Beratungszentrum mit dem Färderschwerpunkt Lernen,88137,07181/602-9802,SBBZ Lernen,SBBZ Lernen,BW
"Theodor-Heuss-Straße 9, 73527 Schwäbisch Gmünd",07171/928370,false,BW-88173,48.816682,9.848705,Pestalozzischule Sonderpädagogisches Bildungs- und Beratungszentrum mit dem Färderschwerpunkt Lernen Schwäbisch Gmünd,88173,07171/30063,SBBZ Lernen,SBBZ Lernen,BW
"Langer Graben 10/1, 74523 Schwäbisch Hall",0791/9707440,false,BW-88212,49.115319,9.737816,Friedensbergschule Sonderpädagogisches Bildungs- und Beratungszentrum mit dem Färderschwerpunkt Lernen,88212,0791/9707431,SBBZ Lernen,SBBZ Lernen,BW
"Weststraße 4-6, 74193 Schwaigern",07138/9747-22,false,BW-88263,49.146083,9.049367,Sonnenbergschule Sonderpädagogisches Bildungs- und Beratungszentrum mit dem Färderschwerpunkt Lernen,88263,07138/9747-20,SBBZ Lernen,SBBZ Lernen,BW
"Klosterstraße 8, 71063 Sindelfingen",07031/807392,false,BW-88302,48.712564,9.00106,Martinsschule Sonderpädagogisches Bildungs- und Beratungszentrum mit dem Färderschwerpunkt Lernen,88302,07031/807390,SBBZ Lernen,SBBZ Lernen,BW
"Rämerstraße 91, 70180 Stuttgart",0711/216-96944,false,BW-88338,48.77611,9.1775,Lehenschule Sonderpädagogisches Bildungs- und Beratungszentrum mit dem Färderschwerpunkt Lernen,88338,0711/216-96940,SBBZ Lernen,SBBZ Lernen,BW
"Auf der Altenburg 8, 70376 Stuttgart",0711/216-62861,false,BW-88374,48.811132,9.209097,Steigschule Sonderpädagogisches Bildungs- und Beratungszentrum mit dem Färderschwerpunkt Lernen Bad Cannstatt,88374,0711/21662860,SBBZ Lernen,SBBZ Lernen,BW
"Schwarenbergstraße 34, 70190 Stuttgart",0711/21633371,false,BW-88410,48.788521,9.201945,Berger-Schule Sonderpädagogisches Bildungs- und Beratungszentrum mit dem Färderschwerpunkt Lernen,88410,0711/21633370,SBBZ Lernen,SBBZ Lernen,BW
"Sartoriusstraße 1-3, 70469 Stuttgart",0711/812006,false,BW-88446,48.806829,9.15723,Fährichschule Sonderpädagogisches Bildungs- und Beratungszentrum mit dem Färderschwerpunkt Lernen Feuerbach,88446,0711/853144,SBBZ Lernen,SBBZ Lernen,BW
"Adalbert-Stifter-Straße 30, 70437 Stuttgart",0711/21689564,false,BW-88449,48.839604,9.212586,Kreuzstein-Schule Sonderpädagogisches Bildungs- und Beratungszentrum mit dem Färderschwerpunkt Lernen Freiberg,88449,0711/21689688,SBBZ Lernen,SBBZ Lernen,BW
"Dornräschenweg 30, 70567 Stuttgart",0711/21660390,false,BW-88485,48.77611,9.1775,Heilbrunnen-Schule Sonderpädagogisches Bildungs- und Beratungszentrum mit dem Färderschwerpunkt Lernen Mähringen,88485,0711/216-60333,SBBZ Lernen,SBBZ Lernen,BW
"Augsburger Straße 541-543, 70327 Stuttgart",0711/3041967,false,BW-88521,48.758957,9.272019,Au-Schule Sonderpädagogisches Bildungs- und Beratungszentrum mit dem Färderschwerpunkt Lernen Untertürkheim,88521,0711/332288,SBBZ Lernen,SBBZ Lernen,BW
"Krehlstraße 90, 70565 Stuttgart",0711/7477739,false,BW-88539,48.720915,9.101719,Verbundschule Stuttgart-Rohr Sonderpädagogisches Bildungs- und Beratungszentrum mit dem Färderschwerpunkt Lernen und Emotionale und soziale Entwicklung,88539,0711/742434,SBBZ Lernen,SBBZ Lernen,BW
"Krehlstraße 90, 70565 Stuttgart",0711/7477739,false,BW-88539,48.720915,9.101719,Verbundschule Stuttgart-Rohr Sonderpädagogisches Bildungs- und Beratungszentrum mit dem Färderschwerpunkt Lernen und Emotionale und soziale Entwicklung,88539,0711/742434,SBBZ Emotionale und soziale Entwicklung,SBBZ Emotionale und soziale Entwicklung,BW
"Krehlstraße 90, 70565 Stuttgart",0711/7477739,false,BW-88539,48.720915,9.101719,Verbundschule Stuttgart-Rohr Sonderpädagogisches Bildungs- und Beratungszentrum mit dem Färderschwerpunkt Lernen und Emotionale und soziale Entwicklung,88539,0711/742434,SBBZ Emotionale und soziale Entwicklung,SBBZ Emotionale und soziale Entwicklung,BW
"Glemsgaustraße 6, 70499 Stuttgart",0711/881113,false,BW-88575,48.814726,9.111865,Seelach-Schule Sonderpädagogisches Bildungs- und Beratungszentrum mit dem Färderschwerpunkt Lernen Weilimdorf,88575,0711/8874391,SBBZ Lernen,SBBZ Lernen,BW
"Bebelstraße 28, 70193 Stuttgart",0711/21696704,false,BW-88611,48.775093,9.153692,Hasenberg-Schule Sonderpädagogisches Bildungs- und Beratungszentrum mit dem Färderschwerpunkt Lernen,88611,0711/216-96701,SBBZ Lernen,SBBZ Lernen,BW
"Schwabbacher Straße 25e, 70437 Stuttgart",0711/216-60360,false,BW-88647,48.831449,9.181421,Haldenrainschule Sonderpädagogisches Bildungs- und Beratungszentrum mit dem Färderschwerpunkt Lernen Zuffenhausen,88647,0711/216-60350,SBBZ Lernen,SBBZ Lernen,BW
"Jahnstraße 17, 71560 Sulzbach an der Murr",07193/950674,false,BW-88683,49.002893,9.496501,Sonderpädagogisches Bildungs- und Beratungszentrum mit dem Färderschwerpunkt Lernen im Schulzentrum,88683,07193/950670,SBBZ Lernen,SBBZ Lernen,BW
"Johannes-Kepler-Straße 3, 97941 Tauberbischofsheim",09341/600952,false,BW-88722,49.621013,9.67419,Christophorus-Schule Sonderpädagogisches Bildungs- und Beratungszentrum mit dem Färderschwerpunkt Lernen,88722,09341/4747,SBBZ Lernen,SBBZ Lernen,BW
"Schulstraße 4, 73066 Uhingen",07161/93870-20,false,BW-88758,48.70594,9.590878,Filseckschule Sonderpädagogisches Bildungs- und Beratungszentrum mit dem Färderschwerpunkt Lernen,88758,07161/93870-19,SBBZ Lernen,SBBZ Lernen,BW
"Friedrichstraße 7, 71665 Vaihingen an der Enz",07042/970195,false,BW-88794,48.93432,8.958105,Wilhelm-Feil-Schule Sonderpädagogisches Bildungs- und Beratungszentrum mit dem Färderschwerpunkt Lernen Vaihingen/Enz,88794,07042/970190,SBBZ Lernen,SBBZ Lernen,BW
"Christofstraße 21, 71332 Waiblingen",07151/50001115,false,BW-88830,48.832265,9.308959,Comeniusschule Sonderpädagogisches Bildungs- und Beratungszentrum mit dem Färderschwerpunkt Lernen,88830,07151/50001111,SBBZ Lernen,SBBZ Lernen,BW
"Pestalozzistraße 13, 73433 Aalen",07361/9760-16,false,BW-88848,48.866707,10.1038,Weitbrecht-Schule Sonderpädagogisches Bildungs- und Beratungszentrum mit dem Färderschwerpunkt Lernen Wasseralfingen,88848,07361/9760-0,SBBZ Lernen,SBBZ Lernen,BW
"Taubermühlenweg 2, 97990 Weikersheim",07934/990389,false,BW-88884,49.477307,9.896656,Kraft-zu-Hohenlohe-Schule Sonderpädagogisches Bildungs- und Beratungszentrum mit dem Färderschwerpunkt Lernen,88884,07934/3160,SBBZ Lernen,SBBZ Lernen,BW
"Jahnstraße 10, 71263 Weil der Stadt",07033/691735,false,BW-88920,48.753407,8.874491,Peter-Härtling-Schule Sonderpädagogisches Bildungs- und Beratungszentrum mit dem Färderschwerpunkt Lernen,88920,07033/691734,SBBZ Lernen,SBBZ Lernen,BW
"Kelterstraße 1, 73235 Weilheim an der Teck",07023/9002919,false,BW-88956,48.614297,9.53625,Limburg-Sonderpädagogisches Bildungs- und Beratungszentrum mit dem Färderschwerpunkt Lernen,88956,07023/90029-13,SBBZ Lernen,SBBZ Lernen,BW
"Rienharzer Straße 57, 73642 Welzheim",07182/935915,false,BW-88995,48.873288,9.639905,Janusz-Korczak-Schule Sonderpädagogisches Bildungs- und Beratungszentrum mit dem Färderschwerpunkt Lernen Welzheim,88995,07182/7680,SBBZ Lernen,SBBZ Lernen,BW
"Neuffenstraße 72, 73240 Wendlingen am Neckar",07024/7937,false,BW-89031,48.670021,9.383328,Anne-Frank-Schule Sonderpädagogisches Bildungs- und Beratungszentrum mit dem Färderschwerpunkt Lernen,89031,07024/7936,SBBZ Lernen,SBBZ Lernen,BW
"Bismarckstraße 9, 97877 Wertheim",09342/916842,false,BW-89103,49.761077,9.511413,Edward-Uihlein-Schule Sonderpädagogisches Bildungs- und Beratungszentrum mit dem Färderschwerpunkt Lernen Wertheim,89103,09342/6887,SBBZ Lernen,SBBZ Lernen,BW
"Schulstraße 3, 74259 Widdern",06298/929274,false,BW-89157,49.314971,9.413891,Feinau-Schule Sonderpädagogisches Bildungs- und Beratungszentrum mit dem Färderschwerpunkt Lernen,89157,06298/7342,SBBZ Lernen,SBBZ Lernen,BW
"Albertviller Straße 36, 71364 Winnenden",07195/910513,false,BW-89193,48.869504,9.397288,Haselsteinschule Sonderpädagogisches Bildungs- und Beratungszentrum mit dem Färderschwerpunkt Lernen,89193,07195/179509,SBBZ Lernen,SBBZ Lernen,BW
"Gebrüder-Grimm-Straße 4, 74858 Aglasterhausen",06262/5195,false,BW-89232,49.347529,9.002422,Gebrüder-Grimm-Schule Sonderpädagogisches Bildungs- und Beratungszentrum mit dem Färderschwerpunkt Lernen Daudenzell,89232,06262/2893,SBBZ Lernen,SBBZ Lernen,BW
"Dorferstraße 70, 72213 Altensteig",07453/94616420,false,BW-89268,48.591859,8.60896,Markgrafenschule Sonderpädagogisches Bildungs- und Beratungszentrum mit dem Färderschwerpunkt Lernen,89268,07453/94616400,SBBZ Lernen,SBBZ Lernen,BW
"Rheinstraße 46, 76532 Baden-Baden",07221/93-2388,false,BW-89340,48.777017,8.219485,Theodor-Heuss-Schule Sonderpädagogisches Bildungs- und Beratungszentrum mit dem Färderschwerpunkt Lernen,89340,07221/93-2380,SBBZ Lernen,SBBZ Lernen,BW
"Seestraße 25, 75015 Bretten",07252/958586,false,BW-89376,49.043232,8.682945,Pestalozzi-Schule Sonderpädagogisches Bildungs- und Beratungszentrum mit dem Färderschwerpunkt Lernen Diedelsheim,89376,07252/958585,SBBZ Lernen,SBBZ Lernen,BW
"Bauwiesenstraße 12, 76646 Bruchsal",07251/989291,false,BW-89379,49.124627,8.581997,Pestalozzischule Sonderpädagogisches Bildungs- und Beratungszentrum mit dem Färderschwerpunkt Lernen,89379,07251/989290,SBBZ Lernen,SBBZ Lernen,BW
"Schüttstraße 3, 74722 Buchen (Odenwald)",06281/556243,false,BW-89415,49.52094,9.323916,Meister-Eckehart-Schule Sonderpädagogisches Bildungs- und Beratungszentrum mit dem Färderschwerpunkt Lernen,89415,06281/8790,SBBZ Lernen,SBBZ Lernen,BW
"Siemensstraße 1, 77815 Bühl",07223/2878117,false,BW-89454,48.69705,8.117303,Rheintalschule Sonderpädagogisches Bildungs- und Beratungszentrum mit dem Färderschwerpunkt Lernen,89454,07223/28781-0,SBBZ Lernen,SBBZ Lernen,BW
"Schindelbergweg 7, 75365 Calw",07051/79027310,false,BW-89490,48.691914,8.764807,Seeäckerschule Sonderpädagogisches Bildungs- und Beratungszentrum mit dem Färderschwerpunkt Lernen Stammheim,89490,07051/7902730,SBBZ Lernen,SBBZ Lernen,BW
"Weidenstraße 1, 69412 Eberbach",06271/9437-228,false,BW-89529,49.460746,8.986523,Dr. Weiss-Schule Sonderpädagogisches Bildungs- und Beratungszentrum mit dem Färderschwerpunkt Lernen,89529,06271/9437-0,SBBZ Lernen,SBBZ Lernen,BW
"Lindenweg 6a, 76275 Ettlingen",07243/101559,false,BW-89601,48.950865,8.385424,Carl-Orff-Schule Sonderpädagogisches Bildungs- und Beratungszentrum mit dem Färderschwerpunkt Lernen,89601,07243/101338,SBBZ Lernen,SBBZ Lernen,BW
"Ludwig-Jahn-Straße 32, 72250 Freudenstadt",07441/9202199,false,BW-89637,48.46889,8.414947,Christophorus-Schule Sonderpädagogisches Bildungs- und Beratungszentrum mit dem Färderschwerpunkt Lernen,89637,07441/920-2101,SBBZ Lernen,SBBZ Lernen,BW
"Mühlstraße 25, 76571 Gaggenau",07225/983897,false,BW-89673,48.815802,8.309785,Erich-Kästner-Schule Sonderpädagogisches Bildungs- und Beratungszentrum mit dem Färderschwerpunkt Lernen,89673,07225/1589,SBBZ Lernen,SBBZ Lernen,BW
"Känigsberger Straße 2, 69124 Heidelberg",06221/786358,false,BW-89763,49.376384,8.64195,Marie-Marcks-Schule Sonderpädagogisches Bildungs- und Beratungszentrum mit dem Färderschwerpunkt Lernen Heidelberg,89763,06221/712295,SBBZ Lernen,SBBZ Lernen,BW
"Arndtstraße 2, 68766 Hockenheim",06205/3055072,false,BW-89802,49.31468,8.546953,Gustav-Lesemann-Schule Sonderpädagogisches Bildungs- und Beratungszentrum mit dem Färderschwerpunkt Lernen,89802,06205/305507-0,SBBZ Lernen,SBBZ Lernen,BW
"Roßbergstraße 11, 72160 Horb am Neckar",07451/53708-20,false,BW-89838,48.451119,8.691612,Rossbergschule Sonderpädagogisches Bildungs- und Beratungszentrum mit dem Färderschwerpunkt Lernen Schulzentrum Hohenberg,89838,07451/53708-0,SBBZ Lernen,SBBZ Lernen,BW
"Belchenstraße 29, 76307 Karlsbad",07248/932277,false,BW-89874,48.862059,8.504083,Schwarzwaldschule Ittersbach Sonderpädagogisches Bildungs- und Beratungszentrum mit dem Färderschwerpunkt Lernen,89874,07248/932273,SBBZ Lernen,SBBZ Lernen,BW
"Am Steinbruch 20, 76227 Karlsruhe",0721/133-4377,false,BW-89910,49.000733,8.482673,Schule am Turmberg Sonderpädagogisches Bildungs- und Beratungszentrum mit dem Färderschwerpunkt Lernen Durlach,89910,0721/133-4785,SBBZ Lernen,SBBZ Lernen,BW
"Graf-Rhena-Straße 18, 76137 Karlsruhe",0721/133-4371,false,BW-89946,48.997547,8.388547,Kimmelmannschule Sonderpädagogisches Bildungs- und Beratungszentrum mit dem Färderschwerpunkt Lernen,89946,0721/133-4783,SBBZ Lernen,SBBZ Lernen,BW
"Steiner Straße 48, 75203 Känigsbach-Stein",07232/50510,false,BW-89949,48.962322,8.61681,Comenius-Schule Sonderpädagogisches Bildungs- und Beratungszentrum mit dem Färderschwerpunkt Lernen,89949,07232/9193,SBBZ Lernen,SBBZ Lernen,BW
"Schulstraße 40, 76703 Kraichtal",07251/3227665,false,BW-89985,49.137815,8.662508,Mänchswald Schule Sonderpädagogisches Bildungs- und Beratungszentrum mit dem Färderschwerpunkt Lernen Unteräwisheim,89985,07251/3227664,SBBZ Lernen,SBBZ Lernen,BW
"Scheffelstraße 6, 68526 Ladenburg",06203/922214,false,BW-90021,49.471139,8.604365,Erich-Kästner-Schule Sonderpädagogisches Bildungs- und Beratungszentrum mit dem Färderschwerpunkt Lernen,90021,06203/922213,SBBZ Lernen,SBBZ Lernen,BW
"Hindenburgstraße 6, 75378 Bad Liebenzell",07052/2014,false,BW-90039,48.775589,8.731067,Reuchlin-Schulen Sonderpädagogisches Bildungs- und Beratungszentrum mit dem Färderschwerpunkt Lernen,90039,07052/2012,SBBZ Lernen,SBBZ Lernen,BW
"Käthe-Kollwitz-Straße 1, 68169 Mannheim",0621/293-7747,false,BW-90075,49.50541,8.471222,Wilhelm-Busch-Schule Sonderpädagogisches Bildungs- und Beratungszentrum mit dem Färderschwerpunkt Lernen,90075,0621/293-7618,SBBZ Lernen,SBBZ Lernen,BW
"Heussstraße 1, 76351 Linkenheim-Hochstetten",07247/9362-9,false,BW-90111,49.125954,8.414003,Albert-Schweitzer-Schule Sonderpädagogisches Bildungs- und Beratungszentrum mit dem Färderschwerpunkt Lernen,90111,07247/9362-0,SBBZ Lernen,SBBZ Lernen,BW
"U 2 5-7, 68161 Mannheim",0621/293-2353,false,BW-90147,49.491582,8.470898,Maria-Montessori-Schule Sonderpädagogisches Bildungs- und Beratungszentrum mit dem Färderschwerpunkt Lernen,90147,0621/293-2350,SBBZ Lernen,SBBZ Lernen,BW
"Mutterstadter Platz 5, 68219 Mannheim",0621/293-6594,false,BW-90183,49.433296,8.526288,Rheinauschule Sonderpädagogisches Bildungs- und Beratungszentrum mit dem Färderschwerpunkt Lernen,90183,0621/293-6583,SBBZ Lernen,SBBZ Lernen,BW
"Oppauer Straße 1-3, 68305 Mannheim",0621/293-7769,false,BW-90222,49.525938,8.479462,Johannes-Gutenberg-Sonderpädagogisches Bildungs- und Beratungszentrum mit dem Färderschwerpunkt Lernen,90222,0621/293-7612,SBBZ Lernen,SBBZ Lernen,BW
"Anemonenweg 8, 68305 Mannheim",0621/293-7684,false,BW-90258,49.524997,8.502406,Eduard-Spranger-Schule Sonderpädagogisches Bildungs- und Beratungszentrum mit dem Färderschwerpunkt Lernen Gartenstadt,90258,0621/293-7628,SBBZ Lernen,SBBZ Lernen,BW
"Vogesenstraße 20, 76287 Rheinstetten",0721/9517648,false,BW-90330,48.979404,8.314986,Hebelschule Sonderpädagogisches Bildungs- und Beratungszentrum mit dem Färderschwerpunkt Lernen Rheinstetten,90330,0721/9517641,SBBZ Lernen,SBBZ Lernen,BW
"Pfalzgraf-Otto-Straße 41, 74821 Mosbach",06261/1033394,false,BW-90348,49.347538,9.140739,Hardbergschule Sonderpädagogisches Bildungs- und Beratungszentrum mit dem Färderschwerpunkt Lernen,90348,06261/12215,SBBZ Lernen,SBBZ Lernen,BW
"Rappstraße 25, 75417 Mühlacker",07041/8766-20,false,BW-90384,48.945787,8.836058,Uhlandschule Sonderpädagogisches Bildungs- und Beratungszentrum mit dem Färderschwerpunkt Lernen,90384,07041/8766-10,SBBZ Lernen,SBBZ Lernen,BW
"Burgstraße 8, 72202 Nagold",07452/8459-23,false,BW-90420,48.553197,8.72427,Burgschule Sonderpädagogisches Bildungs- und Beratungszentrum mit dem Färderschwerpunkt Lernen,90420,07452/8459-0,SBBZ Lernen,SBBZ Lernen,BW
"Im Spitzerfeld 33, 69151 Neckargemünd",06223/72522,false,BW-90459,49.381591,8.803743,Erich-Kästner-Schule Sonderpädagogisches Bildungs- und Beratungszentrum mit dem Färderschwerpunkt Lernen,90459,06223/6260,SBBZ Lernen,SBBZ Lernen,BW
"Sindolsheimer Straße 6, 74706 Osterburken",06295/95152,false,BW-90495,49.471685,9.413213,Astrid-Lindgren-Schule Sonderpädagogisches Bildungs- und Beratungszentrum mit dem Färderschwerpunkt Lernen Bofsheim,90495,06295/95151,SBBZ Lernen,SBBZ Lernen,BW
"Lessingstraße 23, 76661 Philippsburg",07256/87500,false,BW-90531,49.236053,8.462887,Nikolaus-von-Myra-Schule Sonderpädagogisches Bildungs- und Beratungszentrum mit dem Färderschwerpunkt Lernen,90531,07256/87290,SBBZ Lernen,SBBZ Lernen,BW
"Westring 20, 76437 Rastatt",07222/9297320,false,BW-90567,48.855553,8.194672,Augusta-Sibylla-Schule Sonderpädagogisches Bildungs- und Beratungszentrum mit dem Färderschwerpunkt Lernen,90567,07222/929730,SBBZ Lernen,SBBZ Lernen,BW
"Kirchstraße 7, 69207 Sandhausen",06224/17513915,false,BW-90603,49.342454,8.655659,Pestalozzischule Sonderpädagogisches Bildungs- und Beratungszentrum mit dem Färderschwerpunkt Lernen,90603,06224/1751390,SBBZ Lernen,SBBZ Lernen,BW
"Falltorstraße 22, 76669 Bad Schänborn",07253/31000,false,BW-90657,49.215428,8.66009,Franz-Josef-Mone-Schule Sonderpädagogisches Bildungs- und Beratungszentrum mit dem Färderschwerpunkt Lernen,90657,07253/5300,SBBZ Lernen,SBBZ Lernen,BW
"Sudetenring 8-10, 68723 Schwetzingen",06202/3868,false,BW-90693,49.394419,8.570794,Kurt-Waibel-Schule Sonderpädagogisches Bildungs- und Beratungszentrum mit dem Färderschwerpunkt Lernen,90693,06202/57478-10,SBBZ Lernen,SBBZ Lernen,BW
"Werderstraße 8, 74889 Sinsheim",07261/404680,false,BW-90732,49.254333,8.877917,Carl-Orff-Schule Sonderpädagogisches Bildungs- und Beratungszentrum mit dem Färderschwerpunkt Lernen,90732,07261/404670,SBBZ Lernen,SBBZ Lernen,BW
"Schloßweg 11, 69190 Walldorf",06227/353809,false,BW-90768,49.3007,8.64114,Sambuga-Schule Sonderpädagogisches Bildungs- und Beratungszentrum mit dem Färderschwerpunkt Lernen,90768,06227/353800,SBBZ Lernen,SBBZ Lernen,BW
"Fichtestraße 18, 69469 Weinheim",06201/9462-8,false,BW-90804,49.553121,8.657355,Johann-Sebastian-Bach-Schule Sonderpädagogisches Bildungs- und Beratungszentrum mit dem Färderschwerpunkt Lernen,90804,06201/9462-0,SBBZ Lernen,SBBZ Lernen,BW
"Parkstraße 9, 69168 Wiesloch",06222/51067,false,BW-90840,49.297591,8.682183,Albert-Schweitzer-Schule Sonderpädagogisches Bildungs- und Beratungszentrum mit dem Färderschwerpunkt Lernen,90840,06222/51914,SBBZ Lernen,SBBZ Lernen,BW
"Jahnstraße 4, 75323 Bad Wildbad",07081/92368-25,false,BW-90876,48.776215,8.57734,Goßweilerschule Sonderpädagogisches Bildungs- und Beratungszentrum mit dem Färderschwerpunkt Lernen Calmbach,90876,07081/9236821,SBBZ Lernen,SBBZ Lernen,BW
"Kaiser-Wilhelm-Straße 5, 77855 Achern",07841/3690,false,BW-90966,48.630601,8.069335,Achertalschule Sonderpädagogisches Bildungs- und Beratungszentrum mit dem Färderschwerpunkt Lernen,90966,07841/642-1690,SBBZ Lernen,SBBZ Lernen,BW
"Weiherdammstraße 26, 78176 Blumberg",07702/419213,false,BW-91005,47.841938,8.538128,Weiherdammschule Sonderpädagogisches Bildungs- und Beratungszentrum mit dem Färderschwerpunkt Lernen,91005,07702/3805,SBBZ Lernen,SBBZ Lernen,BW
"Werderstraße 16, 78166 Donaueschingen",0771/80049995,false,BW-91152,47.954459,8.501004,Heinrich-Feurstein-Schule Sonderpädagogisches Bildungs- und Beratungszentrum mit dem Färderschwerpunkt Lernen,91152,0771/13139,SBBZ Lernen,SBBZ Lernen,BW
"Karl-Friedrich-Straße 22, 79312 Emmendingen",07641/4034,false,BW-91224,48.122655,7.845989,Karl-Friedrich-Schule Sonderpädagogisches Bildungs- und Beratungszentrum mit dem Färderschwerpunkt Lernen,91224,07641/4049,SBBZ Lernen,SBBZ Lernen,BW
"Peterskirchstraße 5, 79346 Endingen am Kaiserstuhl",07642/923262,false,BW-91242,48.141162,7.706062,Albert-Schweitzer-Schule Sonderpädagogisches Bildungs- und Beratungszentrum mit dem Färderschwerpunkt Lernen,91242,07642/5734,SBBZ Lernen,SBBZ Lernen,BW
"Jahnstraße 32, 78234 Engen",07733/942839,false,BW-91278,47.853071,8.78149,Hewenschule Sonderpädagogisches Bildungs- und Beratungszentrum mit dem Färderschwerpunkt Lernen,91278,07733/942831,SBBZ Lernen,SBBZ Lernen,BW
"Lessingstraße 1, 79100 Freiburg im Breisgau",0761/201-7389,false,BW-91350,47.989707,7.847096,Lessingschule Sonderpädagogisches Bildungs- und Beratungszentrum mit dem Färderschwerpunkt Lernen,91350,0761/201-7581,SBBZ Lernen,SBBZ Lernen,BW
"Eichendorffweg 2, 79115 Freiburg im Breisgau",0761/201-7473,false,BW-91386,47.987102,7.821363,Schenkendorfschule Sonderpädagogisches Bildungs- und Beratungszentrum mit dem Färderschwerpunkt Lernen,91386,0761/201-7588,SBBZ Lernen,SBBZ Lernen,BW
"Habichtweg 46, 79110 Freiburg im Breisgau",0761/2017398,false,BW-91389,48.02415,7.807253,Albert-Schweitzer-Schule III Sonderpädagogisches Bildungs- und Beratungszentrum mit dem Färderschwerpunkt Lernen,91389,0761/201-7585,SBBZ Lernen,SBBZ Lernen,BW
"Pestalozzistraße 8, 77866 Rheinau",07844/912765,false,BW-91425,48.683117,7.98322,Pestalozzi-Schule Sonderpädagogisches Bildungs- und Beratungszentrum mit dem Färderschwerpunkt Lernen Memprechtshofen,91425,07844/7860,SBBZ Lernen,SBBZ Lernen,BW
"Kirchberg 6, 78567 Fridingen an der Donau",07463/990269,false,BW-91461,48.019612,8.934478,Vogelsangschule Sonderpädagogisches Bildungs- und Beratungszentrum mit dem Färderschwerpunkt Lernen,91461,07463/990270,SBBZ Lernen,SBBZ Lernen,BW
"Ilbenstraße 16-18, 78120 Furtwangen im Schwarzwald",07723/913019,false,BW-91497,48.05028,8.20917,Anne-Frank-Schule Sonderpädagogisches Bildungs- und Beratungszentrum mit dem Färderschwerpunkt Lernen,91497,07723/913020,SBBZ Lernen,SBBZ Lernen,BW
"Nollenstraße 15, 77723 Gengenbach",07803/601152,false,BW-91533,48.407132,8.01439,Geschwister-Scholl-Schule II Sonderpädagogisches Bildungs- und Beratungszentrum mit dem Färderschwerpunkt Lernen,91533,07803/601151,SBBZ Lernen,SBBZ Lernen,BW
"Gehrenstraße 14, 78559 Gosheim",07426/4630,false,BW-91551,48.13234,8.751237,Lembergschule Sonderpädagogisches Bildungs- und Beratungszentrum mit dem Färderschwerpunkt Lernen,91551,07426/4629,SBBZ Lernen,SBBZ Lernen,BW
"Heuweiler Weg 32, 79194 Gundelfingen",0761/5562368,false,BW-91587,48.034761,7.881274,Friedrich-Fräbel-Schule Sonderpädagogisches Bildungs- und Beratungszentrum mit dem Färderschwerpunkt Lernen,91587,0761/53469,SBBZ Lernen,SBBZ Lernen,BW
"Raufeldstraße 4, 79261 Gutach im Breisgau",07685/910171,false,BW-91623,48.125324,8.003605,Sonderpädagogisches Bildungs- und Beratungszentrum mit dem Färderschwerpunkt Lernen Elztal-Bleibach,91623,07685/9101-70,SBBZ Lernen,SBBZ Lernen,BW
"Schulstraße 1, 77790 Steinach",07832/9754-129,false,BW-91662,48.304611,8.056085,Georg-Schäner-Schule Sonderpädagogisches Bildungs- und Beratungszentrum mit dem Färderschwerpunkt Lernen,91662,07832/9179-22,SBBZ Lernen,SBBZ Lernen,BW
"Hebelstraße 2, 79336 Herbolzheim",07643/9165-35,false,BW-91698,48.222317,7.770111,Sonderpädagogisches Bildungs- und Beratungszentrum mit dem Färderschwerpunkt Lernen und Emotionale und soziale Entwicklung Bernhard Galura,91698,07643/9165-0,SBBZ Lernen,SBBZ Lernen,BW
"Hebelstraße 2, 79336 Herbolzheim",07643/9165-35,false,BW-91698,48.222317,7.770111,Sonderpädagogisches Bildungs- und Beratungszentrum mit dem Färderschwerpunkt Lernen und Emotionale und soziale Entwicklung Bernhard Galura,91698,07643/9165-0,SBBZ Emotionale und soziale Entwicklung,SBBZ Emotionale und soziale Entwicklung,BW
"Hebelstraße 2, 79336 Herbolzheim",07643/9165-35,false,BW-91698,48.222317,7.770111,Sonderpädagogisches Bildungs- und Beratungszentrum mit dem Färderschwerpunkt Lernen und Emotionale und soziale Entwicklung Bernhard Galura,91698,07643/9165-0,SBBZ Emotionale und soziale Entwicklung,SBBZ Emotionale und soziale Entwicklung,BW
"Zeppelinstraße 3-5, 79241 Ihringen",07668/951348,false,BW-91770,48.04306,7.6475,Albert-Schweitzer-Schule Sonderpädagogisches Bildungs- und Beratungszentrum mit dem Färderschwerpunkt Lernen,91770,07668/1272,SBBZ Lernen,SBBZ Lernen,BW
"Jahnstraße 2, 78194 Immendingen",07462/924626,false,BW-91806,47.940244,8.731905,Hornenbergschule Sonderpädagogisches Bildungs- und Beratungszentrum mit dem Färderschwerpunkt Lernen,91806,07462/1730,SBBZ Lernen,SBBZ Lernen,BW
"Rustfeldstraße 12, 77694 Kehl",07851/480821,false,BW-91860,48.55736,7.827317,Albert-Schweitzer-Schule Sonderpädagogisches Bildungs- und Beratungszentrum mit dem Färderschwerpunkt Lernen,91860,07851/73330,SBBZ Lernen,SBBZ Lernen,BW
"Zardunastraße 16, 79199 Kirchzarten",07661/912952,false,BW-91896,47.97562,7.95238,Zarduna-Schule Sonderpädagogisches Bildungs- und Beratungszentrum mit dem Färderschwerpunkt Lernen,91896,07661/61196,SBBZ Lernen,SBBZ Lernen,BW
"Ahornweg 21, 77933 Lahr",07821/983532,false,BW-91935,48.336502,7.86366,Gutenbergschule Sonderpädagogisches Bildungs- und Beratungszentrum mit dem Färderschwerpunkt Lernen Lahr,91935,07821/983530,SBBZ Lernen,SBBZ Lernen,BW
"Wintersbuckstraße 15a, 79539 Lärrach",07621/1674720,false,BW-92007,47.623478,7.662953,Pestalozzi-Schule Sonderpädagogisches Bildungs- und Beratungszentrum mit dem Färderschwerpunkt Lernen,92007,07621/167470,SBBZ Lernen,SBBZ Lernen,BW
"Gartenstraße 30, 77972 Mahlberg",07822/896994,false,BW-92043,48.28694,7.81139,Hansjakob-Schule Sonderpädagogisches Bildungs- und Beratungszentrum mit dem Färderschwerpunkt Lernen Orschweier,92043,07822/896995,SBBZ Lernen,SBBZ Lernen,BW
"Goethestraße 18-22, 79379 Müllheim",07631/17995798,false,BW-92082,47.812065,7.628422,Albert-Julius-Sievert-Schule Sonderpädagogisches Bildungs- und Beratungszentrum mit dem Färderschwerpunkt Lernen und Sprache Müllheim,92082,07631/1799570,SBBZ Lernen,SBBZ Lernen,BW
"Goethestraße 18-22, 79379 Müllheim",07631/17995798,false,BW-92082,47.812065,7.628422,Albert-Julius-Sievert-Schule Sonderpädagogisches Bildungs- und Beratungszentrum mit dem Färderschwerpunkt Lernen und Sprache Müllheim,92082,07631/1799570,SBBZ Sprache,SBBZ Sprache,BW
"Kirchplatz 7, 77704 Oberkirch",07802/82-417,false,BW-92172,48.531041,8.079929,Altstadtschule Sonderpädagogisches Bildungs- und Beratungszentrum mit dem Färderschwerpunkt Lernen,92172,07802/82-199,SBBZ Lernen,SBBZ Lernen,BW
"Tuchrahmstraße 6, 78727 Oberndorf am Neckar",07423/875417,false,BW-92208,48.292222,8.570166,Ivo-Früth-Schule Sonderpädagogisches Bildungs- und Beratungszentrum mit dem Färderschwerpunkt Lernen,92208,07423/875415,SBBZ Lernen,SBBZ Lernen,BW
"Vogesenstraße 30, 77652 Offenburg",0781/9269-17,false,BW-92244,48.477735,7.937253,Waldbachschule Sonderpädagogisches Bildungs- und Beratungszentrum mit dem Färderschwerpunkt Lernen,92244,0781/9269-0,SBBZ Lernen,SBBZ Lernen,BW
"Luisenplatz 2, 78315 Radolfzell am Bodensee",07732/82336-105,false,BW-92280,47.736976,8.972438,Radolfzeller-Hausherren-Schule Sonderpädagogisches Bildungs- und Beratungszentrum mit dem Färderschwerpunkt Lernen,92280,07732/82336-100,SBBZ Lernen,SBBZ Lernen,BW
