[{"address":"Weinweg 6 93049 Regensburg","fax":"0941 26628","full_time_school":false,"id":"BY-684","lat":49.024975,"lon":12.075821,"name":"Private Abendrealschule für Berufstätige der Gesellschaft f.Erwachsenenbildung e.V., Regensburg","official_id":"684","phone":"0941 4615354","school_type":"Abendrealschule","school_type_entity":"Abend-Realschule","state":"BY"},{"address":"Zellerstr. 8 97276 Margetshöchheim","fax":"0931 4679020","full_time_school":false,"id":"BY-347","lat":49.826466,"lon":9.86632,"name":"Privates Abendgymnasium Würzburg Service Center","official_id":"347","phone":"0931 467900","school_type":"Abendgymnasium","school_type_entity":"Abend-Gymnasium","state":"BY"},{"address":"Kloster St. Ludwig 97509 Kolitzheim","full_time_school":false,"id":"BY-7277","lat":49.9249776,"lon":10.2015497,"name":"Von-Pelkhoven-Schule St.Ludwig, Berufsschule zur sonderpäd.Förd.m.Förderschwerp.soz.u.emot.Entwickl","official_id":"7277","phone":"09385 860","school_type":"Berufsschule zur sonderpädagogischen Förderung","school_type_entity":"Berufsschule","state":"BY"},{"address":"Friedenstraße 44 97828 Marktheidenfeld","fax":"09391 917429","full_time_school":false,"id":"BY-831","lat":49.849073,"lon":9.604493,"name":"Staatliche Berufsoberschule Marktheidenfeld","official_id":"831","phone":"09391 2257","school_type":"Berufsoberschule","school_type_entity":"Berufsoberschule","state":"BY"},{"address":"Wirsingstr. 7 97424 Schweinfurt","full_time_school":false,"id":"BY-1032","lat":50.035559,"lon":10.208065,"name":"Privates Lyzeum der Republik Griechenland in Schweinfurt","official_id":"1032","phone":"09721 804626","school_type":"Ausländische Schule","school_type_entity":"Ausländische Schule","state":"BY"},{"address":"Wörther-Kirch-Str. 10 82380 Peißenberg","fax":"08803 4428","full_time_school":false,"id":"BY-2269","lat":47.7891,"lon":11.06462,"name":"Private Montessori-Volksschule Peißenberg","official_id":"2269","phone":"08803 60603","school_type":"Grund- und Teilhauptschule","school_type_entity":"Grund- und Teilhauptschule","state":"BY"},{"address":"Bavariastr. 39 63743 Aschaffenburg","fax":"06021 970086","full_time_school":false,"id":"BY-7506","lat":49.963309,"lon":9.152098,"name":"Hefner-Alteneck-Volksschule Aschaffenburg","official_id":"7506","phone":"06021 970129","school_type":"Grund- und Hauptschule","school_type_entity":"Grund- und Hauptschule","state":"BY"},{"address":"Am Scharfen Eck 3 63864 Glattbach","fax":"06021 410931","full_time_school":false,"id":"BY-7599","lat":50.006372,"lon":9.148472,"name":"Volksschule Glattbach","official_id":"7599","phone":"06021 410930","school_type":"Grund- und Hauptschule","school_type_entity":"Grund- und Hauptschule","state":"BY"},{"address":"Untere Dorfstr. 14 83101 Rohrdorf","full_time_school":false,"id":"BY-933","lat":47.799421,"lon":12.168346,"name":"Montessori-Fachoberschule des Montessori-Schule Rosenheim-Rohrdorf Fördervereins e.V. in Rohrdorf","official_id":"933","school_type":"Fachoberschule","school_type_entity":"Fachoberschule","state":"BY"},{"address":"Kaiser-Ludwig-Platz 3 80336 München","fax":"089 54412717","full_time_school":false,"id":"BY-177","lat":48.131906,"lon":11.556458,"name":"Theresien-Gymnasium München","official_id":"177","phone":"089 5441270","school_type":"Gymnasium","school_type_entity":"Gymnasium","state":"BY"},{"address":"Sadelerstr. 10 80638 München","fax":"089 15912130","full_time_school":false,"id":"BY-208","lat":48.165579,"lon":11.521164,"name":"Nymphenburger Gymnasium München des Schulvereins Ernst Adam e.V.","official_id":"208","phone":"089 159120","school_type":"Gymnasium","school_type_entity":"Gymnasium","state":"BY"},{"address":"Karl-Theodor-Str. 9 80803 München","fax":"089 38016840","full_time_school":false,"id":"BY-176","lat":48.165083,"lon":11.584957,"name":"Maximiliansgymnasium München","official_id":"176","phone":"089 3801680","school_type":"Gymnasium","school_type_entity":"Gymnasium","state":"BY"},{"address":"Ebenböckstr. 1 81241 München","fax":"089 89601842","full_time_school":false,"id":"BY-193","lat":48.145543,"lon":11.464144,"name":"Städtisches Elsa-Brändström-Gymnasium München","official_id":"193","phone":"089 8960180","school_type":"Gymnasium","school_type_entity":"Gymnasium","state":"BY"},{"address":"Fürstenrieder Str. 159a 81377 München","fax":"089 7193472","full_time_school":false,"id":"BY-175","lat":48.122118,"lon":11.504679,"name":"Ludwigsgymnasium München","official_id":"175","phone":"089 7145511","school_type":"Gymnasium","school_type_entity":"Gymnasium","state":"BY"},{"address":"Hans-Keis-Straße 61 82049 Pullach","fax":"089 749753299","full_time_school":false,"id":"BY-261","lat":48.066556,"lon":11.525465,"name":"Gymnasium Pullach","official_id":"261","phone":"089 7497530","school_type":"Gymnasium","school_type_entity":"Gymnasium","state":"BY"},{"address":"Rheinlandstraße 2 82319 Starnberg","fax":"08151 913090","full_time_school":false,"id":"BY-295","lat":48.003305,"lon":11.34451,"name":"Gymnasium Starnberg","official_id":"295","phone":"08151 91300","school_type":"Gymnasium","school_type_entity":"Gymnasium","state":"BY"},{"address":"Königstr. 25 83022 Rosenheim","fax":"08031 362023","full_time_school":false,"id":"BY-274","lat":47.852485,"lon":12.131213,"name":"Finsterwalder-Gymnasium Rosenheim","official_id":"274","phone":"08031 361924-5","school_type":"Gymnasium","school_type_entity":"Gymnasium","state":"BY"},{"address":"Adalbert-Stifter-Straße 36 83301 Traunreut","fax":"08669 5913","full_time_school":false,"id":"BY-305","lat":47.95922,"lon":12.595913,"name":"Johannes-Heidenhain-Gymnasium Traunreut","official_id":"305","phone":"08669 2405","school_type":"Gymnasium","school_type_entity":"Gymnasium","state":"BY"},{"address":"Hindenburgstraße 26 83646 Bad Tölz","fax":"08041 8853","full_time_school":false,"id":"BY-29","lat":47.764188,"lon":11.564792,"name":"Gabriel-von-Seidl-Gymnasium Bad Tölz","official_id":"29","phone":"08041 9740","school_type":"Gymnasium","school_type_entity":"Gymnasium","state":"BY"},{"address":"Bismarckplatz 14 84034 Landshut","fax":"0871 821205","full_time_school":false,"id":"BY-148","lat":48.542448,"lon":12.148565,"name":"Gymnasium der Schulstiftung Seligenthal Landshut","official_id":"148","phone":"0871 821200","school_type":"Gymnasium","school_type_entity":"Gymnasium","state":"BY"},{"address":"Kanzelmüllerstraße 90 1/2 84489 Burghausen","fax":"08677 9743-10","full_time_school":false,"id":"BY-48","lat":48.160566,"lon":12.834275,"name":"Kurfürst-Maximilian-Gymnasium Burghausen","official_id":"48","phone":"08677 9743-0","school_type":"Gymnasium","school_type_entity":"Gymnasium","state":"BY"},{"address":"Kupferstr. 23 85049 Ingolstadt","fax":"0841 93870-31","full_time_school":false,"id":"BY-126","lat":48.765179,"lon":11.421299,"name":"Gnadenthal-Gymnasium Ingolstadt der Diözese Eichstätt","official_id":"126","phone":"0841 9387030","school_type":"Gymnasium","school_type_entity":"Gymnasium","state":"BY"},{"address":"Vimystr. 14 85354 Freising","fax":"08161 971030","full_time_school":false,"id":"BY-85","lat":48.405582,"lon":11.742373,"name":"Josef-Hofmiller-Gymnasium Freising","official_id":"85","phone":"08161 97100","school_type":"Gymnasium","school_type_entity":"Gymnasium","state":"BY"},{"address":"Heimstettener Str. 3 85551 Kirchheim","fax":"089 9037198","full_time_school":false,"id":"BY-971","lat":48.18333,"lon":11.75,"name":"Gymnasium Kirchheim b.München","official_id":"971","phone":"089 90310-24, 25","school_type":"Gymnasium","school_type_entity":"Gymnasium","state":"BY"},{"address":"Gallusplatz 2 86152 Augsburg","fax":"0821 32418505","full_time_school":false,"id":"BY-18","lat":48.376407,"lon":10.899052,"name":"Gymnasium bei St.Stephan Augsburg","official_id":"18","phone":"0821 324-18500","school_type":"Gymnasium","school_type_entity":"Gymnasium","state":"BY"},{"address":"Jochnerstraße 30 86381 Krumbach","fax":"08282 896130","full_time_school":false,"id":"BY-141","lat":48.243718,"lon":10.355863,"name":"Simpert-Kraemer-Gymnasium Krumbach","official_id":"141","phone":"08282 89610","school_type":"Gymnasium","school_type_entity":"Gymnasium","state":"BY"},{"address":"Lechstraße 6 86899 Landsberg","fax":"08191 65710865","full_time_school":false,"id":"BY-951","lat":48.052197,"lon":10.873627,"name":"Ignaz-Kögler-Gymnasium Landsberg am Lech","official_id":"951","phone":"08191 657108-0","school_type":"Gymnasium","school_type_entity":"Gymnasium","state":"BY"},{"address":"Kemnater Straße 19 87600 Kaufbeuren","fax":"08341 12341","full_time_school":false,"id":"BY-130","lat":47.88172,"lon":10.611379,"name":"Marien-Gymnasium Kaufbeuren d. Schulwerks d. Diözese Augsburg","official_id":"130","phone":"08341 2341","school_type":"Gymnasium","school_type_entity":"Gymnasium","state":"BY"},{"address":"Bergstraße 80 87724 Ottobeuren","fax":"08332 922420","full_time_school":false,"id":"BY-249","lat":47.94686,"lon":10.297161,"name":"Rupert-Ness-Gymnasium Ottobeuren","official_id":"249","phone":"08332 922410","school_type":"Gymnasium","school_type_entity":"Gymnasium","state":"BY"},{"address":"Zum Sportplatz 17 89269 Vöhringen Illerzell","fax":"07307 939610","full_time_school":false,"id":"BY-395","lat":48.302183,"lon":10.053334,"name":"Illertal-Gymnasium Vöhringen","official_id":"395","phone":"07307 939600","school_type":"Gymnasium","school_type_entity":"Gymnasium","state":"BY"},{"address":"Innerer Laufer Platz 11 90403 Nürnberg","fax":"0911 2447454","full_time_school":false,"id":"BY-233","lat":49.456341,"lon":11.083564,"name":"Willstätter-Gymnasium Nürnberg","official_id":"233","phone":"0911 227985","school_type":"Gymnasium","school_type_entity":"Gymnasium","state":"BY"},{"address":"Sulzbacher Str. 32 90489 Nürnberg","fax":"0911 2315558","full_time_school":false,"id":"BY-231","lat":49.457858,"lon":11.09402,"name":"Melanchthon-Gymnasium Nürnberg","official_id":"231","phone":"0911 2315540","school_type":"Gymnasium","school_type_entity":"Gymnasium","state":"BY"},{"address":"Sportplatzstraße 2 90579 Langenzenn","fax":"09101 90418-21","full_time_school":false,"id":"BY-966","lat":49.491848,"lon":10.779986,"name":"Wolfgang-Borchert-Gymnasium Langenzenn","official_id":"966","phone":"09101 90418-0, -10","school_type":"Gymnasium","school_type_entity":"Gymnasium","state":"BY"},{"address":"Bismarckstraße 6 91126 Schwabach","fax":"09122 690555","full_time_school":false,"id":"BY-282","lat":49.326282,"lon":11.019175,"name":"Adam-Kraft-Gymnasium Schwabach","official_id":"282","phone":"09122 69050","school_type":"Gymnasium","school_type_entity":"Gymnasium","state":"BY"},{"address":"Comeniusstraße 4 91413 Neustadt","fax":"09161 886955","full_time_school":false,"id":"BY-225","lat":49.573258,"lon":10.612591,"name":"Friedrich-Alexander-Gymnasium Neustadt a.d.Aisch","official_id":"225","phone":"09161 886911","school_type":"Gymnasium","school_type_entity":"Gymnasium","state":"BY"},{"address":"An der Hagenau 24 91781 Weißenburg","fax":"09141 861726","full_time_school":false,"id":"BY-324","lat":49.025355,"lon":10.976907,"name":"Werner-von-Siemens-Gymnasium Weißenburg","official_id":"324","phone":"09141 86170","school_type":"Gymnasium","school_type_entity":"Gymnasium","state":"BY"},{"address":"Eichenweg 3 92507 Nabburg","fax":"09433 204810","full_time_school":false,"id":"BY-218","lat":49.453164,"lon":12.174765,"name":"Johann-Andreas-Schmeller-Gymnasium Nabburg","official_id":"218","phone":"09433 20480","school_type":"Gymnasium","school_type_entity":"Gymnasium","state":"BY"},{"address":"Hans-Sachs-Str. 2 93049 Regensburg","fax":"0941 5074043","full_time_school":false,"id":"BY-263","lat":49.023281,"lon":12.075053,"name":"Albertus-Magnus-Gymnasium Regensburg","official_id":"263","phone":"0941 5074042","school_type":"Gymnasium","school_type_entity":"Gymnasium","state":"BY"},{"address":"Pfarrer-Lukas-Straße 36 93413 Cham","fax":"09971 8580511","full_time_school":false,"id":"BY-52","lat":49.225181,"lon":12.667662,"name":"Robert-Schuman-Gymnasium Cham","official_id":"52","phone":"09971 858050","school_type":"Gymnasium","school_type_entity":"Gymnasium","state":"BY"},{"address":"Dr.-Schott-Str. 54 94227 Zwiesel","fax":"09922 60641","full_time_school":false,"id":"BY-341","lat":49.018642,"lon":13.227633,"name":"Gymnasium Zwiesel","official_id":"341","phone":"09922 1340","school_type":"Gymnasium","school_type_entity":"Gymnasium","state":"BY"},{"address":"Abteistraße 3 94526 Metten","fax":"0991 9108178","full_time_school":false,"id":"BY-166","lat":48.855282,"lon":12.918098,"name":"St.-Michaels-Gymnasium der Benediktiner Metten","official_id":"166","phone":"0991 9108120","school_type":"Gymnasium","school_type_entity":"Gymnasium","state":"BY"},{"address":"Finkenweg 15 95119 Naila","fax":"09282 960819","full_time_school":false,"id":"BY-219","lat":50.336106,"lon":11.701258,"name":"Gymnasium Naila","official_id":"219","phone":"09282 96080","school_type":"Gymnasium","school_type_entity":"Gymnasium","state":"BY"},{"address":"Königsallee 17 95448 Bayreuth","fax":"0921 7999113","full_time_school":false,"id":"BY-41","lat":49.940537,"lon":11.592256,"name":"Markgräfin-Wilhelmine-Gymnasium Bayreuth","official_id":"41","phone":"0921 79991-0","school_type":"Gymnasium","school_type_entity":"Gymnasium","state":"BY"},{"address":"Kloster-Langheim-Str. 10 96050 Bamberg","fax":"0951 9146320","full_time_school":false,"id":"BY-36","lat":49.89844,"lon":10.910516,"name":"Städtisches Eichendorff-Gymnasium Bamberg","official_id":"36","phone":"0951 9146300","school_type":"Gymnasium","school_type_entity":"Gymnasium","state":"BY"},{"address":"Rennweger Ring 12 97070 Würzburg","fax":"0931 32265-30","full_time_school":false,"id":"BY-332","lat":49.796955,"lon":9.942517,"name":"Riemenschneider-Gymnasium Würzburg","official_id":"332","phone":"0931 32265-0","school_type":"Gymnasium","school_type_entity":"Gymnasium","state":"BY"},{"address":"Kanzler-Stürtzel-Straße 15 97318 Kitzingen","fax":"09321 131733","full_time_school":false,"id":"BY-136","lat":49.730651,"lon":10.159106,"name":"Armin-Knab-Gymnasium Kitzingen","official_id":"136","phone":"09321 13170","school_type":"Gymnasium","school_type_entity":"Gymnasium","state":"BY"},{"address":"Franz-Marschall-Straße 7 97616 Bad Neustadt","fax":"09771 7807","full_time_school":false,"id":"BY-27","lat":50.325994,"lon":10.216863,"name":"Rhön-Gymnasium Bad Neustadt","official_id":"27","phone":"09771 2214","school_type":"Gymnasium","school_type_entity":"Gymnasium","state":"BY"},{"address":"Oberländerstraße 29 97828 Marktheidenfeld","fax":"09391 8737","full_time_school":false,"id":"BY-361","lat":49.848587,"lon":9.610312,"name":"Balthasar-Neumann-Gymnasium Marktheidenfeld","official_id":"361","phone":"09391 1800","school_type":"Gymnasium","school_type_entity":"Gymnasium","state":"BY"},{"address":"Weinzierlstr. 38 84036 Landshut","fax":"0871 9454174","full_time_school":false,"id":"BY-3500","lat":48.526549,"lon":12.158731,"name":"Volksschule Landshut-Berg","official_id":"3500","phone":"0871 9454173","school_type":"Grundschule","school_type_entity":"Grundschule","state":"BY"},{"address":"Schulweg 2 84088 Neufahrn","fax":"08773 910599","full_time_school":false,"id":"BY-3721","lat":48.736525,"lon":12.189865,"name":"Volksschule Neufahrn i.NB","official_id":"3721","phone":"08773 416","school_type":"Grundschule","school_type_entity":"Grundschule","state":"BY"},{"address":"Kirchstraße 6 84137 Vilsbiburg","fax":"08741 3201","full_time_school":false,"id":"BY-3733","lat":48.451805,"lon":12.357598,"name":"Volksschule Vilsbiburg","official_id":"3733","phone":"08741 6555","school_type":"Grundschule","school_type_entity":"Grundschule","state":"BY"},{"address":"Schulstraße 4 84169 Altfraunhofen","fax":"08705 2158","full_time_school":false,"id":"BY-3698","lat":48.44859,"lon":12.170818,"name":"Volksschule Altfraunhofen","official_id":"3698","phone":"08705 1404","school_type":"Grundschule","school_type_entity":"Grundschule","state":"BY"},{"address":"Sonnleiten 27 84367 Reut","fax":"08572 969895","full_time_school":false,"id":"BY-3878","lat":48.312219,"lon":12.93986,"name":"Volksschule Reut","official_id":"3878","phone":"08572 304","school_type":"Grundschule","school_type_entity":"Grundschule","state":"BY"},{"address":"Kerneigenstraße 4 84384 Wittibreut","fax":"08574 9193912","full_time_school":false,"id":"BY-3888","lat":48.329188,"lon":12.990572,"name":"Volksschule Wittibreut","official_id":"3888","phone":"08574 919390","school_type":"Grundschule","school_type_entity":"Grundschule","state":"BY"},{"address":"Schulstraße 11 84419 Schwindegg","fax":"08082 946142","full_time_school":false,"id":"BY-2718","lat":48.27074,"lon":12.254373,"name":"Volksschule Schwindegg","official_id":"2718","phone":"08082 354","school_type":"Grundschule","school_type_entity":"Grundschule","state":"BY"},{"address":"Stadtplatz 36 84489 Burghausen","fax":"08677 62740","full_time_school":false,"id":"BY-2328","lat":48.158125,"lon":12.832132,"name":"Hans-Stethaimer-Volksschule Burghausen","official_id":"2328","phone":"08677 61340","school_type":"Grundschule","school_type_entity":"Grundschule","state":"BY"},{"address":"Hauptstraße 24 84533 Haiming","fax":"08678 8099","full_time_school":false,"id":"BY-2338","lat":48.212167,"lon":12.884912,"name":"Volksschule Haiming","official_id":"2338","phone":"08678 353","school_type":"Grundschule","school_type_entity":"Grundschule","state":"BY"},{"address":"Ziegelberg 4 84564 Oberbergkirchen","fax":"08637 985057","full_time_school":false,"id":"BY-2712","lat":48.306056,"lon":12.381335,"name":"Volksschule Oberbergkirchen","official_id":"2712","phone":"08637 985055","school_type":"Grundschule","school_type_entity":"Grundschule","state":"BY"},{"address":"Stollstr. 2 85053 Ingolstadt","fax":"0841 95180199","full_time_school":false,"id":"BY-2108","lat":48.754523,"lon":11.443941,"name":"Volksschule Ingolstadt an der Stollstraße","official_id":"2108","phone":"0841 95180-100","school_type":"Grundschule","school_type_entity":"Grundschule","state":"BY"},{"address":"Manchinger Str. 1 85077 Manching Oberstimm","fax":"08459 330282","full_time_school":false,"id":"BY-2810","lat":48.710831,"lon":11.451441,"name":"Volksschule Oberstimm in Manching","official_id":"2810","phone":"08459 330280","school_type":"Grundschule","school_type_entity":"Grundschule","state":"BY"},{"address":"Kirchweg 10 85122 Hitzhofen","fax":"08458 37030","full_time_school":false,"id":"BY-2475","lat":48.84787,"lon":11.320765,"name":"Volksschule Böhmfeld-Hitzhofen","official_id":"2475","phone":"08458 8466","school_type":"Grundschule","school_type_entity":"Grundschule","state":"BY"},{"address":"Eduard-Ziegler-Str. 1 85221 Dachau","fax":"08131 83578","full_time_school":false,"id":"BY-2424","lat":48.246561,"lon":11.438223,"name":"Volksschule Dachau an der Eduard-Ziegler-Straße","official_id":"2424","phone":"08131 735981","school_type":"Grundschule","school_type_entity":"Grundschule","state":"BY"},{"address":"Fränkinger Str. 9 85258 Weichs","fax":"08136 998231","full_time_school":false,"id":"BY-2443","lat":48.382304,"lon":11.411628,"name":"Volksschule Weichs","official_id":"2443","phone":"08136 5986","school_type":"Grundschule","school_type_entity":"Grundschule","state":"BY"},{"address":"Hohenbachernstr. 30 85354 Freising Vötting","fax":"08161 50648","full_time_school":false,"id":"BY-2562","lat":48.39859,"lon":11.714246,"name":"Volksschule Vötting in Freising","official_id":"2562","phone":"08161 13313","school_type":"Grundschule","school_type_entity":"Grundschule","state":"BY"},{"address":"Pfarrer-Weingand-Str. 5 85410 Haag","fax":"08167 955835","full_time_school":false,"id":"BY-2565","lat":48.458555,"lon":11.831339,"name":"Marina-Thudichum-Volksschule Haag a.d. Amper","official_id":"2565","phone":"08167 955833","school_type":"Grundschule","school_type_entity":"Grundschule","state":"BY"},{"address":"Lodererplatz 14 85435 Erding","fax":"08122 959272","full_time_school":false,"id":"BY-2522","lat":48.309051,"lon":11.911343,"name":"Volksschule Erding am Lodererplatz","official_id":"2522","phone":"08122 10336","school_type":"Grundschule","school_type_entity":"Grundschule","state":"BY"},{"address":"Gruber Straße 11 85551 Kirchheim","fax":"089 90468655","full_time_school":false,"id":"BY-2124","lat":48.162806,"lon":11.76076,"name":"Silva-Grundschule Heimstetten in Kirchheim","official_id":"2124","phone":"089 90468654","school_type":"Grundschule","school_type_entity":"Grundschule","state":"BY"},{"address":"Birkenstr. 6 85630 Grasbrunn Neukeferloh","fax":"089 46238116","full_time_school":false,"id":"BY-2737","lat":48.094057,"lon":11.7586,"name":"Volksschule Neukeferloh","official_id":"2737","phone":"089 4623810","school_type":"Grundschule","school_type_entity":"Grundschule","state":"BY"},{"address":"Glonner Str. 2 85665 Moosach","fax":"08091 568365","full_time_school":false,"id":"BY-2459","lat":48.031893,"lon":11.874467,"name":"Volksschule Moosach-Alxing","official_id":"2459","phone":"08091 3715","school_type":"Grundschule","school_type_entity":"Grundschule","state":"BY"},{"address":"Raiffeisenstr. 27 85716 Unterschleißheim","fax":"089 3101254","full_time_school":false,"id":"BY-2796","lat":48.272594,"lon":11.572609,"name":"Michael-Ende-Volksschule Unterschleißheim","official_id":"2796","phone":"089 3103461","school_type":"Grundschule","school_type_entity":"Grundschule","state":"BY"},{"address":"Schulstr. 1 85777 Fahrenzhausen","fax":"08133 908132","full_time_school":false,"id":"BY-2556","lat":48.351477,"lon":11.55768,"name":"Volksschule Fahrenzhausen","official_id":"2556","phone":"08133 6359","school_type":"Grundschule","school_type_entity":"Grundschule","state":"BY"},{"address":"Rote-Torwall-Str. 14 86161 Augsburg","fax":"0821 3249478","full_time_school":false,"id":"BY-8521","lat":48.35824,"lon":10.902754,"name":"Volksschule Augsburg, Vor dem Roten Tor","official_id":"8521","phone":"0821 3249480","school_type":"Grundschule","school_type_entity":"Grundschule","state":"BY"},{"address":"Georg-Käß-Platz 1 86179 Augsburg","fax":"0821 3247395","full_time_school":false,"id":"BY-8535","lat":48.309117,"lon":10.910342,"name":"Eichendorff-Volksschule Augsburg-Haunstetten","official_id":"8535","phone":"0821 3247390","school_type":"Grundschule","school_type_entity":"Grundschule","state":"BY"},{"address":"Mindelheimer Str. 26 86343 Königsbrunn","fax":"08231 88615","full_time_school":false,"id":"BY-8677","lat":48.277533,"lon":10.880966,"name":"Volksschule Königsbrunn-West","official_id":"8677","phone":"08231 88614","school_type":"Grundschule","school_type_entity":"Grundschule","state":"BY"},{"address":"Frieda-Forster-Straße 9 a 86399 Bobingen Straßberg","fax":"08234 959946","full_time_school":false,"id":"BY-8630","lat":48.272566,"lon":10.785551,"name":"Volksschule Straßberg","official_id":"8630","phone":"08234 959940","school_type":"Grundschule","school_type_entity":"Grundschule","state":"BY"},{"address":"Schulstraße 11 86450 Altenmünster","fax":"08295 2032","full_time_school":false,"id":"BY-8625","lat":48.468302,"lon":10.589258,"name":"Volksschule Altenmünster","official_id":"8625","phone":"08295 1025","school_type":"Grundschule","school_type_entity":"Grundschule","state":"BY"},{"address":"Schulstr. 7 86494 Emersacker","fax":"08293 7838","full_time_school":false,"id":"BY-8633","lat":48.486972,"lon":10.673747,"name":"Volksschule Emersacker","official_id":"8633","phone":"08293 7835","school_type":"Grundschule","school_type_entity":"Grundschule","state":"BY"},{"address":"Rudolf-Lang-Str. 1 86513 Ursberg","fax":"08281 2169","full_time_school":false,"id":"BY-8703","lat":48.266077,"lon":10.442302,"name":"Volksschule Ursberg","official_id":"8703","phone":"08281 3666","school_type":"Grundschule","school_type_entity":"Grundschule","state":"BY"},{"address":"Schulweg 9 86551 Aichach Griesbeckerzell","fax":"08251 52061","full_time_school":false,"id":"BY-8602","lat":48.441806,"lon":11.053196,"name":"Volksschule Griesbeckerzell - Obergriesbach","official_id":"8602","phone":"08251 2654","school_type":"Grundschule","school_type_entity":"Grundschule","state":"BY"},{"address":"Spindeltal 6 86609 Donauwörth","fax":"0906 7064315","full_time_school":false,"id":"BY-8898","lat":48.720344,"lon":10.779498,"name":"Mangold-Volksschule Donauwörth","official_id":"8898","phone":"0906 70643-11","school_type":"Grundschule","school_type_entity":"Grundschule","state":"BY"},{"address":"Schäfflerstraße 25 86695 Nordendorf","fax":"08273 91552","full_time_school":false,"id":"BY-8660","lat":48.591236,"lon":10.832782,"name":"Volksschule Nordendorf","official_id":"8660","phone":"08273 2420221","school_type":"Grundschule","school_type_entity":"Grundschule","state":"BY"},{"address":"Raiffeisenstraße 9 86733 Alerheim","fax":"09085 452","full_time_school":false,"id":"BY-8892","lat":48.843351,"lon":10.616399,"name":"Johann-Wilhelm-Klein-Volksschule Alerheim","official_id":"8892","phone":"09085 308","school_type":"Grundschule","school_type_entity":"Grundschule","state":"BY"},{"address":"Schulstraße 21 86836 Klosterlechfeld","fax":"08232 904918","full_time_school":false,"id":"BY-8644","lat":48.155519,"lon":10.8294,"name":"Von-Imhof-Volksschule Klosterlechfeld","official_id":"8644","phone":"08232 2537","school_type":"Grundschule","school_type_entity":"Grundschule","state":"BY"},{"address":"Schulstraße 6 86899 Landsberg Erpfting","fax":"08191 50599","full_time_school":false,"id":"BY-2649","lat":51.514986,"lon":12.166192,"name":"Volksschule Erpfting","official_id":"2649","phone":"08191 3847","school_type":"Grundschule","school_type_entity":"Grundschule","state":"BY"},{"address":"Fanschuhstraße 5 86956 Schongau","fax":"08861 200118","full_time_school":false,"id":"BY-2986","lat":47.809982,"lon":10.893649,"name":"Volksschule Schongau","official_id":"2986","phone":"08861 4219","school_type":"Grundschule","school_type_entity":"Grundschule","state":"BY"},{"address":"Haubenschloßplatz 1 87435 Kempten","fax":"0831 5400722","full_time_school":false,"id":"BY-8566","lat":47.71703,"lon":10.306734,"name":"Volksschule Kempten","official_id":"8566","phone":"0831 540070","school_type":"Grundschule","school_type_entity":"Grundschule","state":"BY"},{"address":"Pfarrwaldweg 3 87452 Altusried Krugzell","fax":"08374 93659","full_time_school":false,"id":"BY-8939","lat":47.794865,"lon":10.272026,"name":"Volksschule Krugzell","official_id":"8939","phone":"08374 8481","school_type":"Grundschule","school_type_entity":"Grundschule","state":"BY"},{"address":"Albert-Schweitzer-Straße 14 87527 Sonthofen","fax":"08321 669216","full_time_school":false,"id":"BY-8968","lat":47.519369,"lon":10.26337,"name":"Volksschule Sonthofen-Rieden","official_id":"8968","phone":"08321 669212","school_type":"Grundschule","school_type_entity":"Grundschule","state":"BY"},{"address":"Schulstr. 19 87616 Marktoberdorf Thalhofen a.d.Wertach","fax":"08342 98698","full_time_school":false,"id":"BY-8833","lat":47.768249,"lon":10.594484,"name":"Volksschule Thalhofen a.d.Wertach","official_id":"8833","phone":"08342 2214","school_type":"Grundschule","school_type_entity":"Grundschule","state":"BY"},{"address":"Schulweg 4 87671 Ronsberg","fax":"08306 975412","full_time_school":false,"id":"BY-8840","lat":47.898353,"lon":10.411234,"name":"Volksschule Ronsberg","official_id":"8840","phone":"08306 405","school_type":"Grundschule","school_type_entity":"Grundschule","state":"BY"},{"address":"Schulstraße 4 87719 Mindelheim","fax":"08261 4147","full_time_school":false,"id":"BY-8876","lat":48.048469,"lon":10.492208,"name":"Volksschule Mindelheim","official_id":"8876","phone":"08261 4109","school_type":"Grundschule","school_type_entity":"Grundschule","state":"BY"},{"address":"Hauptstraße 41 87776 Sontheim","fax":"08336 9526","full_time_school":false,"id":"BY-8881","lat":48.009863,"lon":10.350447,"name":"Volksschule Sontheim","official_id":"8881","phone":"08336 1237","school_type":"Grundschule","school_type_entity":"Grundschule","state":"BY"},{"address":"Schulstraße 15 88142 Wasserburg","fax":"08382 887709","full_time_school":false,"id":"BY-8803","lat":47.567702,"lon":9.637127,"name":"Volksschule Wasserburg","official_id":"8803","phone":"08382 887844","school_type":"Grundschule","school_type_entity":"Grundschule","state":"BY"},{"address":"Martin-Luther-Str. 4 89231 Neu-Ulm Offenhausen","fax":"0731 9723342","full_time_school":false,"id":"BY-8756","lat":48.400175,"lon":10.019217,"name":"Volksschule Neu-Ulm-Offenhausen","official_id":"8756","phone":"0731 73913","school_type":"Grundschule","school_type_entity":"Grundschule","state":"BY"},{"address":"Pestalozzistr. 1 89250 Senden Wullenstetten","fax":"07307 22152","full_time_school":false,"id":"BY-8770","lat":48.31975,"lon":10.070833,"name":"Volksschule Wullenstetten","official_id":"8770","phone":"07307 22126","school_type":"Grundschule","school_type_entity":"Grundschule","state":"BY"},{"address":"Falkenstr. 23 89269 Vöhringen","fax":"07306 961321","full_time_school":false,"id":"BY-8779","lat":48.285083,"lon":10.075422,"name":"Volksschule Vöhringen-Nord","official_id":"8779","phone":"07306 96130","school_type":"Grundschule","school_type_entity":"Grundschule","state":"BY"},{"address":"Rebaystr. 13 89312 Günzburg","fax":"08221 5443","full_time_school":false,"id":"BY-8736","lat":48.446591,"lon":10.288207,"name":"Volksschule Günzburg - Südost","official_id":"8736","phone":"08221 30546","school_type":"Grundschule","school_type_entity":"Grundschule","state":"BY"},{"address":"Hühleweg 6 89365 Röfingen","fax":"08222 42083","full_time_school":false,"id":"BY-8731","lat":48.426955,"lon":10.44758,"name":"Volksschule Röfingen","official_id":"8731","phone":"08222 7736","school_type":"Grundschule","school_type_entity":"Grundschule","state":"BY"},{"address":"Neue Hegelstr. 17 90409 Nürnberg","fax":"0911 9359033","full_time_school":false,"id":"BY-6594","lat":49.467589,"lon":11.088458,"name":"Volksschule Nürnberg, Friedrich-Hegel-Schule","official_id":"6594","phone":"0911 356085","school_type":"Grundschule","school_type_entity":"Grundschule","state":"BY"},{"address":"Deutschherrnstr. 10 90429 Nürnberg","fax":"0911 260070","full_time_school":false,"id":"BY-6686","lat":49.455004,"lon":11.063579,"name":"Private Wilhelm-Löhe-Volksschule Nürnberg","official_id":"6686","phone":"0911 2708258","school_type":"Grundschule","school_type_entity":"Grundschule","state":"BY"},{"address":"Fürreuthweg 95 90451 Nürnberg","fax":"0911 6498878","full_time_school":false,"id":"BY-6589","lat":49.408902,"lon":11.040282,"name":"Volksschule Nürnberg-Eibach","official_id":"6589","phone":"0911 6493123","school_type":"Grundschule","school_type_entity":"Grundschule","state":"BY"},{"address":"Zugspitzstr. 123 90471 Nürnberg","fax":"0911 8129600","full_time_school":false,"id":"BY-6656","lat":49.408869,"lon":11.118075,"name":"Volksschule Nürnberg, Zugspitzstraße","official_id":"6656","phone":"0911 811751","school_type":"Grundschule","school_type_entity":"Grundschule","state":"BY"},{"address":"Bartholomäusstr. 16 90489 Nürnberg","fax":"0911 5882929","full_time_school":false,"id":"BY-6580","lat":49.455447,"lon":11.100396,"name":"Volksschule Nürnberg, Bartholomäusschule","official_id":"6580","phone":"0911 536018","school_type":"Grundschule","school_type_entity":"Grundschule","state":"BY"},{"address":"Am Zehnthof 8 90530 Wendelstein Röthenbach b.St.Wolfgang","fax":"09129 288530","full_time_school":false,"id":"BY-6933","lat":49.363783,"lon":11.168182,"name":"Volksschule Röthenbach b.St.Wolfgang","official_id":"6933","phone":"09129 8753","school_type":"Grundschule","school_type_entity":"Grundschule","state":"BY"},{"address":"Schulstr. 6 90552 Röthenbach","fax":"0911 5755989","full_time_school":false,"id":"BY-6860","lat":49.48042,"lon":11.233958,"name":"Volksschule Röthenbach a.d.Pegnitz am Forstersberg","official_id":"6860","phone":"0911 577620","school_type":"Grundschule","school_type_entity":"Grundschule","state":"BY"},{"address":"Schulstraße 2 90584 Allersberg","fax":"09176 90225","full_time_school":false,"id":"BY-6914","lat":49.251954,"lon":11.231309,"name":"Volksschule Allersberg Sybilla-Maurer-Grundschule","official_id":"6914","phone":"09176 1610","school_type":"Grundschule","school_type_entity":"Grundschule","state":"BY"},{"address":"Frauenstr. 15 90763 Fürth","fax":"0911 97083828","full_time_school":false,"id":"BY-6545","lat":49.463475,"lon":10.996804,"name":"Volksschule Fürth, Frauenstraße","official_id":"6545","phone":"0911 97083811","school_type":"Grundschule","school_type_entity":"Grundschule","state":"BY"},{"address":"Zedernstr. 2 90768 Fürth","fax":"0911 761542","full_time_school":false,"id":"BY-6566","lat":49.52533,"lon":10.96401,"name":"Volksschule Fürth, Zedernstraße","official_id":"6566","phone":"0911 761542","school_type":"Grundschule","school_type_entity":"Grundschule","state":"BY"},{"address":"Sandbergstr. 1 - 5 91058 Erlangen","fax":"09131 934991","full_time_school":false,"id":"BY-6521","lat":49.572658,"lon":10.987568,"name":"Volksschule Erlangen-Bruck Max-und-Justine-Elsner-Schule","official_id":"6521","phone":"09131 934916","school_type":"Grundschule","school_type_entity":"Grundschule","state":"BY"},{"address":"Bodenschatzstraße 9 91083 Baiersdorf","fax":"09133 603948","full_time_school":false,"id":"BY-6772","lat":49.662638,"lon":11.034559,"name":"Volksschule Baiersdorf","official_id":"6772","phone":"09133 3241","school_type":"Grundschule","school_type_entity":"Grundschule","state":"BY"},{"address":"Veit-Stoß-Str. 49 91154 Roth","fax":"09171 898171","full_time_school":false,"id":"BY-6677","lat":49.257835,"lon":11.0846,"name":"Volksschule Roth - Nordring","official_id":"6677","phone":"09171 975690","school_type":"Grundschule","school_type_entity":"Grundschule","state":"BY"},{"address":"Martin-Luther-Str. 2 91207 Lauf","fax":"09123 83890","full_time_school":false,"id":"BY-6847","lat":49.502911,"lon":11.281213,"name":"Bertlein-Volksschule II Lauf a.d.Pegnitz","official_id":"6847","phone":"09123 96948-10","school_type":"Grundschule","school_type_entity":"Grundschule","state":"BY"},{"address":"Schulstr. 21 91245 Simmelsdorf Bühl","fax":"09155 927711","full_time_school":false,"id":"BY-6867","lat":49.04366,"lon":9.910573,"name":"Volksschule Bühl","official_id":"6867","phone":"09155 927710","school_type":"Grundschule","school_type_entity":"Grundschule","state":"BY"},{"address":"Konradstraße 36 91301 Forchheim","fax":"09191 64241","full_time_school":false,"id":"BY-5723","lat":49.72495,"lon":11.071276,"name":"Anna-Volksschule Forchheim","official_id":"5723","phone":"09191 14489","school_type":"Grundschule","school_type_entity":"Grundschule","state":"BY"},{"address":"Wunderburg 4 91353 Hausen","fax":"09191 33174","full_time_school":false,"id":"BY-5729","lat":49.688707,"lon":11.034635,"name":"Volksschule Hausen","official_id":"5729","phone":"09191 31628","school_type":"Grundschule","school_type_entity":"Grundschule","state":"BY"},{"address":"Comeniusstr. 2 91413 Neustadt a.d.Aisch","fax":"09161 874601","full_time_school":false,"id":"BY-6892","lat":49.574164,"lon":10.611524,"name":"Volksschule Neustadt a.d.Aisch  (Grundschule II)","official_id":"6892","phone":"09161 874600","school_type":"Grundschule","school_type_entity":"Grundschule","state":"BY"},{"address":"Fürstenstraße 2 91522 Ansbach","fax":"0981 86896","full_time_school":false,"id":"BY-6503","lat":49.31602,"lon":10.581527,"name":"Volksschule Ansbach-Hennenbach","official_id":"6503","phone":"0981 84142","school_type":"Grundschule","school_type_entity":"Grundschule","state":"BY"},{"address":"Alte Promenade 24 - 26 91550 Dinkelsbühl","fax":"09851 53787","full_time_school":false,"id":"BY-6711","lat":49.06513,"lon":10.318278,"name":"Christoph-von-Schmid-Volksschule Dinkelsbühl","official_id":"6711","phone":"09851 554647","school_type":"Grundschule","school_type_entity":"Grundschule","state":"BY"},{"address":"Bahnhofweg 5 91607 Gebsattel","fax":"09861 931017","full_time_school":false,"id":"BY-6722","lat":49.35337,"lon":10.199061,"name":"Volksschule Gebsattel-Insingen-Neusitz","official_id":"6722","phone":"09861 931057","school_type":"Grundschule","school_type_entity":"Grundschule","state":"BY"},{"address":"Hindenburgplatz 2 91710 Gunzenhausen","fax":"09831 5006444","full_time_school":false,"id":"BY-6961","lat":49.117182,"lon":10.75921,"name":"Stephani-Volksschule Gunzenhausen","official_id":"6961","phone":"09831 5006-0","school_type":"Grundschule","school_type_entity":"Grundschule","state":"BY"},{"address":"Altstadt 5 91737 Ornbau","fax":"09826 659940","full_time_school":false,"id":"BY-6741","lat":49.176158,"lon":10.655581,"name":"Volksschule Ornbau","official_id":"6741","phone":"09826 480","school_type":"Grundschule","school_type_entity":"Grundschule","state":"BY"},{"address":"Ringstraße 45 91785 Pleinfeld","fax":"09144 9270380","full_time_school":false,"id":"BY-6973","lat":49.105173,"lon":10.982001,"name":"Volksschule Pleinfeld","official_id":"6973","phone":"09144 92703-0","school_type":"Grundschule","school_type_entity":"Grundschule","state":"BY"},{"address":"Konrad-Mayer-Straße 2 92237 Sulzbach-Rosenberg","fax":"09661 53511","full_time_school":false,"id":"BY-4614","lat":49.500054,"lon":11.747226,"name":"Pestalozzi-Volksschule Sulzbach-Rosenberg an der Konrad-Mayer-Straße","official_id":"4614","phone":"09661 4524","school_type":"Grundschule","school_type_entity":"Grundschule","state":"BY"},{"address":"Meisenweg 45 92318 Neumarkt","fax":"09181 2601008","full_time_school":false,"id":"BY-4701","lat":49.25345,"lon":11.461831,"name":"Volksschule Neumarkt i.d.OPf. in der Hasenheide","official_id":"4701","phone":"09181 9350","school_type":"Grundschule","school_type_entity":"Grundschule","state":"BY"},{"address":"Eschenbachstr. 1 92348 Berg Sindlbach","fax":"09189 7290","full_time_school":false,"id":"BY-4719","lat":49.363678,"lon":11.457144,"name":"Chunradus-Grundschule Sindlbach","official_id":"4719","phone":"09189 1284","school_type":"Grundschule","school_type_entity":"Grundschule","state":"BY"},{"address":"St.-Andreas-Straße 3 92421 Schwandorf","fax":"09431 43166","full_time_school":false,"id":"BY-4859","lat":49.34253,"lon":12.124459,"name":"Volksschule Schwandorf-Fronberg","official_id":"4859","phone":"09431 2297","school_type":"Grundschule","school_type_entity":"Grundschule","state":"BY"},{"address":"Hauptstraße 48 92555 Trausnitz","fax":"09655 8195","full_time_school":false,"id":"BY-4868","lat":49.524544,"lon":12.263936,"name":"Volksschule Trausnitz","official_id":"4868","phone":"09655 8195","school_type":"Grundschule","school_type_entity":"Grundschule","state":"BY"},{"address":"Bildstraße 5 92660 Neustadt","fax":"09602 918061","full_time_school":false,"id":"BY-4744","lat":49.726031,"lon":12.17318,"name":"Volksschule Neustadt a.d.Waldnaab","official_id":"4744","phone":"09602 8438","school_type":"Grundschule","school_type_entity":"Grundschule","state":"BY"},{"address":"Ossangerweg 29 92708 Mantel","fax":"09605 1243","full_time_school":false,"id":"BY-4742","lat":49.656353,"lon":12.043628,"name":"Volksschule Mantel","official_id":"4742","phone":"09605 505","school_type":"Grundschule","school_type_entity":"Grundschule","state":"BY"},{"address":"Klenzestr. 31 93051 Regensburg","fax":"0941 5073934","full_time_school":false,"id":"BY-4544","lat":49.004111,"lon":12.073271,"name":"Volksschule Regensburg-Königswiesen","official_id":"4544","phone":"0941 5073931","school_type":"Grundschule","school_type_entity":"Grundschule","state":"BY"},{"address":"Isarstr. 24 93057 Regensburg","fax":"0941 5072049","full_time_school":false,"id":"BY-4527","lat":49.032606,"lon":12.118533,"name":"Hans-Herrmann-Volksschule Regensburg","official_id":"4527","phone":"0941 5072046","school_type":"Grundschule","school_type_entity":"Grundschule","state":"BY"},{"address":"Gailsbacher Str. 1 93095 Hagelstadt","fax":"09453 999058","full_time_school":false,"id":"BY-4786","lat":48.895964,"lon":12.218535,"name":"Volksschule Hagelstadt","official_id":"4786","phone":"09453 1706","school_type":"Grundschule","school_type_entity":"Grundschule","state":"BY"},{"address":"Regensburger Str. 75 93142 Maxhütte-Haidhof","fax":"09471 6019112","full_time_school":false,"id":"BY-4838","lat":49.193951,"lon":12.097003,"name":"Volksschule Maxhütte-Haidhof","official_id":"4838","phone":"09471 60190","school_type":"Grundschule","school_type_entity":"Grundschule","state":"BY"},{"address":"Am Kirchberg 14 93180 Deuerling","fax":"09498 902318","full_time_school":false,"id":"BY-4779","lat":49.033872,"lon":11.906042,"name":"Volksschule Deuerling","official_id":"4779","phone":"09498 902316","school_type":"Grundschule","school_type_entity":"Grundschule","state":"BY"},{"address":"Schulstr. 9 93326 Abensberg Offenstetten","fax":"09443 905288","full_time_school":false,"id":"BY-3674","lat":48.802437,"lon":11.90927,"name":"Volksschule Offenstetten","official_id":"3674","phone":"09443 6297","school_type":"Grundschule","school_type_entity":"Grundschule","state":"BY"},{"address":"Hemauer Straße 7 93351 Painten","fax":"09499 563","full_time_school":false,"id":"BY-3675","lat":48.998699,"lon":11.810256,"name":"Volksschule Painten","official_id":"3675","phone":"09499 224","school_type":"Grundschule","school_type_entity":"Grundschule","state":"BY"},{"address":"Allee 8 93449 Waldmünchen","fax":"09972 903575","full_time_school":false,"id":"BY-4675","lat":49.379772,"lon":12.706034,"name":"Volksschule Waldmünchen","official_id":"4675","phone":"09972 252","school_type":"Grundschule","school_type_entity":"Grundschule","state":"BY"},{"address":"Pitzlinger Str. 1 93482 Pemfling","fax":"09971 801755","full_time_school":false,"id":"BY-4655","lat":49.263966,"lon":12.609935,"name":"Volksschule Pemfling","official_id":"4655","phone":"09971 9182","school_type":"Grundschule","school_type_entity":"Grundschule","state":"BY"},{"address":"Bozener Str. 11 94036 Passau","fax":"0851 52030","full_time_school":false,"id":"BY-3527","lat":48.557876,"lon":13.42294,"name":"Volksschule Passau-Haidenhof","official_id":"3527","phone":"0851 52180","school_type":"Grundschule","school_type_entity":"Grundschule","state":"BY"},{"address":"Kirchberg 6 94065 Waldkirchen Karlsbach","fax":"08581 620","full_time_school":false,"id":"BY-3631","lat":48.7635411,"lon":13.5746164,"name":"Volksschule Karlsbach","official_id":"3631","phone":"08581 620","school_type":"Grundschule","school_type_entity":"Grundschule","state":"BY"},{"address":"Dorfstr. 30 94107 Untergriesbach Schaibing","fax":"08593 6228","full_time_school":false,"id":"BY-3799","lat":48.600534,"lon":13.642404,"name":"Volksschule Schaibing","official_id":"3799","phone":"08593 1237","school_type":"Grundschule","school_type_entity":"Grundschule","state":"BY"},{"address":"Schulstr. 23 94145 Haidmühle Bischofsreut","fax":"08556 972757","full_time_school":false,"id":"BY-3617","lat":48.827083,"lon":13.77719,"name":"Volksschule Bischofsreut-Haidmühle","official_id":"3617","phone":"08556 331","school_type":"Grundschule","school_type_entity":"Grundschule","state":"BY"},{"address":"Schulstr. 3 94161 Ruderting","fax":"08509 7202","full_time_school":false,"id":"BY-3783","lat":48.65409,"lon":13.411858,"name":"Volksschule Ruderting","official_id":"3783","phone":"08509 448","school_type":"Grundschule","school_type_entity":"Grundschule","state":"BY"},{"address":"Max-Peinkofer-Weg 3 94253 Bischofsmais","fax":"09920 902105","full_time_school":false,"id":"BY-3817","lat":48.919836,"lon":13.082437,"name":"Volksschule Bischofsmais","official_id":"3817","phone":"09920 1202","school_type":"Grundschule","school_type_entity":"Grundschule","state":"BY"},{"address":"Niederalteicher Str. 13 94315 Straubing","fax":"09421 7899459","full_time_school":false,"id":"BY-3557","lat":48.881493,"lon":12.633241,"name":"Volksschule Straubing-Ittling","official_id":"3557","phone":"09421 63288","school_type":"Grundschule","school_type_entity":"Grundschule","state":"BY"},{"address":"Hauptstr. 6 94362 Neukirchen","full_time_school":false,"id":"BY-3913","lat":48.975157,"lon":12.753721,"name":"Volksschule Neukirchen","official_id":"3913","phone":"09961 6282","school_type":"Grundschule","school_type_entity":"Grundschule","state":"BY"},{"address":"Preysingstraße 21 94447 Plattling","fax":"09931 71526","full_time_school":false,"id":"BY-3601","lat":48.776974,"lon":12.865258,"name":"Volksschule Plattling","official_id":"3601","phone":"09931 6748","school_type":"Grundschule","school_type_entity":"Grundschule","state":"BY"},{"address":"Beutelsbacher Str. 12 94474 Vilshofen Aunkirchen","fax":"08543 1445","full_time_school":false,"id":"BY-3802","lat":48.598306,"lon":13.130281,"name":"Volksschule Vilshofen-Aunkirchen","official_id":"3802","phone":"08543 1445","school_type":"Grundschule","school_type_entity":"Grundschule","state":"BY"},{"address":"Kirchweg 17 94505 Bernried Edenstetten","fax":"09905 8714","full_time_school":false,"id":"BY-3580","lat":48.892084,"lon":12.925432,"name":"Volksschule Bernried","official_id":"3580","phone":"09905 353","school_type":"Grundschule","school_type_entity":"Grundschule","state":"BY"},{"address":"Schulstr. 7 - 9 94542 Haarbach","fax":"08535 1385","full_time_school":false,"id":"BY-3758","lat":48.501406,"lon":13.149595,"name":"Volksschule Haarbach","official_id":"3758","phone":"08535 310","school_type":"Grundschule","school_type_entity":"Grundschule","state":"BY"},{"address":"Kirchplatz 4 94554 Moos","fax":"09938 8238","full_time_school":false,"id":"BY-3590","lat":48.745068,"lon":12.952018,"name":"Volksschule Moos","official_id":"3590","phone":"09938 221","school_type":"Grundschule","school_type_entity":"Grundschule","state":"BY"},{"address":"Leimitzer Str. 56 95028 Hof","fax":"09281 478636","full_time_school":false,"id":"BY-5573","lat":50.316493,"lon":11.929265,"name":"Christian-Wolfrum-Volksschule Hof","official_id":"5573","phone":"09281 40036","school_type":"Grundschule","school_type_entity":"Grundschule","state":"BY"},{"address":"Wallstraße 13 95111 Rehau","fax":"09283 899564","full_time_school":false,"id":"BY-5767","lat":50.249389,"lon":12.037739,"name":"Pestalozzi-Volksschule Rehau II","official_id":"5767","phone":"09283 9778","school_type":"Grundschule","school_type_entity":"Grundschule","state":"BY"},{"address":"Am Mühlhügel 11 95179 Geroldsgrün","fax":"09288 1716","full_time_school":false,"id":"BY-5754","lat":50.340597,"lon":11.596778,"name":"Volksschule Geroldsgrün","official_id":"5754","phone":"09288 1706","school_type":"Grundschule","school_type_entity":"Grundschule","state":"BY"},{"address":"Beethovenstraße 10 95213 Münchberg","fax":"09251 3013","full_time_school":false,"id":"BY-5759","lat":50.187047,"lon":11.788106,"name":"Kreuzberg-Volksschule Münchberg","official_id":"5759","phone":"09251 3341","school_type":"Grundschule","school_type_entity":"Grundschule","state":"BY"},{"address":"Pestalozzistraße 29 95326 Kulmbach","fax":"09221 607602","full_time_school":false,"id":"BY-5824","lat":50.103417,"lon":11.44716,"name":"Pestalozzi-Volksschule Kulmbach","official_id":"5824","phone":"09221 74382","school_type":"Grundschule","school_type_entity":"Grundschule","state":"BY"},{"address":"Bodenseering 55 95445 Bayreuth","fax":"0921 735815","full_time_school":false,"id":"BY-5538","lat":49.938832,"lon":11.538484,"name":"Volksschule Bayreuth-Meyernberg","official_id":"5538","phone":"0921 73580","school_type":"Grundschule","school_type_entity":"Grundschule","state":"BY"},{"address":"Ringstraße 5 95502 Himmelkron","fax":"09227 973957","full_time_school":false,"id":"BY-5817","lat":50.065486,"lon":11.597806,"name":"Volksschule Himmelkron-Lanzendorf","official_id":"5817","phone":"09227 5136","school_type":"Grundschule","school_type_entity":"Grundschule","state":"BY"},{"address":"Kohllohstr. 8 95666 Mitterteich","fax":"09633 4680","full_time_school":false,"id":"BY-4892","lat":49.954439,"lon":12.244947,"name":"Theobald-Schrems-Volksschule Mitterteich","official_id":"4892","phone":"09633 4580","school_type":"Grundschule","school_type_entity":"Grundschule","state":"BY"},{"address":"Jahnstraße 1 95703 Plößberg","fax":"09636 1624","full_time_school":false,"id":"BY-4898","lat":49.786186,"lon":12.309886,"name":"Volksschule Plößberg","official_id":"4898","phone":"09636 342","school_type":"Grundschule","school_type_entity":"Grundschule","state":"BY"},{"address":"Memmelsdorfer Str. 7 a 96052 Bamberg","fax":"0951 9620609","full_time_school":false,"id":"BY-5508","lat":49.902374,"lon":10.889313,"name":"Luitpold-Volksschule Bamberg","official_id":"5508","phone":"0951 9620600","school_type":"Grundschule","school_type_entity":"Grundschule","state":"BY"},{"address":"Neudorfer Straße 8 96157 Ebrach","fax":"09553 921003","full_time_school":false,"id":"BY-5602","lat":49.848887,"lon":10.498038,"name":"Volksschule Ebrach","official_id":"5602","phone":"09553 290","school_type":"Grundschule","school_type_entity":"Grundschule","state":"BY"},{"address":"Marktplatz 24 96215 Lichtenfels","fax":"09571 940477","full_time_school":false,"id":"BY-5855","lat":50.146004,"lon":11.064955,"name":"Volksschule Lichtenfels am Markt","official_id":"5855","phone":"09571 940475","school_type":"Grundschule","school_type_entity":"Grundschule","state":"BY"},{"address":"Schulstr. 32 96269 Großheirath","fax":"09565 610847","full_time_school":false,"id":"BY-5685","lat":50.169852,"lon":10.945923,"name":"Volksschule Großheirath","official_id":"5685","phone":"09565 1596","school_type":"Grundschule","school_type_entity":"Grundschule","state":"BY"},{"address":"Schützenstr. 35 b 96346 Wallenfels","fax":"09262 972238","full_time_school":false,"id":"BY-5806","lat":50.270829,"lon":11.465323,"name":"Volksschule Wallenfels","official_id":"5806","phone":"09262 341","school_type":"Grundschule","school_type_entity":"Grundschule","state":"BY"},{"address":"Seidmannsdorfer Straße 72 96450 Coburg","fax":"09561 279227","full_time_school":false,"id":"BY-5558","lat":50.253062,"lon":10.976662,"name":"Pestalozzi-Volksschule Coburg","official_id":"5558","phone":"09561 27920","school_type":"Grundschule","school_type_entity":"Grundschule","state":"BY"},{"address":"Von-Luxburg-Str. 3 97074 Würzburg","fax":"0931 7953384","full_time_school":false,"id":"BY-7551","lat":49.785848,"lon":9.952076,"name":"Goethe/Kepler-Volksschule Würzburg","official_id":"7551","phone":"0931 7953380","school_type":"Grundschule","school_type_entity":"Grundschule","state":"BY"},{"address":"Günterslebener Str. 41 97209 Veitshöchheim","fax":"0931 45232633","full_time_school":false,"id":"BY-7972","lat":49.831204,"lon":9.883075,"name":"Volksschule Veitshöchheim","official_id":"7972","phone":"0931 45232630","school_type":"Grundschule","school_type_entity":"Grundschule","state":"BY"},{"address":"Schulring 11 97246 Eibelstadt","fax":"09303 980675","full_time_school":false,"id":"BY-7930","lat":49.725636,"lon":10.002169,"name":"Volksschule Eibelstadt","official_id":"7930","phone":"09303 382","school_type":"Grundschule","school_type_entity":"Grundschule","state":"BY"},{"address":"Reisgrube 17 97288 Theilheim","full_time_school":false,"id":"BY-7966","lat":49.753633,"lon":10.025581,"name":"Volksschule Theilheim","official_id":"7966","phone":"09303 487","school_type":"Grundschule","school_type_entity":"Grundschule","state":"BY"},{"address":"Schulstr. 4 97348 Markt Einersheim","fax":"09326 902257","full_time_school":false,"id":"BY-7777","lat":49.686429,"lon":10.288607,"name":"Volksschule Hellmitzheimer Bucht Markt Einersheim","official_id":"7777","phone":"09326 8736","school_type":"Grundschule","school_type_entity":"Grundschule","state":"BY"},{"address":"Gunnar-Wester-Str. 9 97421 Schweinfurt","fax":"09721 51940","full_time_school":false,"id":"BY-7529","lat":50.040522,"lon":10.228274,"name":"Friedrich-Rückert-Volksschule Schweinfurt","official_id":"7529","phone":"09721 51942","school_type":"Grundschule","school_type_entity":"Grundschule","state":"BY"},{"address":"Schönbornstr. 40 97440 Werneck","fax":"09722 9490416","full_time_school":false,"id":"BY-7917","lat":49.985188,"lon":10.099658,"name":"Balthasar-Neumann-Volksschule Werneck","official_id":"7917","phone":"09722 949040","school_type":"Grundschule","school_type_entity":"Grundschule","state":"BY"},{"address":"Schulstr. 2 97499 Donnersdorf Traustadt","fax":"09528 950175","full_time_school":false,"id":"BY-7913","lat":49.937338,"lon":10.411086,"name":"Volksschule Am Zabelstein Donnersdorf","official_id":"7913","phone":"09528 950166","school_type":"Grundschule","school_type_entity":"Grundschule","state":"BY"},{"address":"Schulstraße 20 97525 Schwebheim","fax":"09723 912332","full_time_school":false,"id":"BY-7907","lat":49.998472,"lon":10.251425,"name":"Volksschule Schwebheim","official_id":"7907","phone":"09723 912322","school_type":"Grundschule","school_type_entity":"Grundschule","state":"BY"},{"address":"Schulstr. 20 97618 Wollbach","fax":"09773 6870","full_time_school":false,"id":"BY-7720","lat":50.362393,"lon":10.224927,"name":"Volksschule Wollbach","official_id":"7720","phone":"09773 6260","school_type":"Grundschule","school_type_entity":"Grundschule","state":"BY"},{"address":"Platz der Heimattreue 1 97688 Bad Kissingen","fax":"0971 7854929","full_time_school":false,"id":"BY-7649","lat":50.204408,"lon":10.078061,"name":"Anton-Kliegl-Volksschule Bad Kissingen","official_id":"7649","phone":"0971 7854920","school_type":"Grundschule","school_type_entity":"Grundschule","state":"BY"},{"address":"Jahnstraße 12 97724 Burglauer","fax":"09733 6539","full_time_school":false,"id":"BY-7654","lat":50.273109,"lon":10.180386,"name":"Volksschule Burglauer","official_id":"7654","phone":"09733 9688","school_type":"Grundschule","school_type_entity":"Grundschule","state":"BY"},{"address":"Friedrich-Müller-Straße 19 97762 Hammelburg","fax":"09732 4555","full_time_school":false,"id":"BY-7662","lat":50.112785,"lon":9.891936,"name":"Volksschule Hammelburg","official_id":"7662","phone":"09732 4524","school_type":"Grundschule","school_type_entity":"Grundschule","state":"BY"},{"address":"Kaplan-Höfling-Str. 16 97816 Lohr","fax":"09352 508886","full_time_school":false,"id":"BY-7853","lat":49.992976,"lon":9.57444,"name":"Volksschule Lohr a.Main","official_id":"7853","phone":"09352 508884","school_type":"Grundschule","school_type_entity":"Grundschule","state":"BY"},{"address":"Waldzeller Str. 11 97854 Steinfeld","fax":"09359 90198","full_time_school":false,"id":"BY-7869","lat":49.952154,"lon":9.665699,"name":"Volksschule Steinfeld","official_id":"7869","phone":"09359 361","school_type":"Grundschule","school_type_entity":"Grundschule","state":"BY"},{"address":"Schulstr. 4 97904 Dorfprozelten","fax":"09392 98997","full_time_school":false,"id":"BY-7798","lat":49.775706,"lon":9.382922,"name":"Volksschule Dorfprozelten/Stadtprozelten","official_id":"7798","phone":"09392 98996","school_type":"Grundschule","school_type_entity":"Grundschule","state":"BY"},{"address":"Jahnstraße 4 97903 Collenberg","fax":"09376 9740059","full_time_school":false,"id":"BY-7797","lat":49.77484,"lon":9.328832,"name":"Volksschule Collenberg","official_id":"7797","phone":"09376 484","school_type":"Grundschule","school_type_entity":"Grundschule","state":"BY"},{"address":"Schulstr. 12 97859 Wiesthal","fax":"06020 2877","full_time_school":false,"id":"BY-7876","lat":50.029267,"lon":9.427439,"name":"Volksschule Wiesthal","official_id":"7876","phone":"06020 425","school_type":"Grundschule","school_type_entity":"Grundschule","state":"BY"},{"address":"Schulstr. 8 97857 Urspringen","fax":"09396 993865","full_time_school":false,"id":"BY-7872","lat":49.904139,"lon":9.672828,"name":"Volksschule Urspringen","official_id":"7872","phone":"09396 371","school_type":"Grundschule","school_type_entity":"Grundschule","state":"BY"},{"address":"Spessartstr. 20 97855 Triefenstein Lengfurt","fax":"09395 997870","full_time_school":false,"id":"BY-7852","lat":49.815681,"lon":9.593936,"name":"Volksschule Triefenstein","official_id":"7852","phone":"09395 484","school_type":"Grundschule","school_type_entity":"Grundschule","state":"BY"},{"address":"Schulstraße 10 97846 Partenstein","fax":"09355 99967","full_time_school":false,"id":"BY-7863","lat":50.041916,"lon":9.521521,"name":"Volksschule Partenstein","official_id":"7863","phone":"09355 1888","school_type":"Grundschule","school_type_entity":"Grundschule","state":"BY"},{"address":"Schulstr. 8 97842 Karbach","fax":"09391 8916","full_time_school":false,"id":"BY-7845","lat":49.868656,"lon":9.639349,"name":"Volksschule Karbach","official_id":"7845","phone":"09391 1752","school_type":"Grundschule","school_type_entity":"Grundschule","state":"BY"},{"address":"Herrngasse 6 97840 Hafenlohr","fax":"09391 6156","full_time_school":false,"id":"BY-7844","lat":49.870419,"lon":9.601223,"name":"Volksschule Hafenlohr","official_id":"7844","phone":"09391 3901","school_type":"Grundschule","school_type_entity":"Grundschule","state":"BY"},{"address":"Schulstraße 7 97837 Erlenbach","fax":"09391 919811","full_time_school":false,"id":"BY-7836","lat":49.819002,"lon":9.63102,"name":"Volksschule Erlenbach b.Marktheidenfeld","official_id":"7836","phone":"09391 2261","school_type":"Grundschule","school_type_entity":"Grundschule","state":"BY"},{"address":"Ludwigstraße 29 97828 Marktheidenfeld","fax":"09391 81708","full_time_school":false,"id":"BY-7860","lat":49.845282,"lon":9.611811,"name":"Friedrich-Fleischmann-Volksschule Marktheidenfeld","official_id":"7860","phone":"09391 5864","school_type":"Grundschule","school_type_entity":"Grundschule","state":"BY"},{"address":"Bachstr. 32 97816 Lohr Wombach","fax":"09352 807293","full_time_school":false,"id":"BY-7859","lat":49.975502,"lon":9.566268,"name":"Volksschule Lohr a.Main-Wombach","official_id":"7859","phone":"09352 1354","school_type":"Grundschule","school_type_entity":"Grundschule","state":"BY"},{"address":"Zeiläckerweg 1 97816 Lohr Sackenbach","fax":"09352 807291","full_time_school":false,"id":"BY-7857","lat":50.004687,"lon":9.5914739,"name":"Volksschule Lohr a.Main-Sackenbach","official_id":"7857","phone":"09352 2736","school_type":"Grundschule","school_type_entity":"Grundschule","state":"BY"},{"address":"Ostlandstr. 19 97816 Lohr Sendelbach","fax":"09352 807244","full_time_school":false,"id":"BY-7855","lat":49.99215,"lon":9.588984,"name":"Volksschule Lohr a.Main-Sendelbach","official_id":"7855","phone":"09352 2872","school_type":"Grundschule","school_type_entity":"Grundschule","state":"BY"},{"address":"Raiffeisen Str. 36 97799 Zeitlofs","fax":"09746 347","full_time_school":false,"id":"BY-7684","lat":50.260065,"lon":9.666733,"name":"Volksschule Zeitlofs","official_id":"7684","phone":"09746 347","school_type":"Grundschule","school_type_entity":"Grundschule","state":"BY"},{"address":"Gerstenberg 8 97797 Wartmannsroth Dittlofsroda","fax":"09357 992012","full_time_school":false,"id":"BY-7657","lat":50.15372,"lon":9.7635,"name":"Volksschule Wartmannsroth","official_id":"7657","phone":"09357 682","school_type":"Grundschule","school_type_entity":"Grundschule","state":"BY"},{"address":"Lamperweg 3 97794 Rieneck","fax":"09354 398","full_time_school":false,"id":"BY-7866","lat":50.092927,"lon":9.644003,"name":"Volksschule Rieneck","official_id":"7866","phone":"09354 398","school_type":"Grundschule","school_type_entity":"Grundschule","state":"BY"},{"address":"Kirchstr. 11 97792 Riedenberg","fax":"09749 289","full_time_school":false,"id":"BY-7679","lat":50.320135,"lon":9.862587,"name":"Volksschule Riedenberg","official_id":"7679","phone":"09749 289","school_type":"Grundschule","school_type_entity":"Grundschule","state":"BY"},{"address":"Schulstr. 11 97789 Oberleichtersbach","fax":"09741 2637","full_time_school":false,"id":"BY-7674","lat":50.271552,"lon":9.805524,"name":"Volksschule Oberleichtersbach","official_id":"7674","phone":"09741 3103","school_type":"Grundschule","school_type_entity":"Grundschule","state":"BY"},{"address":"Am Kirchberg 10 97786 Motten Kothen","fax":"09748 9282","full_time_school":false,"id":"BY-7669","lat":50.396341,"lon":9.772406,"name":"Volksschule Motten","official_id":"7669","phone":"09748 9281","school_type":"Grundschule","school_type_entity":"Grundschule","state":"BY"},{"address":"Am Forsthaus 3 97782 Gräfendorf","fax":"09357 992201","full_time_school":false,"id":"BY-7843","lat":50.122939,"lon":9.744095,"name":"Volksschule Gräfendorf","official_id":"7843","phone":"09357 992200","school_type":"Grundschule","school_type_entity":"Grundschule","state":"BY"},{"address":"Hauptstr. 29 a 97780 Gössenheim","fax":"09358 901077","full_time_school":false,"id":"BY-7842","lat":50.020283,"lon":9.780932,"name":"Volksschule Gössenheim","official_id":"7842","phone":"09358 262","school_type":"Grundschule","school_type_entity":"Grundschule","state":"BY"},{"address":"Hauptstr. 1 97773 Aura","fax":"09356 933690","full_time_school":false,"id":"BY-7834","lat":50.175805,"lon":9.574477,"name":"Volksschule Aura i.Sinngrund","official_id":"7834","phone":"09356 5362","school_type":"Grundschule","school_type_entity":"Grundschule","state":"BY"},{"address":"Am Kleinen Steinbusch 8 97769 Bad Brückenau","fax":"09741 3729","full_time_school":false,"id":"BY-7648","lat":50.304322,"lon":9.787094,"name":"Volksschule Bad Brückenau","official_id":"7648","phone":"09741 2197","school_type":"Grundschule","school_type_entity":"Grundschule","state":"BY"},{"address":"Schloßgartenweg 3 97753 Karlstadt Wiesenfeld","fax":"09359 909719","full_time_school":false,"id":"BY-7875","lat":49.970431,"lon":9.6992896,"name":"Volksschule Karlstadt-Wiesenfeld/Karlburg","official_id":"7875","phone":"09359 301","school_type":"Grundschule","school_type_entity":"Grundschule","state":"BY"},{"address":"Ostlandstraße 25 97753 Karlstadt","fax":"09353 996938","full_time_school":false,"id":"BY-7847","lat":49.961219,"lon":9.776716,"name":"Volksschule Karlstadt","official_id":"7847","phone":"09353 8191","school_type":"Grundschule","school_type_entity":"Grundschule","state":"BY"},{"address":"Artfeldstr. 12 97737 Gemünden Wernfeld","fax":"09351 8824","full_time_school":false,"id":"BY-7873","lat":50.024275,"lon":9.72725,"name":"Volksschule Gemünden a. Main-Wernfeld","official_id":"7873","phone":"09351 8824","school_type":"Grundschule","school_type_entity":"Grundschule","state":"BY"},{"address":"Schulgasse 4 97737 Gemünden Langenprozelten","fax":"09351 3106","full_time_school":false,"id":"BY-7850","lat":50.061588,"lon":9.654794,"name":"Volksschule Gemünden-Langenprozelten","official_id":"7850","phone":"09351 3106","school_type":"Grundschule","school_type_entity":"Grundschule","state":"BY"},{"address":"Hofweg 4 97737 Gemünden","fax":"09351 601649","full_time_school":false,"id":"BY-7840","lat":50.04972,"lon":9.70556,"name":"Volksschule Gemünden a.Main","official_id":"7840","phone":"09351 3535","school_type":"Grundschule","school_type_entity":"Grundschule","state":"BY"},{"address":"Leiten 10 97711 Thundorf Rothhausen","fax":"09724 1753","full_time_school":false,"id":"BY-7683","lat":50.185658,"lon":10.325847,"name":"Volksschule Thundorf i.UFr.","official_id":"7683","phone":"09724 1752","school_type":"Grundschule","school_type_entity":"Grundschule","state":"BY"},{"address":"Wermerichshäuser Weg 14 97711 Maßbach Poppenlauer","fax":"09733 4268","full_time_school":false,"id":"BY-7667","lat":50.21629,"lon":10.240107,"name":"Volksschule Maßbach-Poppenlauer","official_id":"7667","phone":"09733 9401","school_type":"Grundschule","school_type_entity":"Grundschule","state":"BY"},{"address":"Steinbergstr. 44 97705 Burkardroth Premich","fax":"09701 8633","full_time_school":false,"id":"BY-7677","lat":50.302332,"lon":10.019102,"name":"Volksschule Burkardroth","official_id":"7677","phone":"09701 383","school_type":"Grundschule","school_type_entity":"Grundschule","state":"BY"},{"address":"Ringweg 31 97702 Münnerstadt-Seubrigshausen Großwenkheim","fax":"09766 1653","full_time_school":false,"id":"BY-7672","lat":50.229025,"lon":10.328293,"name":"Volksschule Münnerstadt-Großwenkheim","official_id":"7672","phone":"09766 477","school_type":"Grundschule","school_type_entity":"Grundschule","state":"BY"},{"address":"Schützenstraße 28 97702 Münnerstadt","fax":"09733 810220","full_time_school":false,"id":"BY-7670","lat":50.246695,"lon":10.203538,"name":"Freiherr-von-Lutz-Volksschule Münnerstadt","official_id":"7670","phone":"09733 810211","school_type":"Grundschule","school_type_entity":"Grundschule","state":"BY"},{"address":"Baptist-Hoffmann-Str. 14 97688 Bad Kissingen Garitz","fax":"0971 60573","full_time_school":false,"id":"BY-7651","lat":50.191626,"lon":10.057134,"name":"Henneberg-Volksschule Bad Kissingen-Garitz","official_id":"7651","phone":"0971 5725","school_type":"Grundschule","school_type_entity":"Grundschule","state":"BY"},{"address":"Kreuzbergstraße 97657 Sandberg","fax":"09701 9212","full_time_school":false,"id":"BY-7715","lat":50.348105,"lon":10.007294,"name":"Volksschule Sandberg","official_id":"7715","phone":"09701 9210","school_type":"Grundschule","school_type_entity":"Grundschule","state":"BY"},{"address":"Neumühlenweg 2 97656 Oberelsbach Weisbach","fax":"09774 9234","full_time_school":false,"id":"BY-7709","lat":50.424896,"lon":10.078357,"name":"Valentin-Rathgeber-Volksschule Oberelsbach","official_id":"7709","phone":"09774 9233","school_type":"Grundschule","school_type_entity":"Grundschule","state":"BY"},{"address":"Schulstr. 8 97654 Bastheim","fax":"09773 1786","full_time_school":false,"id":"BY-7695","lat":50.398941,"lon":10.204833,"name":"Volksschule Besengau-Bastheim","official_id":"7695","phone":"09773 434","school_type":"Grundschule","school_type_entity":"Grundschule","state":"BY"},{"address":"Schulstr. 5 97647 Nordheim","fax":"09779 1897","full_time_school":false,"id":"BY-7708","lat":50.479698,"lon":10.186167,"name":"Volksschule Nordheim v.d.Rhön","official_id":"7708","phone":"09779 330","school_type":"Grundschule","school_type_entity":"Grundschule","state":"BY"},{"address":"Ritter-von-Halt-Str. 1 97645 Ostheim","fax":"09777 9216","full_time_school":false,"id":"BY-7711","lat":50.460738,"lon":10.232617,"name":"Volksschule Ostheim v.d.Rhön","official_id":"7711","phone":"09777 9215","school_type":"Grundschule","school_type_entity":"Grundschule","state":"BY"},{"address":"Gartenstr. 1 97640 Oberstreu Mittelstreu","fax":"09773 5192","full_time_school":false,"id":"BY-7710","lat":50.391464,"lon":10.271878,"name":"Volksschule Oberstreu","official_id":"7710","phone":"09773 1279","school_type":"Grundschule","school_type_entity":"Grundschule","state":"BY"},{"address":"Friedenstr. 22 97638 Mellrichstadt","fax":"09776 7413","full_time_school":false,"id":"BY-7706","lat":50.428143,"lon":10.304687,"name":"Volksschule Mellrichstadt","official_id":"7706","phone":"09776 277","school_type":"Grundschule","school_type_entity":"Grundschule","state":"BY"},{"address":"Schulstr. 2 97633 Sulzfeld","fax":"09761 397309","full_time_school":false,"id":"BY-7764","lat":50.263198,"lon":10.406558,"name":"Volksschule Sulzfeld","official_id":"7764","phone":"09761 2502","school_type":"Grundschule","school_type_entity":"Grundschule","state":"BY"},{"address":"Marktplatz 1 97633 Saal","fax":"09762 6197","full_time_school":false,"id":"BY-7713","lat":50.31692,"lon":10.356063,"name":"Volksschule Saaletal in Saal a.d. Saale","official_id":"7713","phone":"09762 6117","school_type":"Grundschule","school_type_entity":"Grundschule","state":"BY"},{"address":"Schulstr. 8 97633 Aubstadt","fax":"09761 5585","full_time_school":false,"id":"BY-7691","lat":50.330437,"lon":10.434088,"name":"Volksschule Milzgrund in Aubstadt","official_id":"7691","phone":"09761 2602","school_type":"Grundschule","school_type_entity":"Grundschule","state":"BY"},{"address":"Schulstr. 5 97618 Hollstadt","fax":"09773 763","full_time_school":false,"id":"BY-7703","lat":50.354731,"lon":10.287175,"name":"Volksschule Hollstadt","official_id":"7703","phone":"09773 6621","school_type":"Grundschule","school_type_entity":"Grundschule","state":"BY"},{"address":"Hirtshorn 2 97616 Salz","fax":"09771 994181","full_time_school":false,"id":"BY-7714","lat":50.306053,"lon":10.215672,"name":"Karl-Straub-Volksschule Salz","official_id":"7714","phone":"09771 3567","school_type":"Grundschule","school_type_entity":"Grundschule","state":"BY"},{"address":"Valentin-Rathgeber-Str. 1-3 97616 Bad Neustadt Brendlorenzen","fax":"09771 994139","full_time_school":false,"id":"BY-7697","lat":50.332689,"lon":10.211537,"name":"Volksschule Bad Neustadt a.d.Saale-Brendlorenzen","official_id":"7697","phone":"09771 3263","school_type":"Grundschule","school_type_entity":"Grundschule","state":"BY"},{"address":"Kirchstraße 16 97616 Bad Neustadt Herschfeld","fax":"09771 994119","full_time_school":false,"id":"BY-7694","lat":49.35225,"lon":8.149619,"name":"Volksschule Bad Neustadt a.d.Saale-Herschfeld","official_id":"7694","phone":"09771 2374","school_type":"Grundschule","school_type_entity":"Grundschule","state":"BY"},{"address":"Rhönblick 15 97616 Bad Neustadt","fax":"09771 994130","full_time_school":false,"id":"BY-7692","lat":50.323988,"lon":10.20509,"name":"Karl-Ludwig-von-Guttenberg-Volksschule Bad Neustadt a.d.Saale","official_id":"7692","phone":"09771 2534","school_type":"Grundschule","school_type_entity":"Grundschule","state":"BY"},{"address":"Friedhofstraße 14 97535 Wasserlosen","fax":"09726 8424","full_time_school":false,"id":"BY-7926","lat":50.096581,"lon":10.030112,"name":"Volksschule Wasserlosen","official_id":"7926","phone":"09726 3869","school_type":"Grundschule","school_type_entity":"Grundschule","state":"BY"},{"address":"Gartenstraße 2 97526 Sennfeld","fax":"09721 60150","full_time_school":false,"id":"BY-7908","lat":50.039188,"lon":10.257101,"name":"Volksschule Sennfeld","official_id":"7908","phone":"09721 60150","school_type":"Grundschule","school_type_entity":"Grundschule","state":"BY"},{"address":"Schulstr. 4 - 6 97523 Schwanfeld","fax":"09384 8649","full_time_school":false,"id":"BY-7905","lat":49.919177,"lon":10.140499,"name":"Volksschule Schwanfeld","official_id":"7905","phone":"09384 253","school_type":"Grundschule","school_type_entity":"Grundschule","state":"BY"},{"address":"Friedhofstr. 1 97520 Röthlein","fax":"09723 5966","full_time_school":false,"id":"BY-7903","lat":49.988526,"lon":10.216927,"name":"Volksschule Röthlein","official_id":"7903","phone":"09723 1519","school_type":"Grundschule","school_type_entity":"Grundschule","state":"BY"},{"address":"Am Sportzentrum 4 97514 Oberaurach Trossenfurt","fax":"09522 950837","full_time_school":false,"id":"BY-7750","lat":49.924194,"lon":10.660636,"name":"Volksschule Oberaurach","official_id":"7750","phone":"09522 328","school_type":"Grundschule","school_type_entity":"Grundschule","state":"BY"},{"address":"Schulweg 15 97509 Kolitzheim Herlheim","fax":"09382 3733","full_time_school":false,"id":"BY-7915","lat":49.9067164,"lon":10.2692244,"name":"Volksschule Kolitzheim","official_id":"7915","phone":"09382 8388","school_type":"Grundschule","school_type_entity":"Grundschule","state":"BY"},{"address":"Kirchgasse 11 97508 Grettstadt","fax":"09729 7297","full_time_school":false,"id":"BY-7894","lat":49.985521,"lon":10.313298,"name":"Volksschule Grettstadt","official_id":"7894","phone":"09729 7204","school_type":"Grundschule","school_type_entity":"Grundschule","state":"BY"},{"address":"Hermasweg 1 b 97506 Grafenrheinfeld","fax":"09723 5965","full_time_school":false,"id":"BY-7893","lat":50.005984,"lon":10.20193,"name":"Theresia-Gerhardinger-Volksschule Grafenrheinfeld","official_id":"7893","phone":"09723 1422","school_type":"Grundschule","school_type_entity":"Grundschule","state":"BY"},{"address":"Schulstraße 1 97502 Euerbach","fax":"09726 915544","full_time_school":false,"id":"BY-7888","lat":50.060571,"lon":10.135764,"name":"Volksschule Euerbach","official_id":"7888","phone":"09726 435","school_type":"Grundschule","school_type_entity":"Grundschule","state":"BY"},{"address":"Georg-Schäfer-Str. 58 97500 Ebelsbach","fax":"09522 1228","full_time_school":false,"id":"BY-7729","lat":49.989156,"lon":10.683778,"name":"Volksschule Ebelsbach","official_id":"7729","phone":"09522 70492","school_type":"Grundschule","school_type_entity":"Grundschule","state":"BY"},{"address":"Fitzendorfer Str. 5 97496 Burgpreppach","fax":"09534 213","full_time_school":false,"id":"BY-7728","lat":50.13934,"lon":10.642398,"name":"Volksschule Burgpreppach","official_id":"7728","phone":"09534 272","school_type":"Grundschule","school_type_entity":"Grundschule","state":"BY"},{"address":"Schloßgasse 1 97493 Bergrheinfeld","fax":"09721 97312","full_time_school":false,"id":"BY-7883","lat":50.005287,"lon":10.179353,"name":"Julius-Echter-Volksschule in Bergrheinfeld","official_id":"7883","phone":"09721 90454","school_type":"Grundschule","school_type_entity":"Grundschule","state":"BY"},{"address":"Alleestr. 1 a 97486 Königsberg","fax":"09525 8358","full_time_school":false,"id":"BY-7740","lat":50.079894,"lon":10.566315,"name":"Regiomontanus-Volksschule Königsberg i.Bay.","official_id":"7740","phone":"09525 8481","school_type":"Grundschule","school_type_entity":"Grundschule","state":"BY"},{"address":"Oskar-Serrand-Straße 25 97483 Eltmann","fax":"09522 950311","full_time_school":false,"id":"BY-7732","lat":49.969205,"lon":10.663156,"name":"Johann-Baptist-Graser-Volksschule Eltmann","official_id":"7732","phone":"09522 950310","school_type":"Grundschule","school_type_entity":"Grundschule","state":"BY"},{"address":"Schulring 1 97475 Zeil","fax":"09524 94997","full_time_school":false,"id":"BY-7754","lat":50.011588,"lon":10.592933,"name":"Volksschule Zeil a.Main/Sand a.Main","official_id":"7754","phone":"09524 94992","school_type":"Grundschule","school_type_entity":"Grundschule","state":"BY"},{"address":"Adam-Riese-Str. 12 97469 Gochsheim","fax":"09721 6496210","full_time_school":false,"id":"BY-7891","lat":50.023261,"lon":10.288006,"name":"Volksschule Gochsheim","official_id":"7891","phone":"09721 6752930","school_type":"Grundschule","school_type_entity":"Grundschule","state":"BY"},{"address":"Johannisstr. 32 97461 Hofheim","fax":"09523 6149","full_time_school":false,"id":"BY-7735","lat":50.141226,"lon":10.519914,"name":"Volksschule Hofheim i.UFr.","official_id":"7735","phone":"09523 6038","school_type":"Grundschule","school_type_entity":"Grundschule","state":"BY"},{"address":"Schulweg 7 - 13 97453 Schonungen","fax":"09721 75173","full_time_school":false,"id":"BY-7904","lat":50.052131,"lon":10.303087,"name":"Volksschule Schonungen","official_id":"7904","phone":"09721 75172","school_type":"Grundschule","school_type_entity":"Grundschule","state":"BY"},{"address":"Schulstr. 7 97450 Arnstein Schwebenried","fax":"09728 241","full_time_school":false,"id":"BY-7868","lat":51.699099,"lon":11.457401,"name":"Volksschule Arnstein-Schwebenried","official_id":"7868","phone":"09728 241","school_type":"Grundschule","school_type_entity":"Grundschule","state":"BY"},{"address":"Schwebenrieder Str. 10 97450 Arnstein","fax":"09363 99059","full_time_school":false,"id":"BY-7832","lat":49.980196,"lon":9.972826,"name":"Volksschule Arnstein","official_id":"7832","phone":"09363 1789","school_type":"Grundschule","school_type_entity":"Grundschule","state":"BY"},{"address":"Lülsfelder Weg 6 97447 Gerolzhofen","fax":"09382 310071","full_time_school":false,"id":"BY-7890","lat":49.898196,"lon":10.349233,"name":"Volksschule Gerolzhofen","official_id":"7890","phone":"09382 310070","school_type":"Grundschule","school_type_entity":"Grundschule","state":"BY"},{"address":"Dürerweg 22 97437 Haßfurt","fax":"09521 944497","full_time_school":false,"id":"BY-7733","lat":50.035689,"lon":10.524605,"name":"Volksschule Haßfurt","official_id":"7733","phone":"09521 944455","school_type":"Grundschule","school_type_entity":"Grundschule","state":"BY"},{"address":"Kleinflürleinsweg 38 97424 Schweinfurt","fax":"09721 51950","full_time_school":false,"id":"BY-7531","lat":50.0593,"lon":10.216996,"name":"Gartenstadt-Volksschule Schweinfurt","official_id":"7531","phone":"09721 51952","school_type":"Grundschule","school_type_entity":"Grundschule","state":"BY"},{"address":"Fuchsgasse 1 97424 Schweinfurt","fax":"09721 7968553","full_time_school":false,"id":"BY-7528","lat":50.027817,"lon":10.205257,"name":"Dr.-Pfeiffer-Volksschule Schweinfurt","official_id":"7528","phone":"09721 7968552","school_type":"Grundschule","school_type_entity":"Grundschule","state":"BY"},{"address":"Albert-Schweitzer-Str. 3 97424 Schweinfurt","fax":"09721 51947","full_time_school":false,"id":"BY-7523","lat":50.039521,"lon":10.201932,"name":"Albert-Schweitzer-Volksschule Schweinfurt","official_id":"7523","phone":"09721 51949","school_type":"Grundschule","school_type_entity":"Grundschule","state":"BY"},{"address":"Deutschhöfer Str. 22 97422 Schweinfurt","fax":"09721 51879","full_time_school":false,"id":"BY-7535","lat":50.053331,"lon":10.231648,"name":"Schiller-Volksschule Schweinfurt","official_id":"7535","phone":"09721 51882","school_type":"Grundschule","school_type_entity":"Grundschule","state":"BY"},{"address":"Kerschensteinerstr. 2 97422 Schweinfurt","fax":"09721 51960","full_time_school":false,"id":"BY-7533","lat":50.059935,"lon":10.244145,"name":"Kerschensteiner-Volksschule Schweinfurt","official_id":"7533","phone":"09721 51962","school_type":"Grundschule","school_type_entity":"Grundschule","state":"BY"},{"address":"Gorch-Fock-Str. 1 a 97421 Schweinfurt","fax":"09721 84073","full_time_school":false,"id":"BY-7668","lat":50.052245,"lon":10.219176,"name":"Priv. Montessori-Volksschule","official_id":"7668","phone":"09721 85000","school_type":"Grundschule","school_type_entity":"Grundschule","state":"BY"},{"address":"Körnerstr. 1 97421 Schweinfurt","fax":"09721 51368","full_time_school":false,"id":"BY-7532","lat":50.046907,"lon":10.220793,"name":"Körner-Volksschule Schweinfurt","official_id":"7532","phone":"09721 51368","school_type":"Grundschule","school_type_entity":"Grundschule","state":"BY"},{"address":"Friedhofstr. 35 97421 Schweinfurt","fax":"09721 51970","full_time_school":false,"id":"BY-7526","lat":50.050699,"lon":10.223852,"name":"Auen-Volksschule Schweinfurt","official_id":"7526","phone":"09721 51973","school_type":"Grundschule","school_type_entity":"Grundschule","state":"BY"},{"address":"Schulstr. 2 97359 Schwarzach Münsterschwarzach","fax":"09324 3518","full_time_school":false,"id":"BY-7780","lat":49.381659,"lon":8.995912,"name":"Volksschule Schwarzacher Becken Schwarzach a.Main","official_id":"7780","phone":"09324 762","school_type":"Grundschule","school_type_entity":"Grundschule","state":"BY"},{"address":"Schulstr. 18 97355 Kleinlangheim","fax":"09325 233","full_time_school":false,"id":"BY-7772","lat":49.773884,"lon":10.279864,"name":"Volksschule Kleinlangheim","official_id":"7772","phone":"09325 210","school_type":"Grundschule","school_type_entity":"Grundschule","state":"BY"},{"address":"Holzgraben 13 97350 Mainbernheim","fax":"09323 6285","full_time_school":false,"id":"BY-7773","lat":49.711803,"lon":10.219378,"name":"Volksschule Mainbernheim","official_id":"7773","phone":"09323 1222","school_type":"Grundschule","school_type_entity":"Grundschule","state":"BY"},{"address":"Schulstr. 8 97348 Willanzheim","fax":"09323 870204","full_time_school":false,"id":"BY-7786","lat":49.681175,"lon":10.227559,"name":"Volksschule Willanzheim","official_id":"7786","phone":"09323 3058","school_type":"Grundschule","school_type_entity":"Grundschule","state":"BY"},{"address":"Bäckergasse 11 97340 Martinsheim","fax":"09332 590328","full_time_school":false,"id":"BY-7779","lat":49.624773,"lon":10.152038,"name":"Volksschule Martinsheim","official_id":"7779","phone":"09332 9206","school_type":"Grundschule","school_type_entity":"Grundschule","state":"BY"},{"address":"Fleischmannstr. 3 a 97340 Marktbreit","fax":"09332 4658","full_time_school":false,"id":"BY-7775","lat":49.66621,"lon":10.145907,"name":"Volksschule Marktbreit","official_id":"7775","phone":"09332 9535","school_type":"Grundschule","school_type_entity":"Grundschule","state":"BY"},{"address":"Raiffeisenstr. 9 97334 Sommerach","fax":"09381 717679","full_time_school":false,"id":"BY-7783","lat":49.831377,"lon":10.204381,"name":"Volksschule Sommerach","official_id":"7783","phone":"09381 2434","school_type":"Grundschule","school_type_entity":"Grundschule","state":"BY"},{"address":"Waldstr. 9 97320 Albertshofen","fax":"09321 384831","full_time_school":false,"id":"BY-7760","lat":49.766192,"lon":10.164297,"name":"Albert-Schweitzer-Volksschule Albertshofen","official_id":"7760","phone":"09321 31558","school_type":"Grundschule","school_type_entity":"Grundschule","state":"BY"},{"address":"Danziger Straße 1 97318 Kitzingen","fax":"09321 9305060","full_time_school":false,"id":"BY-7769","lat":49.729007,"lon":10.181834,"name":"Volksschule Kitzingen-Siedlung","official_id":"7769","phone":"09321 9305050","school_type":"Grundschule","school_type_entity":"Grundschule","state":"BY"},{"address":"Schulhof 3 97318 Kitzingen","fax":"09321 929904","full_time_school":false,"id":"BY-7767","lat":49.740861,"lon":10.160864,"name":"St.-Hedwig-Volksschule Kitzingen","official_id":"7767","phone":"09321 25444","school_type":"Grundschule","school_type_entity":"Grundschule","state":"BY"},{"address":"Schulstr. 6 97299 Zell","fax":"0931 462791","full_time_school":false,"id":"BY-7975","lat":49.809488,"lon":9.872905,"name":"Volksschule Zell a.Main","official_id":"7975","phone":"0931 462791","school_type":"Grundschule","school_type_entity":"Grundschule","state":"BY"},{"address":"Schulstraße 1 97291 Thüngersheim","fax":"09364 811925","full_time_school":false,"id":"BY-7967","lat":49.881804,"lon":9.84064,"name":"Volksschule Thüngersheim","official_id":"7967","phone":"09364 9643","school_type":"Grundschule","school_type_entity":"Grundschule","state":"BY"},{"address":"Frühlingsstr. 3 97289 Thüngen","fax":"09360 99998","full_time_school":false,"id":"BY-7871","lat":49.94222,"lon":9.85944,"name":"Volksschule Thüngen","official_id":"7871","phone":"09360 322","school_type":"Grundschule","school_type_entity":"Grundschule","state":"BY"},{"address":"Schulstr. 5 97285 Röttingen","fax":"09338 9801090","full_time_school":false,"id":"BY-7960","lat":49.509402,"lon":9.973562,"name":"Volksschule Röttingen","official_id":"7960","phone":"09338 302","school_type":"Grundschule","school_type_entity":"Grundschule","state":"BY"},{"address":"Schulstr. 1 97282 Retzstadt","fax":"09364 812040","full_time_school":false,"id":"BY-7516","lat":49.909305,"lon":9.875024,"name":"Volksschule Retzstadt","official_id":"7516","phone":"09364 9546","school_type":"Grundschule","school_type_entity":"Grundschule","state":"BY"},{"address":"F.-J.-Strauß-Straße 97274 Leinach","fax":"09364 812846","full_time_school":false,"id":"BY-7970","lat":49.86667,"lon":9.8,"name":"Volksschule Leinach","official_id":"7970","phone":"09364 5852","school_type":"Grundschule","school_type_entity":"Grundschule","state":"BY"},{"address":"An der Heiligen Wiese 97273 Kürnach","fax":"09367 2474","full_time_school":false,"id":"BY-7948","lat":49.85,"lon":10.03333,"name":"Volksschule Kürnach","official_id":"7948","phone":"09367 410","school_type":"Grundschule","school_type_entity":"Grundschule","state":"BY"},{"address":"Oskar-Popp-Str. 4 97270 Kist","fax":"09306 981829","full_time_school":false,"id":"BY-7946","lat":49.742926,"lon":9.841569,"name":"Volksschule Kist","official_id":"7946","phone":"09306 1622","school_type":"Grundschule","school_type_entity":"Grundschule","state":"BY"},{"address":"Rathausstr. 4 97268 Kirchheim","fax":"09366 990334","full_time_school":false,"id":"BY-7945","lat":49.656009,"lon":9.858963,"name":"Volksschule Kirchheim","official_id":"7945","phone":"09366 1566","school_type":"Grundschule","school_type_entity":"Grundschule","state":"BY"},{"address":"Brückenstr. 12a 97267 Himmelstadt","fax":"09364 896331","full_time_school":false,"id":"BY-7517","lat":49.922343,"lon":9.804596,"name":"Volksschule Himmelstadt","official_id":"7517","phone":"09364 896330","school_type":"Grundschule","school_type_entity":"Grundschule","state":"BY"},{"address":"Don-Bosco-Str. 1 97264 Helmstadt","fax":"09369 652","full_time_school":false,"id":"BY-7942","lat":49.764186,"lon":9.707904,"name":"Astrid-Lindgren-Volksschule Helmstadt","official_id":"7942","phone":"09369 651","school_type":"Grundschule","school_type_entity":"Grundschule","state":"BY"},{"address":"Schulstraße 2 97261 Güntersleben","fax":"09365 880251","full_time_school":false,"id":"BY-7940","lat":49.87068,"lon":9.903296,"name":"Ignatius-Gropp-Volksschule Güntersleben","official_id":"7940","phone":"09365 4224","school_type":"Grundschule","school_type_entity":"Grundschule","state":"BY"},{"address":"Am Königshof 18 97253 Gaukönigshofen Sonderhofen","fax":"09337 1041","full_time_school":false,"id":"BY-7965","lat":49.63214,"lon":10.001725,"name":"Volksschule Sonderhofen","official_id":"7965","phone":"09337 1040","school_type":"Grundschule","school_type_entity":"Grundschule","state":"BY"},{"address":"Geheusteige 17 97252 Frickenhausen","fax":"09331 803831","full_time_school":false,"id":"BY-7934","lat":49.672435,"lon":10.091173,"name":"Volksschule Frickenhausen a.Main","official_id":"7934","phone":"09331 3148","school_type":"Grundschule","school_type_entity":"Grundschule","state":"BY"},{"address":"Schulstr. 2 97249 Eisingen","fax":"09306 99571","full_time_school":false,"id":"BY-7931","lat":49.757613,"lon":9.829913,"name":"Volksschule Eisingen-Waldbrunn","official_id":"7931","phone":"09306 99570","school_type":"Grundschule","school_type_entity":"Grundschule","state":"BY"},{"address":"Simmringer Str. 20 97244 Bütthard","fax":"09336 997605","full_time_school":false,"id":"BY-7929","lat":49.594797,"lon":9.882874,"name":"Volksschule Bütthard","official_id":"7929","phone":"09336 336","school_type":"Grundschule","school_type_entity":"Grundschule","state":"BY"},{"address":"Frühlingstr. 10 97241 Bergtheim","fax":"09367 907676","full_time_school":false,"id":"BY-7928","lat":49.896093,"lon":10.06931,"name":"Volksschule Bergtheim Verbandsschule","official_id":"7928","phone":"09367 90760","school_type":"Grundschule","school_type_entity":"Grundschule","state":"BY"},{"address":"In der Peunt 1 97239 Aub","fax":"09335 430","full_time_school":false,"id":"BY-7927","lat":49.550312,"lon":10.061003,"name":"Volksschule Aub","official_id":"7927","phone":"09335 430","school_type":"Grundschule","school_type_entity":"Grundschule","state":"BY"},{"address":"Schulstraße 15 97236 Randersacker","fax":"0931 7059752","full_time_school":false,"id":"BY-7957","lat":49.7614,"lon":9.982975,"name":"Volksschule Randersacker","official_id":"7957","phone":"0931 706857","school_type":"Grundschule","school_type_entity":"Grundschule","state":"BY"},{"address":"Malzstr. 16 97234 Reichenberg","fax":"0931 6677995","full_time_school":false,"id":"BY-7958","lat":49.729805,"lon":9.91379,"name":"Volksschule Reichenberg","official_id":"7958","phone":"0931 69381","school_type":"Grundschule","school_type_entity":"Grundschule","state":"BY"},{"address":"Schulstraße 1 97232 Giebelstadt","fax":"09334 90845","full_time_school":false,"id":"BY-7938","lat":49.655065,"lon":9.945639,"name":"Volksschule Giebelstadt","official_id":"7938","phone":"09334 90844","school_type":"Grundschule","school_type_entity":"Grundschule","state":"BY"},{"address":"Riemenschneiderstraße 26 97230 Estenfeld","fax":"09305 9005040","full_time_school":false,"id":"BY-7933","lat":49.826612,"lon":10.005848,"name":"Volksschule Estenfeld","official_id":"7933","phone":"09305 88840","school_type":"Grundschule","school_type_entity":"Grundschule","state":"BY"},{"address":"Schulstr. 2 97228 Rottendorf","fax":"09302 990454","full_time_school":false,"id":"BY-7963","lat":49.793449,"lon":10.027568,"name":"Volksschule Rottendorf","official_id":"7963","phone":"09302 99995","school_type":"Grundschule","school_type_entity":"Grundschule","state":"BY"},{"address":"Schulplatz 10 97225 Zellingen","fax":"09364 811718","full_time_school":false,"id":"BY-7877","lat":49.899167,"lon":9.820551,"name":"Volksschule Zellingen","official_id":"7877","phone":"09364 2522","school_type":"Grundschule","school_type_entity":"Grundschule","state":"BY"},{"address":"Neue Siedlung 1 97222 Rimpar","fax":"09365 3000120","full_time_school":false,"id":"BY-7959","lat":49.851563,"lon":9.961547,"name":"Matthias-Ehrenfried-Volksschule Rimpar","official_id":"7959","phone":"09365 9708","school_type":"Grundschule","school_type_entity":"Grundschule","state":"BY"},{"address":"Schulstr. 2 - 4 97215 Uffenheim","fax":"09842 7805","full_time_school":false,"id":"BY-6907","lat":49.544795,"lon":10.223119,"name":"Volksschule Uffenheim","official_id":"6907","phone":"09842 7005","school_type":"Grundschule","school_type_entity":"Grundschule","state":"BY"},{"address":"Jahnstraße 1 97199 Ochsenfurt","full_time_school":false,"id":"BY-7955","lat":49.66377,"lon":10.067962,"name":"Volksschule Ochsenfurt","official_id":"7955","phone":"09331 3500","school_type":"Grundschule","school_type_entity":"Grundschule","state":"BY"},{"address":"Berner Str. 35 97084 Würzburg","fax":"0931 2600661","full_time_school":false,"id":"BY-7856","lat":49.73754,"lon":9.957338,"name":"Leonhard-Frank-Schule Würzburg-Heuchelhof/Rottenbauer","official_id":"7856","phone":"0931 6677680","school_type":"Grundschule","school_type_entity":"Grundschule","state":"BY"},{"address":"Römer Str. 1 97084 Würzburg","fax":"0931 6677632","full_time_school":false,"id":"BY-7572","lat":49.746732,"lon":9.959258,"name":"Volksschule Würzburg-Heuchelhof","official_id":"7572","phone":"0931 60224","school_type":"Grundschule","school_type_entity":"Grundschule","state":"BY"},{"address":"Winterhäuser Str. 1 97084 Würzburg","fax":"0931 2058150","full_time_school":false,"id":"BY-7567","lat":49.763257,"lon":9.954606,"name":"Walther-Volksschule Würzburg","official_id":"7567","phone":"0931 20581-40","school_type":"Grundschule","school_type_entity":"Grundschule","state":"BY"},{"address":"Waldkugelweg 3 97082 Würzburg","fax":"0931 2600676","full_time_school":false,"id":"BY-7566","lat":49.774279,"lon":9.92799,"name":"Steinbachtal-Burkarder-Volksschule Würzburg","official_id":"7566","phone":"0931 74716","school_type":"Grundschule","school_type_entity":"Grundschule","state":"BY"},{"address":"Friedrichstr. 9 97082 Würzburg","fax":"0931 2058220","full_time_school":false,"id":"BY-7546","lat":49.79651,"lon":9.914528,"name":"Adalbert-Stifter-Volksschule Würzburg-Zellerau","official_id":"7546","phone":"0931 2058214","school_type":"Grundschule","school_type_entity":"Grundschule","state":"BY"},{"address":"Unterdürrbacher Str. 280 97080 Würzburg","fax":"0931 2059775","full_time_school":false,"id":"BY-7969","lat":49.809243,"lon":9.913973,"name":"Volksschule Würzburg-Dürrbachgrund","official_id":"7969","phone":"0931 94150","school_type":"Grundschule","school_type_entity":"Grundschule","state":"BY"},{"address":"Steinheilstr. 30 97080 Würzburg","fax":"0931 2877747","full_time_school":false,"id":"BY-7559","lat":49.80318,"lon":9.946097,"name":"Josef-Volksschule Würzburg","official_id":"7559","phone":"0931 24880","school_type":"Grundschule","school_type_entity":"Grundschule","state":"BY"},{"address":"Heide 14 97078 Würzburg","fax":"0931 2600220","full_time_school":false,"id":"BY-7973","lat":49.822083,"lon":9.961468,"name":"Volksschule Würzburg-Versbach","official_id":"7973","phone":"0931 24396","school_type":"Grundschule","school_type_entity":"Grundschule","state":"BY"},{"address":"Schwabenstr. 12 97078 Würzburg","fax":"0931 2991230","full_time_school":false,"id":"BY-7554","lat":49.809936,"lon":9.963912,"name":"Gustav-Walle-Volksschule Würzburg","official_id":"7554","phone":"0931 299-1220","school_type":"Grundschule","school_type_entity":"Grundschule","state":"BY"},{"address":"Carl-Orff-Str. 2 97076 Würzburg","fax":"0931 2600683","full_time_school":false,"id":"BY-7950","lat":49.807285,"lon":9.988934,"name":"Volksschule Würzburg-Lengfeld","official_id":"7950","phone":"0931 271444","school_type":"Grundschule","school_type_entity":"Grundschule","state":"BY"},{"address":"Danziger Str. 12 97072 Würzburg","fax":"0931 2600666","full_time_school":false,"id":"BY-7557","lat":49.776529,"lon":9.936649,"name":"Max-Dauthendey-Volksschule Würzburg","official_id":"7557","phone":"0931 73705","school_type":"Grundschule","school_type_entity":"Grundschule","state":"BY"},{"address":"Hofstr. 16 97070 Würzburg","fax":"0931 572821","full_time_school":false,"id":"BY-7548","lat":49.792868,"lon":9.935306,"name":"Volksschule Würzburg-Stadtmitte","official_id":"7548","phone":"0931 572821","school_type":"Grundschule","school_type_entity":"Grundschule","state":"BY"},{"address":"Martin-Luther-Straße 2 96487 Dörfles-Esbach","fax":"09561 550420","full_time_school":false,"id":"BY-5681","lat":50.284263,"lon":10.997024,"name":"Emil-Fischer-Volksschule Dörfles-Esbach","official_id":"5681","phone":"09561 55040","school_type":"Grundschule","school_type_entity":"Grundschule","state":"BY"},{"address":"Schulstraße 21 96482 Ahorn","fax":"09561 247774","full_time_school":false,"id":"BY-5680","lat":50.237096,"lon":10.960599,"name":"Johann-Gemmer-Volksschule Ahorn","official_id":"5680","phone":"09561 247773","school_type":"Grundschule","school_type_entity":"Grundschule","state":"BY"},{"address":"Schulstraße 3 96479 Weitramsdorf","fax":"09561 38762","full_time_school":false,"id":"BY-5705","lat":50.257996,"lon":10.882964,"name":"Volksschule Weitramsdorf","official_id":"5705","phone":"09561 39021","school_type":"Grundschule","school_type_entity":"Grundschule","state":"BY"},{"address":"Schloßplatz 5 96476 Bad Rodach","fax":"09564 922618","full_time_school":false,"id":"BY-5692","lat":50.342126,"lon":10.778266,"name":"Volksschule Bad Rodach I","official_id":"5692","phone":"09564 92260","school_type":"Grundschule","school_type_entity":"Grundschule","state":"BY"},{"address":"Schulstr. 36 96472 Rödental Mönchröden","fax":"09563 50896","full_time_school":false,"id":"BY-5697","lat":50.300921,"lon":11.062356,"name":"Volksschule Rödental-Mönchröden","official_id":"5697","phone":"09563 8225","school_type":"Grundschule","school_type_entity":"Grundschule","state":"BY"},{"address":"Mecklenburger Str. 12 96472 Rödental","fax":"09563 741750","full_time_school":false,"id":"BY-5696","lat":50.29729,"lon":11.04243,"name":"Volksschule Rödental-Mitte","official_id":"5696","phone":"09563 74170","school_type":"Grundschule","school_type_entity":"Grundschule","state":"BY"},{"address":"Glockenberg 22 96472 Rödental Einberg","fax":"09563 50897","full_time_school":false,"id":"BY-5694","lat":50.28936,"lon":11.045341,"name":"Volksschule Rödental-Einberg","official_id":"5694","phone":"09563 1473","school_type":"Grundschule","school_type_entity":"Grundschule","state":"BY"},{"address":"Albertsplatz 1 96450 Coburg","fax":"09561 73054","full_time_school":false,"id":"BY-5559","lat":50.256507,"lon":10.962606,"name":"Luther-Volksschule Coburg","official_id":"5559","phone":"09561 73054","school_type":"Grundschule","school_type_entity":"Grundschule","state":"BY"},{"address":"Friedrich-Rückert-Str. 47 96450 Coburg","fax":"09561 69162","full_time_school":false,"id":"BY-5557","lat":50.277311,"lon":10.950791,"name":"Volksschule Coburg-Neuses","official_id":"5557","phone":"09561 69162","school_type":"Grundschule","school_type_entity":"Grundschule","state":"BY"},{"address":"Baumschulenweg 47 96450 Coburg","fax":"09561 831065","full_time_school":false,"id":"BY-5556","lat":50.250313,"lon":10.945791,"name":"Melchior-Franck-Volksschule Coburg","official_id":"5556","phone":"09561 36672","school_type":"Grundschule","school_type_entity":"Grundschule","state":"BY"},{"address":"Neue Heimat 5 96450 Coburg","fax":"09561 15028","full_time_school":false,"id":"BY-5554","lat":50.245117,"lon":10.97436,"name":"Volksschule Coburg-Ketschendorf","official_id":"5554","phone":"09561 15028","school_type":"Grundschule","school_type_entity":"Grundschule","state":"BY"},{"address":"Neustadter Straße 5 96450 Coburg","fax":"09561 861623","full_time_school":false,"id":"BY-5553","lat":50.271668,"lon":10.967017,"name":"Jean-Paul-Volksschule Coburg","official_id":"5553","phone":"09561 54420","school_type":"Grundschule","school_type_entity":"Grundschule","state":"BY"},{"address":"Florianweg 3 96450 Coburg","fax":"09561 18246","full_time_school":false,"id":"BY-5550","lat":50.231733,"lon":10.980139,"name":"Volksschule Coburg-Creidlitz","official_id":"5550","phone":"09561 18246","school_type":"Grundschule","school_type_entity":"Grundschule","state":"BY"},{"address":"Heimatring 58 96450 Coburg","fax":"09561 8307070","full_time_school":false,"id":"BY-5548","lat":50.267344,"lon":10.945429,"name":"Volksschule Coburg am Heimatring","official_id":"5548","phone":"09561 830700","school_type":"Grundschule","school_type_entity":"Grundschule","state":"BY"},{"address":"Schulweg 9 96369 Weißenbrunn","fax":"09261 54291","full_time_school":false,"id":"BY-5807","lat":50.200741,"lon":11.343523,"name":"Volksschule Weißenbrunn","official_id":"5807","phone":"09261 4338","school_type":"Grundschule","school_type_entity":"Grundschule","state":"BY"},{"address":"Kronacher Straße 9 96365 Nordhalben","fax":"09267 8160","full_time_school":false,"id":"BY-5793","lat":50.372895,"lon":11.510746,"name":"Volksschule Nordhalben","official_id":"5793","phone":"09267 1428","school_type":"Grundschule","school_type_entity":"Grundschule","state":"BY"},{"address":"Schulweg 3 96364 Marktrodach Unterrodach","fax":"09261 966365","full_time_school":false,"id":"BY-5805","lat":50.252469,"lon":11.385195,"name":"Volksschule Rodachtal in Unterrodach","official_id":"5805","phone":"09261 20051","school_type":"Grundschule","school_type_entity":"Grundschule","state":"BY"},{"address":"Schulweg 3 96364 Marktrodach","full_time_school":false,"id":"BY-5568","lat":50.252469,"lon":11.385195,"name":"Priv. Montessori-Grundschule Marktrodach d.Vereins Mont.-Fördergem.Kronach u.Umgeb.e.V.in Unterrodach","official_id":"5568","school_type":"Grundschule","school_type_entity":"Grundschule","state":"BY"},{"address":"Schulberg 5 96355 Tettau","fax":"09269 9625","full_time_school":false,"id":"BY-5802","lat":50.470716,"lon":11.25617,"name":"Volksschule Tettau","official_id":"5802","phone":"09269 9623","school_type":"Grundschule","school_type_entity":"Grundschule","state":"BY"},{"address":"Grieser Str. 9 96352 Wilhelmsthal Steinberg","fax":"09260 6787","full_time_school":false,"id":"BY-5808","lat":50.282945,"lon":11.36484,"name":"Volksschule Kronachtal in Wilhelmsthal","official_id":"5808","phone":"09260 350","school_type":"Grundschule","school_type_entity":"Grundschule","state":"BY"},{"address":"Frankenwaldstraße 4 96342 Stockheim","fax":"09265 5044","full_time_school":false,"id":"BY-5801","lat":50.312216,"lon":11.279049,"name":"Volksschule Stockheim","official_id":"5801","phone":"09265 1227","school_type":"Grundschule","school_type_entity":"Grundschule","state":"BY"},{"address":"Kirchenstr. 12 96328 Küps Johannisthal","fax":"09264 7127","full_time_school":false,"id":"BY-5799","lat":50.209553,"lon":11.286954,"name":"Volksschule Johannisthal-Schmölz","official_id":"5799","phone":"09264 7127","school_type":"Grundschule","school_type_entity":"Grundschule","state":"BY"},{"address":"Am Damm 10 96317 Kronach Neuses","fax":"09261 63086","full_time_school":false,"id":"BY-5792","lat":50.211273,"lon":11.309279,"name":"Volksschule Kronach-Neuses","official_id":"5792","phone":"09261 2252","school_type":"Grundschule","school_type_entity":"Grundschule","state":"BY"},{"address":"Turnstr. 7 96317 Kronach","fax":"09261 61571","full_time_school":false,"id":"BY-5787","lat":50.23823,"lon":11.327485,"name":"Lucas-Cranach-Volksschule Kronach","official_id":"5787","phone":"09261 61570","school_type":"Grundschule","school_type_entity":"Grundschule","state":"BY"},{"address":"Breitenloh 104 96317 Kronach Gehülz","fax":"09261 61591","full_time_school":false,"id":"BY-5785","lat":50.24548,"lon":11.29017,"name":"Volksschule Gehülz-Ziegelerden","official_id":"5785","phone":"09261 61590","school_type":"Grundschule","school_type_entity":"Grundschule","state":"BY"},{"address":"Pestalozzistr. 7 96279 Weidhausen","fax":"09562 8636","full_time_school":false,"id":"BY-5704","lat":50.205042,"lon":11.145498,"name":"Volksschule Weidhausen b.Coburg","official_id":"5704","phone":"09562 8229","school_type":"Grundschule","school_type_entity":"Grundschule","state":"BY"},