[{"name":"Private Abendrealschule für Berufstätige der Gesellschaft f.Erwachsenenbildung e.V., Regensburg","id":"BY-684","address":"Weinweg 6 93049 Regensburg","school_type":"Abendrealschule","fax":"0941 26628","phone":"0941 4615354","website":null,"state":"BY","programs":{"programs":[]},"full_time_school":false,"lon":12.075821,"lat":49.024975},{"name":"Privates Abendgymnasium Würzburg Service Center","id":"BY-347","address":"Zellerstr. 8 97276 Margetshöchheim","school_type":"Abendgymnasium","fax":"0931 4679020","phone":"0931 467900","website":"http://www.abendgymnasien.de","state":"BY","programs":{"programs":[]},"full_time_school":false,"lon":9.86632,"lat":49.826466},{"name":"Von-Pelkhoven-Schule St.Ludwig, Berufsschule zur sonderpäd.Förd.m.Förderschwerp.soz.u.emot.Entwickl","id":"BY-7277","address":"Kloster St. Ludwig 97509 Kolitzheim","school_type":"Berufsschule zur sonderpädagogischen Förderung","phone":"09385 860","website":"http://www.antonia-werr-zentrum.de","state":"BY","programs":{"programs":[]},"full_time_school":false,"lon":10.2015497,"lat":49.9249776},{"name":"Staatliche Berufsoberschule Marktheidenfeld","id":"BY-831","address":"Friedenstraße 44 97828 Marktheidenfeld","school_type":"Berufsoberschule","fax":"09391 917429","phone":"09391 2257","website":"http://www.fosbos-marktheidenfeld.de","state":"BY","programs":{"programs":[]},"full_time_school":false,"lon":9.604493,"lat":49.849073},{"name":"Privates Lyzeum der Republik Griechenland in Schweinfurt","id":"BY-1032","address":"Wirsingstr. 7 97424 Schweinfurt","school_type":"Ausländische Schule","phone":"09721 804626","website":null,"state":"BY","programs":{"programs":[]},"full_time_school":false,"lon":10.208065,"lat":50.035559},{"name":"Private Montessori-Volksschule Peißenberg","id":"BY-2269","address":"Wörther-Kirch-Str. 10 82380 Peißenberg","school_type":"Grund- und Teilhauptschule","fax":"08803 4428","phone":"08803 60603","website":"http://www.montessori-schule.com","state":"BY","programs":{"programs":[]},"full_time_school":false,"lon":11.06462,"lat":47.7891},{"name":"Hefner-Alteneck-Volksschule Aschaffenburg","id":"BY-7506","address":"Bavariastr. 39 63743 Aschaffenburg","school_type":"Grund- und Hauptschule","fax":"06021 970086","phone":"06021 970129","website":"http://www.hefner-alteneck-vs.de","state":"BY","programs":{"programs":[]},"full_time_school":false,"lon":9.152098,"lat":49.963309},{"name":"Volksschule Glattbach","id":"BY-7599","address":"Am Scharfen Eck 3 63864 Glattbach","school_type":"Grund- und Hauptschule","fax":"06021 410931","phone":"06021 410930","website":"http://www.vsglattbach.de","state":"BY","programs":{"programs":[]},"full_time_school":false,"lon":9.148472,"lat":50.006372},{"name":"Montessori-Fachoberschule des Montessori-Schule Rosenheim-Rohrdorf Fördervereins e.V. in Rohrdorf","id":"BY-933","address":"Untere Dorfstr. 14 83101 Rohrdorf","school_type":"Fachoberschule","website":null,"state":"BY","programs":{"programs":[]},"full_time_school":false,"lon":12.168346,"lat":47.799421},{"name":"Theresien-Gymnasium München","id":"BY-177","address":"Kaiser-Ludwig-Platz 3 80336 München","school_type":"Gymnasium","fax":"089 54412717","phone":"089 5441270","website":"http://www.thg.musin.de","state":"BY","programs":{"programs":["Schule ohne Rassismus - Schule mit Courage"]},"full_time_school":false,"lon":11.556458,"lat":48.131906},{"name":"Nymphenburger Gymnasium München des Schulvereins Ernst Adam e.V.","id":"BY-208","address":"Sadelerstr. 10 80638 München","school_type":"Gymnasium","fax":"089 15912130","phone":"089 159120","website":"http://www.nymphenburger-schulen.de","state":"BY","programs":{"programs":[]},"full_time_school":false,"lon":11.521164,"lat":48.165579},{"name":"Maximiliansgymnasium München","id":"BY-176","address":"Karl-Theodor-Str. 9 80803 München","school_type":"Gymnasium","fax":"089 38016840","phone":"089 3801680","website":"http://www.maxgym.musin.de","state":"BY","programs":{"programs":["Be smart - don't Start"]},"full_time_school":false,"lon":11.584957,"lat":48.165083},{"name":"Städtisches Elsa-Brändström-Gymnasium München","id":"BY-193","address":"Ebenböckstr. 1 81241 München","school_type":"Gymnasium","fax":"089 89601842","phone":"089 8960180","website":"http://www.elsa.musin.de","state":"BY","programs":{"programs":[]},"full_time_school":false,"lon":11.464144,"lat":48.145543},{"name":"Ludwigsgymnasium München","id":"BY-175","address":"Fürstenrieder Str. 159a 81377 München","school_type":"Gymnasium","fax":"089 7193472","phone":"089 7145511","website":"http://www.ludwigsgymnasium-muenchen.de","state":"BY","programs":{"programs":[]},"full_time_school":false,"lon":11.504679,"lat":48.122118},{"name":"Gymnasium Pullach","id":"BY-261","address":"Hans-Keis-Straße 61 82049 Pullach","school_type":"Gymnasium","fax":"089 749753299","phone":"089 7497530","website":"http://www.gymnasium-pullach.de","state":"BY","programs":{"programs":[]},"full_time_school":false,"lon":11.525465,"lat":48.066556},{"name":"Gymnasium Starnberg","id":"BY-295","address":"Rheinlandstraße 2 82319 Starnberg","school_type":"Gymnasium","fax":"08151 913090","phone":"08151 91300","website":"http://www.gymnasium-starnberg.com","state":"BY","programs":{"programs":[]},"full_time_school":false,"lon":11.34451,"lat":48.003305},{"name":"Finsterwalder-Gymnasium Rosenheim","id":"BY-274","address":"Königstr. 25 83022 Rosenheim","school_type":"Gymnasium","fax":"08031 362023","phone":"08031 361924-5","website":"http://www.schulen.rosenheim.de/finsterwaldergym","state":"BY","programs":{"programs":[]},"full_time_school":false,"lon":12.131213,"lat":47.852485},{"name":"Johannes-Heidenhain-Gymnasium Traunreut","id":"BY-305","address":"Adalbert-Stifter-Straße 36 83301 Traunreut","school_type":"Gymnasium","fax":"08669 5913","phone":"08669 2405","website":"http://www.jhg-traunreut.de","state":"BY","programs":{"programs":["Be smart - don't Start"]},"full_time_school":false,"lon":12.595913,"lat":47.95922},{"name":"Gabriel-von-Seidl-Gymnasium Bad Tölz","id":"BY-29","address":"Hindenburgstraße 26 83646 Bad Tölz","school_type":"Gymnasium","fax":"08041 8853","phone":"08041 9740","website":"http://www.gvs-gymnasium-bad-toelz.de","state":"BY","programs":{"programs":[]},"full_time_school":false,"lon":11.564792,"lat":47.764188},{"name":"Gymnasium der Schulstiftung Seligenthal Landshut","id":"BY-148","address":"Bismarckplatz 14 84034 Landshut","school_type":"Gymnasium","fax":"0871 821205","phone":"0871 821200","website":"http://www.gymnasium.seligenthal.de","state":"BY","programs":{"programs":["Be smart - don't Start"]},"full_time_school":false,"lon":12.148565,"lat":48.542448},{"name":"Kurfürst-Maximilian-Gymnasium Burghausen","id":"BY-48","address":"Kanzelmüllerstraße 90 1/2 84489 Burghausen","school_type":"Gymnasium","fax":"08677 9743-10","phone":"08677 9743-0","website":"http://www.kumax-gym.de","state":"BY","programs":{"programs":[]},"full_time_school":false,"lon":12.834275,"lat":48.160566},{"name":"Gnadenthal-Gymnasium Ingolstadt der Diözese Eichstätt","id":"BY-126","address":"Kupferstr. 23 85049 Ingolstadt","school_type":"Gymnasium","fax":"0841 93870-31","phone":"0841 9387030","website":"http://www.gnadenthal-gymnasium.de","state":"BY","programs":{"programs":[]},"full_time_school":false,"lon":11.421299,"lat":48.765179},{"name":"Josef-Hofmiller-Gymnasium Freising","id":"BY-85","address":"Vimystr. 14 85354 Freising","school_type":"Gymnasium","fax":"08161 971030","phone":"08161 97100","website":"http://www.johogym-freising.de","state":"BY","programs":{"programs":["Schule ohne Rassismus - Schule mit Courage"]},"full_time_school":false,"lon":11.742373,"lat":48.405582},{"name":"Gymnasium Kirchheim b.München","id":"BY-971","address":"Heimstettener Str. 3 85551 Kirchheim","school_type":"Gymnasium","fax":"089 9037198","phone":"089 90310-24, 25","website":"http://www.gymnasium-kirchheim.de","state":"BY","programs":{"programs":["Schule ohne Rassismus - Schule mit Courage"]},"full_time_school":false,"lon":11.75,"lat":48.1833},{"name":"Gymnasium bei St.Stephan Augsburg","id":"BY-18","address":"Gallusplatz 2 86152 Augsburg","school_type":"Gymnasium","fax":"0821 32418505","phone":"0821 324-18500","website":"http://www.st-stephan.de","state":"BY","programs":{"programs":[]},"full_time_school":false,"lon":10.899052,"lat":48.376407},{"name":"Simpert-Kraemer-Gymnasium Krumbach","id":"BY-141","address":"Jochnerstraße 30 86381 Krumbach","school_type":"Gymnasium","fax":"08282 896130","phone":"08282 89610","website":"http://www.skg.krumbach.de","state":"BY","programs":{"programs":[]},"full_time_school":false,"lon":10.355863,"lat":48.243718},{"name":"Ignaz-Kögler-Gymnasium Landsberg am Lech","id":"BY-951","address":"Lechstraße 6 86899 Landsberg","school_type":"Gymnasium","fax":"08191 65710865","phone":"08191 657108-0","website":"http://www.ikg-landsberg.de","state":"BY","programs":{"programs":[]},"full_time_school":false,"lon":10.873627,"lat":48.052197},{"name":"Marien-Gymnasium Kaufbeuren d. Schulwerks d. Diözese Augsburg","id":"BY-130","address":"Kemnater Straße 19 87600 Kaufbeuren","school_type":"Gymnasium","fax":"08341 12341","phone":"08341 2341","website":"http://www.marien-gymnasium.de","state":"BY","programs":{"programs":[]},"full_time_school":false,"lon":10.611379,"lat":47.88172},{"name":"Rupert-Ness-Gymnasium Ottobeuren","id":"BY-249","address":"Bergstraße 80 87724 Ottobeuren","school_type":"Gymnasium","fax":"08332 922420","phone":"08332 922410","website":"http://www.gym-rs-ottobeuren.de","state":"BY","programs":{"programs":[]},"full_time_school":false,"lon":10.297161,"lat":47.94686},{"name":"Illertal-Gymnasium Vöhringen","id":"BY-395","address":"Zum Sportplatz 17 89269 Vöhringen Illerzell","school_type":"Gymnasium","fax":"07307 939610","phone":"07307 939600","website":"http://www.illertal-gymnasium.de","state":"BY","programs":{"programs":[]},"full_time_school":false,"lon":10.053334,"lat":48.302183},{"name":"Willstätter-Gymnasium Nürnberg","id":"BY-233","address":"Innerer Laufer Platz 11 90403 Nürnberg","school_type":"Gymnasium","fax":"0911 2447454","phone":"0911 227985","website":"http://www.willstaetter-gymnasium.de","state":"BY","programs":{"programs":[]},"full_time_school":false,"lon":11.083564,"lat":49.456341},{"name":"Melanchthon-Gymnasium Nürnberg","id":"BY-231","address":"Sulzbacher Str. 32 90489 Nürnberg","school_type":"Gymnasium","fax":"0911 2315558","phone":"0911 2315540","website":"http://www.melanchthon-gymnasium.de","state":"BY","programs":{"programs":["Be smart - don't Start"]},"full_time_school":false,"lon":11.09402,"lat":49.457858},{"name":"Wolfgang-Borchert-Gymnasium Langenzenn","id":"BY-966","address":"Sportplatzstraße 2 90579 Langenzenn","school_type":"Gymnasium","fax":"09101 90418-21","phone":"09101 90418-0, -10","website":"http://www.wbg-lgz.de","state":"BY","programs":{"programs":["Fairtrade Schools"]},"full_time_school":false,"lon":10.779986,"lat":49.491848},{"name":"Adam-Kraft-Gymnasium Schwabach","id":"BY-282","address":"Bismarckstraße 6 91126 Schwabach","school_type":"Gymnasium","fax":"09122 690555","phone":"09122 69050","website":"http://www.akg.softpoint.de","state":"BY","programs":{"programs":[]},"full_time_school":false,"lon":11.019175,"lat":49.326282},{"name":"Friedrich-Alexander-Gymnasium Neustadt a.d.Aisch","id":"BY-225","address":"Comeniusstraße 4 91413 Neustadt","school_type":"Gymnasium","fax":"09161 886955","phone":"09161 886911","website":"http://www.fag-neustadt-aisch.de","state":"BY","programs":{"programs":["Be smart - don't Start","Fairtrade Schools"]},"full_time_school":false,"lon":10.612591,"lat":49.573258},{"name":"Werner-von-Siemens-Gymnasium Weißenburg","id":"BY-324","address":"An der Hagenau 24 91781 Weißenburg","school_type":"Gymnasium","fax":"09141 861726","phone":"09141 86170","website":"http://www.wvsgym.de","state":"BY","programs":{"programs":[]},"full_time_school":false,"lon":10.976907,"lat":49.025355},{"name":"Johann-Andreas-Schmeller-Gymnasium Nabburg","id":"BY-218","address":"Eichenweg 3 92507 Nabburg","school_type":"Gymnasium","fax":"09433 204810","phone":"09433 20480","website":"http://www.jas-gymnasium.de","state":"BY","programs":{"programs":["Be smart - don't Start","Fairtrade Schools"]},"full_time_school":false,"lon":12.174765,"lat":49.453164},{"name":"Albertus-Magnus-Gymnasium Regensburg","id":"BY-263","address":"Hans-Sachs-Str. 2 93049 Regensburg","school_type":"Gymnasium","fax":"0941 5074043","phone":"0941 5074042","website":"http://www.amg-regensburg.de","state":"BY","programs":{"programs":["Fairtrade Schools","Schule ohne Rassismus - Schule mit Courage"]},"full_time_school":false,"lon":12.075053,"lat":49.023281},{"name":"Robert-Schuman-Gymnasium Cham","id":"BY-52","address":"Pfarrer-Lukas-Straße 36 93413 Cham","school_type":"Gymnasium","fax":"09971 8580511","phone":"09971 858050","website":"http://www.rsg-cham.de","state":"BY","programs":{"programs":["Schule ohne Rassismus - Schule mit Courage"]},"full_time_school":false,"lon":12.667662,"lat":49.225181},{"name":"Gymnasium Zwiesel","id":"BY-341","address":"Dr.-Schott-Str. 54 94227 Zwiesel","school_type":"Gymnasium","fax":"09922 60641","phone":"09922 1340","website":"http://www.gymnasium-zwiesel.de","state":"BY","programs":{"programs":["Fairtrade Schools"]},"full_time_school":false,"lon":13.227633,"lat":49.018642},{"name":"St.-Michaels-Gymnasium der Benediktiner Metten","id":"BY-166","address":"Abteistraße 3 94526 Metten","school_type":"Gymnasium","fax":"0991 9108178","phone":"0991 9108120","website":"http://www.kloster-metten.de","state":"BY","programs":{"programs":["Be smart - don't Start"]},"full_time_school":false,"lon":12.918098,"lat":48.855282},{"name":"Gymnasium Naila","id":"BY-219","address":"Finkenweg 15 95119 Naila","school_type":"Gymnasium","fax":"09282 960819","phone":"09282 96080","website":"http://www.gymnaila.de","state":"BY","programs":{"programs":["Fairtrade Schools"]},"full_time_school":false,"lon":11.701258,"lat":50.336106},{"name":"Markgräfin-Wilhelmine-Gymnasium Bayreuth","id":"BY-41","address":"Königsallee 17 95448 Bayreuth","school_type":"Gymnasium","fax":"0921 7999113","phone":"0921 79991-0","website":"http://www.mwg-bayreuth.de","state":"BY","programs":{"programs":["Schule ohne Rassismus - Schule mit Courage"]},"full_time_school":false,"lon":11.592256,"lat":49.940537},{"name":"Städtisches Eichendorff-Gymnasium Bamberg","id":"BY-36","address":"Kloster-Langheim-Str. 10 96050 Bamberg","school_type":"Gymnasium","fax":"0951 9146320","phone":"0951 9146300","website":"http://www.eg-bamberg.de","state":"BY","programs":{"programs":["Fairtrade Schools","Schule ohne Rassismus - Schule mit Courage"]},"full_time_school":false,"lon":10.910516,"lat":49.89844},{"name":"Riemenschneider-Gymnasium Würzburg","id":"BY-332","address":"Rennweger Ring 12 97070 Würzburg","school_type":"Gymnasium","fax":"0931 32265-30","phone":"0931 32265-0","website":"http://www.riemenschneider-gymnasium.de","state":"BY","programs":{"programs":["Schule ohne Rassismus - Schule mit Courage"]},"full_time_school":false,"lon":9.942517,"lat":49.796955},{"name":"Armin-Knab-Gymnasium Kitzingen","id":"BY-136","address":"Kanzler-Stürtzel-Straße 15 97318 Kitzingen","school_type":"Gymnasium","fax":"09321 131733","phone":"09321 13170","website":"http://www.armin-knab-gymnasium.de","state":"BY","programs":{"programs":["Be smart - don't Start"]},"full_time_school":false,"lon":10.159106,"lat":49.730651},{"name":"Rhön-Gymnasium Bad Neustadt","id":"BY-27","address":"Franz-Marschall-Straße 7 97616 Bad Neustadt","school_type":"Gymnasium","fax":"09771 7807","phone":"09771 2214","website":"http://www.rhoen-gymnasium.de","state":"BY","programs":{"programs":["Be smart - don't Start","Schule ohne Rassismus - Schule mit Courage"]},"full_time_school":false,"lon":10.216863,"lat":50.325994},{"name":"Balthasar-Neumann-Gymnasium Marktheidenfeld","id":"BY-361","address":"Oberländerstraße 29 97828 Marktheidenfeld","school_type":"Gymnasium","fax":"09391 8737","phone":"09391 1800","website":"http://www.bng-online.de","state":"BY","programs":{"programs":["Fairtrade Schools"]},"full_time_school":false,"lon":9.610312,"lat":49.848587},{"name":"Volksschule Landshut-Berg","id":"BY-3500","address":"Weinzierlstr. 38 84036 Landshut","school_type":"Grundschule","fax":"0871 9454174","phone":"0871 9454173","website":null,"state":"BY","programs":{"programs":[]},"full_time_school":false,"lon":12.158731,"lat":48.526549},{"name":"Volksschule Neufahrn i.NB","id":"BY-3721","address":"Schulweg 2 84088 Neufahrn","school_type":"Grundschule","fax":"08773 910599","phone":"08773 416","website":"http://www.volksschule-neufahrn.de","state":"BY","programs":{"programs":[]},"full_time_school":false,"lon":12.189865,"lat":48.736525},{"name":"Volksschule Vilsbiburg","id":"BY-3733","address":"Kirchstraße 6 84137 Vilsbiburg","school_type":"Grundschule","fax":"08741 3201","phone":"08741 6555","website":"http://www.grundschule-vilsbiburg.de","state":"BY","programs":{"programs":[]},"full_time_school":false,"lon":12.357598,"lat":48.451805},{"name":"Volksschule Altfraunhofen","id":"BY-3698","address":"Schulstraße 4 84169 Altfraunhofen","school_type":"Grundschule","fax":"08705 2158","phone":"08705 1404","website":null,"state":"BY","programs":{"programs":[]},"full_time_school":false,"lon":12.170818,"lat":48.44859},{"name":"Volksschule Reut","id":"BY-3878","address":"Sonnleiten 27 84367 Reut","school_type":"Grundschule","fax":"08572 969895","phone":"08572 304","website":null,"state":"BY","programs":{"programs":[]},"full_time_school":false,"lon":12.93986,"lat":48.312219},{"name":"Volksschule Wittibreut","id":"BY-3888","address":"Kerneigenstraße 4 84384 Wittibreut","school_type":"Grundschule","fax":"08574 9193912","phone":"08574 919390","website":null,"state":"BY","programs":{"programs":[]},"full_time_school":false,"lon":12.990572,"lat":48.329188},{"name":"Volksschule Schwindegg","id":"BY-2718","address":"Schulstraße 11 84419 Schwindegg","school_type":"Grundschule","fax":"08082 946142","phone":"08082 354","website":null,"state":"BY","programs":{"programs":[]},"full_time_school":false,"lon":12.254373,"lat":48.27074},{"name":"Hans-Stethaimer-Volksschule Burghausen","id":"BY-2328","address":"Stadtplatz 36 84489 Burghausen","school_type":"Grundschule","fax":"08677 62740","phone":"08677 61340","website":null,"state":"BY","programs":{"programs":[]},"full_time_school":false,"lon":12.832132,"lat":48.158125},{"name":"Volksschule Haiming","id":"BY-2338","address":"Hauptstraße 24 84533 Haiming","school_type":"Grundschule","fax":"08678 8099","phone":"08678 353","website":null,"state":"BY","programs":{"programs":[]},"full_time_school":false,"lon":12.884912,"lat":48.212167},{"name":"Volksschule Oberbergkirchen","id":"BY-2712","address":"Ziegelberg 4 84564 Oberbergkirchen","school_type":"Grundschule","fax":"08637 985057","phone":"08637 985055","website":null,"state":"BY","programs":{"programs":[]},"full_time_school":false,"lon":12.381335,"lat":48.306056},{"name":"Volksschule Ingolstadt an der Stollstraße","id":"BY-2108","address":"Stollstr. 2 85053 Ingolstadt","school_type":"Grundschule","fax":"0841 95180199","phone":"0841 95180-100","website":null,"state":"BY","programs":{"programs":[]},"full_time_school":false,"lon":11.443941,"lat":48.754523},{"name":"Volksschule Oberstimm in Manching","id":"BY-2810","address":"Manchinger Str. 1 85077 Manching Oberstimm","school_type":"Grundschule","fax":"08459 330282","phone":"08459 330280","website":null,"state":"BY","programs":{"programs":[]},"full_time_school":false,"lon":11.451441,"lat":48.710831},{"name":"Volksschule Böhmfeld-Hitzhofen","id":"BY-2475","address":"Kirchweg 10 85122 Hitzhofen","school_type":"Grundschule","fax":"08458 37030","phone":"08458 8466","website":null,"state":"BY","programs":{"programs":[]},"full_time_school":false,"lon":11.320765,"lat":48.84787},{"name":"Volksschule Dachau an der Eduard-Ziegler-Straße","id":"BY-2424","address":"Eduard-Ziegler-Str. 1 85221 Dachau","school_type":"Grundschule","fax":"08131 83578","phone":"08131 735981","website":"http://www.grundschule-sued.dachau.net","state":"BY","programs":{"programs":[]},"full_time_school":false,"lon":11.438223,"lat":48.246561},{"name":"Volksschule Weichs","id":"BY-2443","address":"Fränkinger Str. 9 85258 Weichs","school_type":"Grundschule","fax":"08136 998231","phone":"08136 5986","website":null,"state":"BY","programs":{"programs":[]},"full_time_school":false,"lon":11.411628,"lat":48.382304},{"name":"Volksschule Vötting in Freising","id":"BY-2562","address":"Hohenbachernstr. 30 85354 Freising Vötting","school_type":"Grundschule","fax":"08161 50648","phone":"08161 13313","website":null,"state":"BY","programs":{"programs":[]},"full_time_school":false,"lon":11.714246,"lat":48.39859},{"name":"Marina-Thudichum-Volksschule Haag a.d. Amper","id":"BY-2565","address":"Pfarrer-Weingand-Str. 5 85410 Haag","school_type":"Grundschule","fax":"08167 955835","phone":"08167 955833","website":"http://www.haagnet.de/schule","state":"BY","programs":{"programs":[]},"full_time_school":false,"lon":11.831339,"lat":48.458555},{"name":"Volksschule Erding am Lodererplatz","id":"BY-2522","address":"Lodererplatz 14 85435 Erding","school_type":"Grundschule","fax":"08122 959272","phone":"08122 10336","website":null,"state":"BY","programs":{"programs":[]},"full_time_school":false,"lon":11.911343,"lat":48.309051},{"name":"Silva-Grundschule Heimstetten in Kirchheim","id":"BY-2124","address":"Gruber Straße 11 85551 Kirchheim","school_type":"Grundschule","fax":"089 90468655","phone":"089 90468654","website":"http://www.m.shuttle.de/m/gsk3","state":"BY","programs":{"programs":[]},"full_time_school":false,"lon":11.76076,"lat":48.162806},{"name":"Volksschule Neukeferloh","id":"BY-2737","address":"Birkenstr. 6 85630 Grasbrunn Neukeferloh","school_type":"Grundschule","fax":"089 46238116","phone":"089 4623810","website":null,"state":"BY","programs":{"programs":[]},"full_time_school":false,"lon":11.7586,"lat":48.094057},{"name":"Volksschule Moosach-Alxing","id":"BY-2459","address":"Glonner Str. 2 85665 Moosach","school_type":"Grundschule","fax":"08091 568365","phone":"08091 3715","website":null,"state":"BY","programs":{"programs":[]},"full_time_school":false,"lon":11.874467,"lat":48.031893},{"name":"Michael-Ende-Volksschule Unterschleißheim","id":"BY-2796","address":"Raiffeisenstr. 27 85716 Unterschleißheim","school_type":"Grundschule","fax":"089 3101254","phone":"089 3103461","website":"http://m-ende-schule.de","state":"BY","programs":{"programs":[]},"full_time_school":false,"lon":11.572609,"lat":48.272594},{"name":"Volksschule Fahrenzhausen","id":"BY-2556","address":"Schulstr. 1 85777 Fahrenzhausen","school_type":"Grundschule","fax":"08133 908132","phone":"08133 6359","website":null,"state":"BY","programs":{"programs":[]},"full_time_school":false,"lon":11.55768,"lat":48.351477},{"name":"Volksschule Augsburg, Vor dem Roten Tor","id":"BY-8521","address":"Rote-Torwall-Str. 14 86161 Augsburg","school_type":"Grundschule","fax":"0821 3249478","phone":"0821 3249480","website":"http://www-gsrotestor.de","state":"BY","programs":{"programs":[]},"full_time_school":false,"lon":10.902754,"lat":48.35824},{"name":"Eichendorff-Volksschule Augsburg-Haunstetten","id":"BY-8535","address":"Georg-Käß-Platz 1 86179 Augsburg","school_type":"Grundschule","fax":"0821 3247395","phone":"0821 3247390","website":"http://www.eichendorffschule-augsburg.de","state":"BY","programs":{"programs":[]},"full_time_school":false,"lon":10.910342,"lat":48.309117},{"name":"Volksschule Königsbrunn-West","id":"BY-8677","address":"Mindelheimer Str. 26 86343 Königsbrunn","school_type":"Grundschule","fax":"08231 88615","phone":"08231 88614","website":"http://www.koenigsbrunn.de","state":"BY","programs":{"programs":[]},"full_time_school":false,"lon":10.880966,"lat":48.277533},{"name":"Volksschule Straßberg","id":"BY-8630","address":"Frieda-Forster-Straße 9 a 86399 Bobingen Straßberg","school_type":"Grundschule","fax":"08234 959946","phone":"08234 959940","website":null,"state":"BY","programs":{"programs":[]},"full_time_school":false,"lon":10.785551,"lat":48.272566},{"name":"Volksschule Altenmünster","id":"BY-8625","address":"Schulstraße 11 86450 Altenmünster","school_type":"Grundschule","fax":"08295 2032","phone":"08295 1025","website":"http://www.grundschule-altenmuenster.de","state":"BY","programs":{"programs":[]},"full_time_school":false,"lon":10.589258,"lat":48.468302},{"name":"Volksschule Emersacker","id":"BY-8633","address":"Schulstr. 7 86494 Emersacker","school_type":"Grundschule","fax":"08293 7838","phone":"08293 7835","website":null,"state":"BY","programs":{"programs":[]},"full_time_school":false,"lon":10.673747,"lat":48.486972},{"name":"Volksschule Ursberg","id":"BY-8703","address":"Rudolf-Lang-Str. 1 86513 Ursberg","school_type":"Grundschule","fax":"08281 2169","phone":"08281 3666","website":null,"state":"BY","programs":{"programs":[]},"full_time_school":false,"lon":10.442302,"lat":48.266077},{"name":"Volksschule Griesbeckerzell - Obergriesbach","id":"BY-8602","address":"Schulweg 9 86551 Aichach Griesbeckerzell","school_type":"Grundschule","fax":"08251 52061","phone":"08251 2654","website":"http://vsgriesbeckerzell.de","state":"BY","programs":{"programs":[]},"full_time_school":false,"lon":11.053196,"lat":48.441806},{"name":"Mangold-Volksschule Donauwörth","id":"BY-8898","address":"Spindeltal 6 86609 Donauwörth","school_type":"Grundschule","fax":"0906 7064315","phone":"0906 70643-11","website":null,"state":"BY","programs":{"programs":[]},"full_time_school":false,"lon":10.779498,"lat":48.720344},{"name":"Volksschule Nordendorf","id":"BY-8660","address":"Schäfflerstraße 25 86695 Nordendorf","school_type":"Grundschule","fax":"08273 91552","phone":"08273 2420221","website":"http://www.vs-nordendorf.de","state":"BY","programs":{"programs":[]},"full_time_school":false,"lon":10.832782,"lat":48.591236},{"name":"Johann-Wilhelm-Klein-Volksschule Alerheim","id":"BY-8892","address":"Raiffeisenstraße 9 86733 Alerheim","school_type":"Grundschule","fax":"09085 452","phone":"09085 308","website":null,"state":"BY","programs":{"programs":[]},"full_time_school":false,"lon":10.616399,"lat":48.843351},{"name":"Von-Imhof-Volksschule Klosterlechfeld","id":"BY-8644","address":"Schulstraße 21 86836 Klosterlechfeld","school_type":"Grundschule","fax":"08232 904918","phone":"08232 2537","website":"http://www.gs-klosterfeld.de","state":"BY","programs":{"programs":[]},"full_time_school":false,"lon":10.8294,"lat":48.155519},{"name":"Volksschule Erpfting","id":"BY-2649","address":"Schulstraße 6 86899 Landsberg Erpfting","school_type":"Grundschule","fax":"08191 50599","phone":"08191 3847","website":null,"state":"BY","programs":{"programs":[]},"full_time_school":false,"lon":12.166192,"lat":51.514986},{"name":"Volksschule Schongau","id":"BY-2986","address":"Fanschuhstraße 5 86956 Schongau","school_type":"Grundschule","fax":"08861 200118","phone":"08861 4219","website":null,"state":"BY","programs":{"programs":[]},"full_time_school":false,"lon":10.893649,"lat":47.809982},{"name":"Volksschule Kempten","id":"BY-8566","address":"Haubenschloßplatz 1 87435 Kempten","school_type":"Grundschule","fax":"0831 5400722","phone":"0831 540070","website":null,"state":"BY","programs":{"programs":[]},"full_time_school":false,"lon":10.306734,"lat":47.71703},{"name":"Volksschule Krugzell","id":"BY-8939","address":"Pfarrwaldweg 3 87452 Altusried Krugzell","school_type":"Grundschule","fax":"08374 93659","phone":"08374 8481","website":null,"state":"BY","programs":{"programs":[]},"full_time_school":false,"lon":10.272026,"lat":47.794865},{"name":"Volksschule Sonthofen-Rieden","id":"BY-8968","address":"Albert-Schweitzer-Straße 14 87527 Sonthofen","school_type":"Grundschule","fax":"08321 669216","phone":"08321 669212","website":"http://www.schulweb.de/8752703","state":"BY","programs":{"programs":[]},"full_time_school":false,"lon":10.26337,"lat":47.519369},{"name":"Volksschule Thalhofen a.d.Wertach","id":"BY-8833","address":"Schulstr. 19 87616 Marktoberdorf Thalhofen a.d.Wertach","school_type":"Grundschule","fax":"08342 98698","phone":"08342 2214","website":null,"state":"BY","programs":{"programs":[]},"full_time_school":false,"lon":10.594484,"lat":47.768249},{"name":"Volksschule Ronsberg","id":"BY-8840","address":"Schulweg 4 87671 Ronsberg","school_type":"Grundschule","fax":"08306 975412","phone":"08306 405","website":null,"state":"BY","programs":{"programs":[]},"full_time_school":false,"lon":10.411234,"lat":47.898353},{"name":"Volksschule Mindelheim","id":"BY-8876","address":"Schulstraße 4 87719 Mindelheim","school_type":"Grundschule","fax":"08261 4147","phone":"08261 4109","website":null,"state":"BY","programs":{"programs":[]},"full_time_school":false,"lon":10.492208,"lat":48.048469},{"name":"Volksschule Sontheim","id":"BY-8881","address":"Hauptstraße 41 87776 Sontheim","school_type":"Grundschule","fax":"08336 9526","phone":"08336 1237","website":null,"state":"BY","programs":{"programs":[]},"full_time_school":false,"lon":10.350447,"lat":48.009863},{"name":"Volksschule Wasserburg","id":"BY-8803","address":"Schulstraße 15 88142 Wasserburg","school_type":"Grundschule","fax":"08382 887709","phone":"08382 887844","website":null,"state":"BY","programs":{"programs":[]},"full_time_school":false,"lon":9.637127,"lat":47.567702},{"name":"Volksschule Neu-Ulm-Offenhausen","id":"BY-8756","address":"Martin-Luther-Str. 4 89231 Neu-Ulm Offenhausen","school_type":"Grundschule","fax":"0731 9723342","phone":"0731 73913","website":null,"state":"BY","programs":{"programs":[]},"full_time_school":false,"lon":10.019217,"lat":48.400175},{"name":"Volksschule Wullenstetten","id":"BY-8770","address":"Pestalozzistr. 1 89250 Senden Wullenstetten","school_type":"Grundschule","fax":"07307 22152","phone":"07307 22126","website":"http://www.gs-wullenstetten.de","state":"BY","programs":{"programs":[]},"full_time_school":false,"lon":10.070833,"lat":48.31975},{"name":"Volksschule Vöhringen-Nord","id":"BY-8779","address":"Falkenstr. 23 89269 Vöhringen","school_type":"Grundschule","fax":"07306 961321","phone":"07306 96130","website":null,"state":"BY","programs":{"programs":[]},"full_time_school":false,"lon":10.075422,"lat":48.285083},{"name":"Volksschule Günzburg - Südost","id":"BY-8736","address":"Rebaystr. 13 89312 Günzburg","school_type":"Grundschule","fax":"08221 5443","phone":"08221 30546","website":null,"state":"BY","programs":{"programs":[]},"full_time_school":false,"lon":10.288207,"lat":48.446591},{"name":"Volksschule Röfingen","id":"BY-8731","address":"Hühleweg 6 89365 Röfingen","school_type":"Grundschule","fax":"08222 42083","phone":"08222 7736","website":null,"state":"BY","programs":{"programs":[]},"full_time_school":false,"lon":10.44758,"lat":48.426955},{"name":"Volksschule Nürnberg, Friedrich-Hegel-Schule","id":"BY-6594","address":"Neue Hegelstr. 17 90409 Nürnberg","school_type":"Grundschule","fax":"0911 9359033","phone":"0911 356085","website":null,"state":"BY","programs":{"programs":[]},"full_time_school":false,"lon":11.088458,"lat":49.467589},{"name":"Private Wilhelm-Löhe-Volksschule Nürnberg","id":"BY-6686","address":"Deutschherrnstr. 10 90429 Nürnberg","school_type":"Grundschule","fax":"0911 260070","phone":"0911 2708258","website":"http://www.loehe-schule.de","state":"BY","programs":{"programs":[]},"full_time_school":false,"lon":11.063579,"lat":49.455004},{"name":"Volksschule Nürnberg-Eibach","id":"BY-6589","address":"Fürreuthweg 95 90451 Nürnberg","school_type":"Grundschule","fax":"0911 6498878","phone":"0911 6493123","website":null,"state":"BY","programs":{"programs":[]},"full_time_school":false,"lon":11.040282,"lat":49.408902},{"name":"Volksschule Nürnberg, Zugspitzstraße","id":"BY-6656","address":"Zugspitzstr. 123 90471 Nürnberg","school_type":"Grundschule","fax":"0911 8129600","phone":"0911 811751","website":"http://www.gs-zugspitze.de.vu","state":"BY","programs":{"programs":[]},"full_time_school":false,"lon":11.118075,"lat":49.408869},{"name":"Volksschule Nürnberg, Bartholomäusschule","id":"BY-6580","address":"Bartholomäusstr. 16 90489 Nürnberg","school_type":"Grundschule","fax":"0911 5882929","phone":"0911 536018","website":"http://www.bartholomusschule.de","state":"BY","programs":{"programs":[]},"full_time_school":false,"lon":11.100396,"lat":49.455447},{"name":"Volksschule Röthenbach b.St.Wolfgang","id":"BY-6933","address":"Am Zehnthof 8 90530 Wendelstein Röthenbach b.St.Wolfgang","school_type":"Grundschule","fax":"09129 288530","phone":"09129 8753","website":"http://www.grundschule-roethenbach.de","state":"BY","programs":{"programs":[]},"full_time_school":false,"lon":11.168182,"lat":49.363783},{"name":"Volksschule Röthenbach a.d.Pegnitz am Forstersberg","id":"BY-6860","address":"Schulstr. 6 90552 Röthenbach","school_type":"Grundschule","fax":"0911 5755989","phone":"0911 577620","website":null,"state":"BY","programs":{"programs":[]},"full_time_school":false,"lon":11.233958,"lat":49.48042},{"name":"Volksschule Allersberg Sybilla-Maurer-Grundschule","id":"BY-6914","address":"Schulstraße 2 90584 Allersberg","school_type":"Grundschule","fax":"09176 90225","phone":"09176 1610","website":"http://www.grundschule-allersberg.de","state":"BY","programs":{"programs":[]},"full_time_school":false,"lon":11.231309,"lat":49.251954},{"name":"Volksschule Fürth, Frauenstraße","id":"BY-6545","address":"Frauenstr. 15 90763 Fürth","school_type":"Grundschule","fax":"0911 97083828","phone":"0911 97083811","website":"http://www.gs-frauen-fuerth.de","state":"BY","programs":{"programs":[]},"full_time_school":false,"lon":10.996804,"lat":49.463475},{"name":"Volksschule Fürth, Zedernstraße","id":"BY-6566","address":"Zedernstr. 2 90768 Fürth","school_type":"Grundschule","fax":"0911 761542","phone":"0911 761542","website":null,"state":"BY","programs":{"programs":[]},"full_time_school":false,"lon":10.96401,"lat":49.52533},{"name":"Volksschule Erlangen-Bruck Max-und-Justine-Elsner-Schule","id":"BY-6521","address":"Sandbergstr. 1 - 5 91058 Erlangen","school_type":"Grundschule","fax":"09131 934991","phone":"09131 934916","website":null,"state":"BY","programs":{"programs":[]},"full_time_school":false,"lon":10.987568,"lat":49.572658},{"name":"Volksschule Baiersdorf","id":"BY-6772","address":"Bodenschatzstraße 9 91083 Baiersdorf","school_type":"Grundschule","fax":"09133 603948","phone":"09133 3241","website":"http://www.grundschule-baiersdorf.de","state":"BY","programs":{"programs":[]},"full_time_school":false,"lon":11.034559,"lat":49.662638},{"name":"Volksschule Roth - Nordring","id":"BY-6677","address":"Veit-Stoß-Str. 49 91154 Roth","school_type":"Grundschule","fax":"09171 898171","phone":"09171 975690","website":"http://www.gsnordring-roth.homepage.t-online.de","state":"BY","programs":{"programs":[]},"full_time_school":false,"lon":11.0846,"lat":49.257835},{"name":"Bertlein-Volksschule II Lauf a.d.Pegnitz","id":"BY-6847","address":"Martin-Luther-Str. 2 91207 Lauf","school_type":"Grundschule","fax":"09123 83890","phone":"09123 96948-10","website":null,"state":"BY","programs":{"programs":["Schule ohne Rassismus - Schule mit Courage"]},"full_time_school":false,"lon":11.281213,"lat":49.502911},{"name":"Volksschule Bühl","id":"BY-6867","address":"Schulstr. 21 91245 Simmelsdorf Bühl","school_type":"Grundschule","fax":"09155 927711","phone":"09155 927710","website":null,"state":"BY","programs":{"programs":[]},"full_time_school":false,"lon":9.910573,"lat":49.04366},{"name":"Anna-Volksschule Forchheim","id":"BY-5723","address":"Konradstraße 36 91301 Forchheim","school_type":"Grundschule","fax":"09191 64241","phone":"09191 14489","website":null,"state":"BY","programs":{"programs":[]},"full_time_school":false,"lon":11.071276,"lat":49.72495},{"name":"Volksschule Hausen","id":"BY-5729","address":"Wunderburg 4 91353 Hausen","school_type":"Grundschule","fax":"09191 33174","phone":"09191 31628","website":null,"state":"BY","programs":{"programs":[]},"full_time_school":false,"lon":11.034635,"lat":49.688707},{"name":"Volksschule Neustadt a.d.Aisch  (Grundschule II)","id":"BY-6892","address":"Comeniusstr. 2 91413 Neustadt a.d.Aisch","school_type":"Grundschule","fax":"09161 874601","phone":"09161 874600","website":"http://www.regio-nah.de/comenius-gs-nea","state":"BY","programs":{"programs":[]},"full_time_school":false,"lon":10.611524,"lat":49.574164},{"name":"Volksschule Ansbach-Hennenbach","id":"BY-6503","address":"Fürstenstraße 2 91522 Ansbach","school_type":"Grundschule","fax":"0981 86896","phone":"0981 84142","website":null,"state":"BY","programs":{"programs":[]},"full_time_school":false,"lon":10.581527,"lat":49.31602},{"name":"Christoph-von-Schmid-Volksschule Dinkelsbühl","id":"BY-6711","address":"Alte Promenade 24 - 26 91550 Dinkelsbühl","school_type":"Grundschule","fax":"09851 53787","phone":"09851 554647","website":"http://www.grundschule-dkb.de","state":"BY","programs":{"programs":[]},"full_time_school":false,"lon":10.318278,"lat":49.06513},{"name":"Volksschule Gebsattel-Insingen-Neusitz","id":"BY-6722","address":"Bahnhofweg 5 91607 Gebsattel","school_type":"Grundschule","fax":"09861 931017","phone":"09861 931057","website":"http://www.grundschule-gebsattel.de","state":"BY","programs":{"programs":[]},"full_time_school":false,"lon":10.199061,"lat":49.35337},{"name":"Stephani-Volksschule Gunzenhausen","id":"BY-6961","address":"Hindenburgplatz 2 91710 Gunzenhausen","school_type":"Grundschule","fax":"09831 5006444","phone":"09831 5006-0","website":"http://www.gunnet.de/stephani/stepind.htm","state":"BY","programs":{"programs":[]},"full_time_school":false,"lon":10.75921,"lat":49.117182},{"name":"Volksschule Ornbau","id":"BY-6741","address":"Altstadt 5 91737 Ornbau","school_type":"Grundschule","fax":"09826 659940","phone":"09826 480","website":"http://www.vs-ornbau.de","state":"BY","programs":{"programs":[]},"full_time_school":false,"lon":10.655581,"lat":49.176158},{"name":"Volksschule Pleinfeld","id":"BY-6973","address":"Ringstraße 45 91785 Pleinfeld","school_type":"Grundschule","fax":"09144 9270380","phone":"09144 92703-0","website":null,"state":"BY","programs":{"programs":[]},"full_time_school":false,"lon":10.982001,"lat":49.105173},{"name":"Pestalozzi-Volksschule Sulzbach-Rosenberg an der Konrad-Mayer-Straße","id":"BY-4614","address":"Konrad-Mayer-Straße 2 92237 Sulzbach-Rosenberg","school_type":"Grundschule","fax":"09661 53511","phone":"09661 4524","website":null,"state":"BY","programs":{"programs":[]},"full_time_school":false,"lon":11.747226,"lat":49.500054},{"name":"Volksschule Neumarkt i.d.OPf. in der Hasenheide","id":"BY-4701","address":"Meisenweg 45 92318 Neumarkt","school_type":"Grundschule","fax":"09181 2601008","phone":"09181 9350","website":null,"state":"BY","programs":{"programs":[]},"full_time_school":false,"lon":11.461831,"lat":49.25345},{"name":"Chunradus-Grundschule Sindlbach","id":"BY-4719","address":"Eschenbachstr. 1 92348 Berg Sindlbach","school_type":"Grundschule","fax":"09189 7290","phone":"09189 1284","website":null,"state":"BY","programs":{"programs":[]},"full_time_school":false,"lon":11.457144,"lat":49.363678},{"name":"Volksschule Schwandorf-Fronberg","id":"BY-4859","address":"St.-Andreas-Straße 3 92421 Schwandorf","school_type":"Grundschule","fax":"09431 43166","phone":"09431 2297","website":null,"state":"BY","programs":{"programs":[]},"full_time_school":false,"lon":12.124459,"lat":49.34253},{"name":"Volksschule Trausnitz","id":"BY-4868","address":"Hauptstraße 48 92555 Trausnitz","school_type":"Grundschule","fax":"09655 8195","phone":"09655 8195","website":"http://www.gs.trausnitz.de","state":"BY","programs":{"programs":[]},"full_time_school":false,"lon":12.263936,"lat":49.524544},{"name":"Volksschule Neustadt a.d.Waldnaab","id":"BY-4744","address":"Bildstraße 5 92660 Neustadt","school_type":"Grundschule","fax":"09602 918061","phone":"09602 8438","website":"http://www.gs-neustadt.de","state":"BY","programs":{"programs":[]},"full_time_school":false,"lon":12.17318,"lat":49.726031},{"name":"Volksschule Mantel","id":"BY-4742","address":"Ossangerweg 29 92708 Mantel","school_type":"Grundschule","fax":"09605 1243","phone":"09605 505","website":"http://www.schule-mantel.de","state":"BY","programs":{"programs":[]},"full_time_school":false,"lon":12.043628,"lat":49.656353},{"name":"Volksschule Regensburg-Königswiesen","id":"BY-4544","address":"Klenzestr. 31 93051 Regensburg","school_type":"Grundschule","fax":"0941 5073934","phone":"0941 5073931","website":null,"state":"BY","programs":{"programs":[]},"full_time_school":false,"lon":12.073271,"lat":49.004111},{"name":"Hans-Herrmann-Volksschule Regensburg","id":"BY-4527","address":"Isarstr. 24 93057 Regensburg","school_type":"Grundschule","fax":"0941 5072049","phone":"0941 5072046","website":"http://www.schulen.regensburg.de/hhgs","state":"BY","programs":{"programs":[]},"full_time_school":false,"lon":12.118533,"lat":49.032606},{"name":"Volksschule Hagelstadt","id":"BY-4786","address":"Gailsbacher Str. 1 93095 Hagelstadt","school_type":"Grundschule","fax":"09453 999058","phone":"09453 1706","website":null,"state":"BY","programs":{"programs":[]},"full_time_school":false,"lon":12.218535,"lat":48.895964},{"name":"Volksschule Maxhütte-Haidhof","id":"BY-4838","address":"Regensburger Str. 75 93142 Maxhütte-Haidhof","school_type":"Grundschule","fax":"09471 6019112","phone":"09471 60190","website":null,"state":"BY","programs":{"programs":[]},"full_time_school":false,"lon":12.097003,"lat":49.193951},{"name":"Volksschule Deuerling","id":"BY-4779","address":"Am Kirchberg 14 93180 Deuerling","school_type":"Grundschule","fax":"09498 902318","phone":"09498 902316","website":null,"state":"BY","programs":{"programs":[]},"full_time_school":false,"lon":11.906042,"lat":49.033872},{"name":"Volksschule Offenstetten","id":"BY-3674","address":"Schulstr. 9 93326 Abensberg Offenstetten","school_type":"Grundschule","fax":"09443 905288","phone":"09443 6297","website":null,"state":"BY","programs":{"programs":[]},"full_time_school":false,"lon":11.90927,"lat":48.802437},{"name":"Volksschule Painten","id":"BY-3675","address":"Hemauer Straße 7 93351 Painten","school_type":"Grundschule","fax":"09499 563","phone":"09499 224","website":null,"state":"BY","programs":{"programs":[]},"full_time_school":false,"lon":11.810256,"lat":48.998699},{"name":"Volksschule Waldmünchen","id":"BY-4675","address":"Allee 8 93449 Waldmünchen","school_type":"Grundschule","fax":"09972 903575","phone":"09972 252","website":null,"state":"BY","programs":{"programs":[]},"full_time_school":false,"lon":12.706034,"lat":49.379772},{"name":"Volksschule Pemfling","id":"BY-4655","address":"Pitzlinger Str. 1 93482 Pemfling","school_type":"Grundschule","fax":"09971 801755","phone":"09971 9182","website":"http://www.schule-pemfling.de","state":"BY","programs":{"programs":[]},"full_time_school":false,"lon":12.609935,"lat":49.263966},{"name":"Volksschule Passau-Haidenhof","id":"BY-3527","address":"Bozener Str. 11 94036 Passau","school_type":"Grundschule","fax":"0851 52030","phone":"0851 52180","website":null,"state":"BY","programs":{"programs":[]},"full_time_school":false,"lon":13.42294,"lat":48.557876},{"name":"Volksschule Karlsbach","id":"BY-3631","address":"Kirchberg 6 94065 Waldkirchen Karlsbach","school_type":"Grundschule","fax":"08581 620","phone":"08581 620","website":null,"state":"BY","programs":{"programs":[]},"full_time_school":false,"lon":13.5905843,"lat":48.7635837},{"name":"Volksschule Schaibing","id":"BY-3799","address":"Dorfstr. 30 94107 Untergriesbach Schaibing","school_type":"Grundschule","fax":"08593 6228","phone":"08593 1237","website":null,"state":"BY","programs":{"programs":[]},"full_time_school":false,"lon":13.642404,"lat":48.600534},{"name":"Volksschule Bischofsreut-Haidmühle","id":"BY-3617","address":"Schulstr. 23 94145 Haidmühle Bischofsreut","school_type":"Grundschule","fax":"08556 972757","phone":"08556 331","website":null,"state":"BY","programs":{"programs":[]},"full_time_school":false,"lon":13.77719,"lat":48.827083},{"name":"Volksschule Ruderting","id":"BY-3783","address":"Schulstr. 3 94161 Ruderting","school_type":"Grundschule","fax":"08509 7202","phone":"08509 448","website":"http://www.vsruderting.de","state":"BY","programs":{"programs":[]},"full_time_school":false,"lon":13.411858,"lat":48.65409},{"name":"Volksschule Bischofsmais","id":"BY-3817","address":"Max-Peinkofer-Weg 3 94253 Bischofsmais","school_type":"Grundschule","fax":"09920 902105","phone":"09920 1202","website":"http://www.bnv-regen.de/home/vsbischofsmais-hoch","state":"BY","programs":{"programs":[]},"full_time_school":false,"lon":13.082437,"lat":48.919836},{"name":"Volksschule Straubing-Ittling","id":"BY-3557","address":"Niederalteicher Str. 13 94315 Straubing","school_type":"Grundschule","fax":"09421 7899459","phone":"09421 63288","website":"http://www.gs-ittling.de","state":"BY","programs":{"programs":[]},"full_time_school":false,"lon":12.633241,"lat":48.881493},{"name":"Volksschule Neukirchen","id":"BY-3913","address":"Hauptstr. 6 94362 Neukirchen","school_type":"Grundschule","phone":"09961 6282","website":null,"state":"BY","programs":{"programs":[]},"full_time_school":false,"lon":12.753721,"lat":48.975157},{"name":"Volksschule Plattling","id":"BY-3601","address":"Preysingstraße 21 94447 Plattling","school_type":"Grundschule","fax":"09931 71526","phone":"09931 6748","website":null,"state":"BY","programs":{"programs":[]},"full_time_school":false,"lon":12.865258,"lat":48.776974},{"name":"Volksschule Vilshofen-Aunkirchen","id":"BY-3802","address":"Beutelsbacher Str. 12 94474 Vilshofen Aunkirchen","school_type":"Grundschule","fax":"08543 1445","phone":"08543 1445","website":"http://www.gs-aunkirchen","state":"BY","programs":{"programs":[]},"full_time_school":false,"lon":13.130281,"lat":48.598306},{"name":"Volksschule Bernried","id":"BY-3580","address":"Kirchweg 17 94505 Bernried Edenstetten","school_type":"Grundschule","fax":"09905 8714","phone":"09905 353","website":"http://www.bernried-niederbayern.de/neu","state":"BY","programs":{"programs":[]},"full_time_school":false,"lon":12.925432,"lat":48.892084},{"name":"Volksschule Haarbach","id":"BY-3758","address":"Schulstr. 7 - 9 94542 Haarbach","school_type":"Grundschule","fax":"08535 1385","phone":"08535 310","website":"http://www.vs-haarbach.de.vu","state":"BY","programs":{"programs":[]},"full_time_school":false,"lon":13.149595,"lat":48.501406},{"name":"Volksschule Moos","id":"BY-3590","address":"Kirchplatz 4 94554 Moos","school_type":"Grundschule","fax":"09938 8238","phone":"09938 221","website":null,"state":"BY","programs":{"programs":[]},"full_time_school":false,"lon":12.952018,"lat":48.745068},{"name":"Christian-Wolfrum-Volksschule Hof","id":"BY-5573","address":"Leimitzer Str. 56 95028 Hof","school_type":"Grundschule","fax":"09281 478636","phone":"09281 40036","website":"http://www.cws-hof.de","state":"BY","programs":{"programs":[]},"full_time_school":false,"lon":11.929265,"lat":50.316493},{"name":"Pestalozzi-Volksschule Rehau II","id":"BY-5767","address":"Wallstraße 13 95111 Rehau","school_type":"Grundschule","fax":"09283 899564","phone":"09283 9778","website":"http://www.pestalozzischule-rehau.de","state":"BY","programs":{"programs":[]},"full_time_school":false,"lon":12.037739,"lat":50.249389},{"name":"Volksschule Geroldsgrün","id":"BY-5754","address":"Am Mühlhügel 11 95179 Geroldsgrün","school_type":"Grundschule","fax":"09288 1716","phone":"09288 1706","website":null,"state":"BY","programs":{"programs":[]},"full_time_school":false,"lon":11.596778,"lat":50.340597},{"name":"Kreuzberg-Volksschule Münchberg","id":"BY-5759","address":"Beethovenstraße 10 95213 Münchberg","school_type":"Grundschule","fax":"09251 3013","phone":"09251 3341","website":"http://kreuzberg-volksschule.bnhof.de","state":"BY","programs":{"programs":[]},"full_time_school":false,"lon":11.788106,"lat":50.187047},{"name":"Pestalozzi-Volksschule Kulmbach","id":"BY-5824","address":"Pestalozzistraße 29 95326 Kulmbach","school_type":"Grundschule","fax":"09221 607602","phone":"09221 74382","website":"http://www.pvw-kulmbach.de","state":"BY","programs":{"programs":[]},"full_time_school":false,"lon":11.44716,"lat":50.103417},{"name":"Volksschule Bayreuth-Meyernberg","id":"BY-5538","address":"Bodenseering 55 95445 Bayreuth","school_type":"Grundschule","fax":"0921 735815","phone":"0921 73580","website":null,"state":"BY","programs":{"programs":[]},"full_time_school":false,"lon":11.538484,"lat":49.938832},{"name":"Volksschule Himmelkron-Lanzendorf","id":"BY-5817","address":"Ringstraße 5 95502 Himmelkron","school_type":"Grundschule","fax":"09227 973957","phone":"09227 5136","website":null,"state":"BY","programs":{"programs":[]},"full_time_school":false,"lon":11.597806,"lat":50.065486},{"name":"Theobald-Schrems-Volksschule Mitterteich","id":"BY-4892","address":"Kohllohstr. 8 95666 Mitterteich","school_type":"Grundschule","fax":"09633 4680","phone":"09633 4580","website":"http://www.grundschule.mitterteich.de","state":"BY","programs":{"programs":[]},"full_time_school":false,"lon":12.244947,"lat":49.954439},{"name":"Volksschule Plößberg","id":"BY-4898","address":"Jahnstraße 1 95703 Plößberg","school_type":"Grundschule","fax":"09636 1624","phone":"09636 342","website":null,"state":"BY","programs":{"programs":[]},"full_time_school":false,"lon":12.309886,"lat":49.786186},{"name":"Luitpold-Volksschule Bamberg","id":"BY-5508","address":"Memmelsdorfer Str. 7 a 96052 Bamberg","school_type":"Grundschule","fax":"0951 9620609","phone":"0951 9620600","website":null,"state":"BY","programs":{"programs":[]},"full_time_school":false,"lon":10.889313,"lat":49.902374},{"name":"Volksschule Ebrach","id":"BY-5602","address":"Neudorfer Straße 8 96157 Ebrach","school_type":"Grundschule","fax":"09553 921003","phone":"09553 290","website":null,"state":"BY","programs":{"programs":[]},"full_time_school":false,"lon":10.498038,"lat":49.848887},{"name":"Volksschule Lichtenfels am Markt","id":"BY-5855","address":"Marktplatz 24 96215 Lichtenfels","school_type":"Grundschule","fax":"09571 940477","phone":"09571 940475","website":null,"state":"BY","programs":{"programs":[]},"full_time_school":false,"lon":11.064955,"lat":50.146004},{"name":"Volksschule Großheirath","id":"BY-5685","address":"Schulstr. 32 96269 Großheirath","school_type":"Grundschule","fax":"09565 610847","phone":"09565 1596","website":"http://www.volksschule-grossheirath.de","state":"BY","programs":{"programs":[]},"full_time_school":false,"lon":10.945923,"lat":50.169852},{"name":"Volksschule Wallenfels","id":"BY-5806","address":"Schützenstr. 35 b 96346 Wallenfels","school_type":"Grundschule","fax":"09262 972238","phone":"09262 341","website":"http://www.kronachonline.de/~vsw","state":"BY","programs":{"programs":[]},"full_time_school":false,"lon":11.465323,"lat":50.270829},{"name":"Pestalozzi-Volksschule Coburg","id":"BY-5558","address":"Seidmannsdorfer Straße 72 96450 Coburg","school_type":"Grundschule","fax":"09561 279227","phone":"09561 27920","website":null,"state":"BY","programs":{"programs":[]},"full_time_school":false,"lon":10.976662,"lat":50.253062},{"name":"Goethe/Kepler-Volksschule Würzburg","id":"BY-7551","address":"Von-Luxburg-Str. 3 97074 Würzburg","school_type":"Grundschule","fax":"0931 7953384","phone":"0931 7953380","website":"http://goethe-kepler-schule.de","state":"BY","programs":{"programs":[]},"full_time_school":false,"lon":9.952076,"lat":49.785848},{"name":"Volksschule Veitshöchheim","id":"BY-7972","address":"Günterslebener Str. 41 97209 Veitshöchheim","school_type":"Grundschule","fax":"0931 45232633","phone":"0931 45232630","website":"http://www.grundschule-veitshoechheim.de","state":"BY","programs":{"programs":[]},"full_time_school":false,"lon":9.883075,"lat":49.831204},{"name":"Volksschule Eibelstadt","id":"BY-7930","address":"Schulring 11 97246 Eibelstadt","school_type":"Grundschule","fax":"09303 980675","phone":"09303 382","website":null,"state":"BY","programs":{"programs":[]},"full_time_school":false,"lon":10.002169,"lat":49.725636},{"name":"Volksschule Theilheim","id":"BY-7966","address":"Reisgrube 17 97288 Theilheim","school_type":"Grundschule","phone":"09303 487","website":"http://vs-theilheim.de","state":"BY","programs":{"programs":[]},"full_time_school":false,"lon":10.025581,"lat":49.753633},{"name":"Volksschule Hellmitzheimer Bucht Markt Einersheim","id":"BY-7777","address":"Schulstr. 4 97348 Markt Einersheim","school_type":"Grundschule","fax":"09326 902257","phone":"09326 8736","website":null,"state":"BY","programs":{"programs":[]},"full_time_school":false,"lon":10.288607,"lat":49.686429},{"name":"Friedrich-Rückert-Volksschule Schweinfurt","id":"BY-7529","address":"Gunnar-Wester-Str. 9 97421 Schweinfurt","school_type":"Grundschule","fax":"09721 51940","phone":"09721 51942","website":null,"state":"BY","programs":{"programs":[]},"full_time_school":false,"lon":10.228274,"lat":50.040522},{"name":"Balthasar-Neumann-Volksschule Werneck","id":"BY-7917","address":"Schönbornstr. 40 97440 Werneck","school_type":"Grundschule","fax":"09722 9490416","phone":"09722 949040","website":"http://www.grundschule-werneck.de","state":"BY","programs":{"programs":[]},"full_time_school":false,"lon":10.099658,"lat":49.985188},{"name":"Volksschule Am Zabelstein Donnersdorf","id":"BY-7913","address":"Schulstr. 2 97499 Donnersdorf Traustadt","school_type":"Grundschule","fax":"09528 950175","phone":"09528 950166","website":null,"state":"BY","programs":{"programs":[]},"full_time_school":false,"lon":10.411086,"lat":49.937338},{"name":"Volksschule Schwebheim","id":"BY-7907","address":"Schulstraße 20 97525 Schwebheim","school_type":"Grundschule","fax":"09723 912332","phone":"09723 912322","website":null,"state":"BY","programs":{"programs":[]},"full_time_school":false,"lon":10.251425,"lat":49.998472},{"name":"Volksschule Wollbach","id":"BY-7720","address":"Schulstr. 20 97618 Wollbach","school_type":"Grundschule","fax":"09773 6870","phone":"09773 6260","website":null,"state":"BY","programs":{"programs":[]},"full_time_school":false,"lon":10.224927,"lat":50.362393},{"name":"Anton-Kliegl-Volksschule Bad Kissingen","id":"BY-7649","address":"Platz der Heimattreue 1 97688 Bad Kissingen","school_type":"Grundschule","fax":"0971 7854929","phone":"0971 7854920","website":null,"state":"BY","programs":{"programs":[]},"full_time_school":false,"lon":10.078061,"lat":50.204408},{"name":"Volksschule Burglauer","id":"BY-7654","address":"Jahnstraße 12 97724 Burglauer","school_type":"Grundschule","fax":"09733 6539","phone":"09733 9688","website":null,"state":"BY","programs":{"programs":[]},"full_time_school":false,"lon":10.180386,"lat":50.273109},{"name":"Volksschule Hammelburg","id":"BY-7662","address":"Friedrich-Müller-Straße 19 97762 Hammelburg","school_type":"Grundschule","fax":"09732 4555","phone":"09732 4524","website":null,"state":"BY","programs":{"programs":[]},"full_time_school":false,"lon":9.891936,"lat":50.112785},{"name":"Volksschule Lohr a.Main","id":"BY-7853","address":"Kaplan-Höfling-Str. 16 97816 Lohr","school_type":"Grundschule","fax":"09352 508886","phone":"09352 508884","website":"http://www.grundschule-lohr.de","state":"BY","programs":{"programs":[]},"full_time_school":false,"lon":9.57444,"lat":49.992976},{"name":"Volksschule Steinfeld","id":"BY-7869","address":"Waldzeller Str. 11 97854 Steinfeld","school_type":"Grundschule","fax":"09359 90198","phone":"09359 361","website":"http://www.primolo.de/home/gssteinfeld","state":"BY","programs":{"programs":[]},"full_time_school":false,"lon":9.665699,"lat":49.952154},{"name":"Volksschule Dorfprozelten/Stadtprozelten","id":"BY-7798","address":"Schulstr. 4 97904 Dorfprozelten","school_type":"Grundschule","fax":"09392 98997","phone":"09392 98996","website":"http://www.vs-dorfprozelten.de","state":"BY","programs":{"programs":[]},"full_time_school":false,"lon":9.382922,"lat":49.775706},{"name":"Volksschule Collenberg","id":"BY-7797","address":"Jahnstraße 4 97903 Collenberg","school_type":"Grundschule","fax":"09376 9740059","phone":"09376 484","website":null,"state":"BY","programs":{"programs":[]},"full_time_school":false,"lon":9.328832,"lat":49.77484},{"name":"Volksschule Wiesthal","id":"BY-7876","address":"Schulstr. 12 97859 Wiesthal","school_type":"Grundschule","fax":"06020 2877","phone":"06020 425","website":null,"state":"BY","programs":{"programs":[]},"full_time_school":false,"lon":9.427439,"lat":50.029267},{"name":"Volksschule Urspringen","id":"BY-7872","address":"Schulstr. 8 97857 Urspringen","school_type":"Grundschule","fax":"09396 993865","phone":"09396 371","website":null,"state":"BY","programs":{"programs":[]},"full_time_school":false,"lon":9.672828,"lat":49.904139},{"name":"Volksschule Triefenstein","id":"BY-7852","address":"Spessartstr. 20 97855 Triefenstein Lengfurt","school_type":"Grundschule","fax":"09395 997870","phone":"09395 484","website":null,"state":"BY","programs":{"programs":[]},"full_time_school":false,"lon":9.593936,"lat":49.815681},{"name":"Volksschule Partenstein","id":"BY-7863","address":"Schulstraße 10 97846 Partenstein","school_type":"Grundschule","fax":"09355 99967","phone":"09355 1888","website":"http://schule.partenstein.de","state":"BY","programs":{"programs":[]},"full_time_school":false,"lon":9.521521,"lat":50.041916},{"name":"Volksschule Karbach","id":"BY-7845","address":"Schulstr. 8 97842 Karbach","school_type":"Grundschule","fax":"09391 8916","phone":"09391 1752","website":null,"state":"BY","programs":{"programs":[]},"full_time_school":false,"lon":9.639349,"lat":49.868656},{"name":"Volksschule Hafenlohr","id":"BY-7844","address":"Herrngasse 6 97840 Hafenlohr","school_type":"Grundschule","fax":"09391 6156","phone":"09391 3901","website":null,"state":"BY","programs":{"programs":[]},"full_time_school":false,"lon":9.601223,"lat":49.870419},{"name":"Volksschule Erlenbach b.Marktheidenfeld","id":"BY-7836","address":"Schulstraße 7 97837 Erlenbach","school_type":"Grundschule","fax":"09391 919811","phone":"09391 2261","website":null,"state":"BY","programs":{"programs":[]},"full_time_school":false,"lon":9.63102,"lat":49.819002},{"name":"Friedrich-Fleischmann-Volksschule Marktheidenfeld","id":"BY-7860","address":"Ludwigstraße 29 97828 Marktheidenfeld","school_type":"Grundschule","fax":"09391 81708","phone":"09391 5864","website":null,"state":"BY","programs":{"programs":[]},"full_time_school":false,"lon":9.611811,"lat":49.845282},{"name":"Volksschule Lohr a.Main-Wombach","id":"BY-7859","address":"Bachstr. 32 97816 Lohr Wombach","school_type":"Grundschule","fax":"09352 807293","phone":"09352 1354","website":null,"state":"BY","programs":{"programs":[]},"full_time_school":false,"lon":9.566268,"lat":49.975502},{"name":"Volksschule Lohr a.Main-Sackenbach","id":"BY-7857","address":"Zeiläckerweg 1 97816 Lohr Sackenbach","school_type":"Grundschule","fax":"09352 807291","phone":"09352 2736","website":null,"state":"BY","programs":{"programs":[]},"full_time_school":false,"lon":9.5914739,"lat":50.004687},{"name":"Volksschule Lohr a.Main-Sendelbach","id":"BY-7855","address":"Ostlandstr. 19 97816 Lohr Sendelbach","school_type":"Grundschule","fax":"09352 807244","phone":"09352 2872","website":"http://www.gssendelbach.de","state":"BY","programs":{"programs":[]},"full_time_school":false,"lon":9.588984,"lat":49.99215},{"name":"Volksschule Zeitlofs","id":"BY-7684","address":"Raiffeisen Str. 36 97799 Zeitlofs","school_type":"Grundschule","fax":"09746 347","phone":"09746 347","website":null,"state":"BY","programs":{"programs":[]},"full_time_school":false,"lon":9.666733,"lat":50.260065},{"name":"Volksschule Wartmannsroth","id":"BY-7657","address":"Gerstenberg 8 97797 Wartmannsroth Dittlofsroda","school_type":"Grundschule","fax":"09357 992012","phone":"09357 682","website":null,"state":"BY","programs":{"programs":[]},"full_time_school":false,"lon":9.7635,"lat":50.15372},{"name":"Volksschule Rieneck","id":"BY-7866","address":"Lamperweg 3 97794 Rieneck","school_type":"Grundschule","fax":"09354 398","phone":"09354 398","website":null,"state":"BY","programs":{"programs":[]},"full_time_school":false,"lon":9.644003,"lat":50.092927},{"name":"Volksschule Riedenberg","id":"BY-7679","address":"Kirchstr. 11 97792 Riedenberg","school_type":"Grundschule","fax":"09749 289","phone":"09749 289","website":null,"state":"BY","programs":{"programs":[]},"full_time_school":false,"lon":9.862587,"lat":50.320135},{"name":"Volksschule Oberleichtersbach","id":"BY-7674","address":"Schulstr. 11 97789 Oberleichtersbach","school_type":"Grundschule","fax":"09741 2637","phone":"09741 3103","website":null,"state":"BY","programs":{"programs":[]},"full_time_school":false,"lon":9.805524,"lat":50.271552},{"name":"Volksschule Motten","id":"BY-7669","address":"Am Kirchberg 10 97786 Motten Kothen","school_type":"Grundschule","fax":"09748 9282","phone":"09748 9281","website":null,"state":"BY","programs":{"programs":[]},"full_time_school":false,"lon":9.772406,"lat":50.396341},{"name":"Volksschule Gräfendorf","id":"BY-7843","address":"Am Forsthaus 3 97782 Gräfendorf","school_type":"Grundschule","fax":"09357 992201","phone":"09357 992200","website":"http://www.vs-graefendorf.de","state":"BY","programs":{"programs":[]},"full_time_school":false,"lon":9.744095,"lat":50.122939},{"name":"Volksschule Gössenheim","id":"BY-7842","address":"Hauptstr. 29 a 97780 Gössenheim","school_type":"Grundschule","fax":"09358 901077","phone":"09358 262","website":null,"state":"BY","programs":{"programs":[]},"full_time_school":false,"lon":9.780932,"lat":50.020283},{"name":"Volksschule Aura i.Sinngrund","id":"BY-7834","address":"Hauptstr. 1 97773 Aura","school_type":"Grundschule","fax":"09356 933690","phone":"09356 5362","website":null,"state":"BY","programs":{"programs":[]},"full_time_school":false,"lon":9.574477,"lat":50.175805},{"name":"Volksschule Bad Brückenau","id":"BY-7648","address":"Am Kleinen Steinbusch 8 97769 Bad Brückenau","school_type":"Grundschule","fax":"09741 3729","phone":"09741 2197","website":null,"state":"BY","programs":{"programs":[]},"full_time_school":false,"lon":9.787094,"lat":50.304322},{"name":"Volksschule Karlstadt-Wiesenfeld/Karlburg","id":"BY-7875","address":"Schloßgartenweg 3 97753 Karlstadt Wiesenfeld","school_type":"Grundschule","fax":"09359 909719","phone":"09359 301","website":"http://www.vswiesenfeld.de","state":"BY","programs":{"programs":["Fairtrade Schools"]},"full_time_school":false,"lon":9.6992896,"lat":49.970431},{"name":"Volksschule Karlstadt","id":"BY-7847","address":"Ostlandstraße 25 97753 Karlstadt","school_type":"Grundschule","fax":"09353 996938","phone":"09353 8191","website":null,"state":"BY","programs":{"programs":["Schule ohne Rassismus - Schule mit Courage"]},"full_time_school":false,"lon":9.776716,"lat":49.961219},{"name":"Volksschule Gemünden a. Main-Wernfeld","id":"BY-7873","address":"Artfeldstr. 12 97737 Gemünden Wernfeld","school_type":"Grundschule","fax":"09351 8824","phone":"09351 8824","website":null,"state":"BY","programs":{"programs":[]},"full_time_school":false,"lon":9.72725,"lat":50.024275},{"name":"Volksschule Gemünden-Langenprozelten","id":"BY-7850","address":"Schulgasse 4 97737 Gemünden Langenprozelten","school_type":"Grundschule","fax":"09351 3106","phone":"09351 3106","website":null,"state":"BY","programs":{"programs":[]},"full_time_school":false,"lon":9.113207,"lat":50.706881},{"name":"Volksschule Gemünden a.Main","id":"BY-7840","address":"Hofweg 4 97737 Gemünden","school_type":"Grundschule","fax":"09351 601649","phone":"09351 3535","website":null,"state":"BY","programs":{"programs":[]},"full_time_school":false,"lon":9.6904,"lat":50.056},{"name":"Volksschule Thundorf i.UFr.","id":"BY-7683","address":"Leiten 10 97711 Thundorf Rothhausen","school_type":"Grundschule","fax":"09724 1753","phone":"09724 1752","website":null,"state":"BY","programs":{"programs":[]},"full_time_school":false,"lon":10.325847,"lat":50.185658},{"name":"Volksschule Maßbach-Poppenlauer","id":"BY-7667","address":"Wermerichshäuser Weg 14 97711 Maßbach Poppenlauer","school_type":"Grundschule","fax":"09733 4268","phone":"09733 9401","website":null,"state":"BY","programs":{"programs":[]},"full_time_school":false,"lon":10.240107,"lat":50.21629},{"name":"Volksschule Burkardroth","id":"BY-7677","address":"Steinbergstr. 44 97705 Burkardroth Premich","school_type":"Grundschule","fax":"09701 8633","phone":"09701 383","website":"http://vspremich.de","state":"BY","programs":{"programs":[]},"full_time_school":false,"lon":10.019102,"lat":50.302332},{"name":"Volksschule Münnerstadt-Großwenkheim","id":"BY-7672","address":"Ringweg 31 97702 Münnerstadt-Seubrigshausen Großwenkheim","school_type":"Grundschule","fax":"09766 1653","phone":"09766 477","website":null,"state":"BY","programs":{"programs":[]},"full_time_school":false,"lon":10.328293,"lat":50.229025},{"name":"Freiherr-von-Lutz-Volksschule Münnerstadt","id":"BY-7670","address":"Schützenstraße 28 97702 Münnerstadt","school_type":"Grundschule","fax":"09733 810220","phone":"09733 810211","website":null,"state":"BY","programs":{"programs":[]},"full_time_school":false,"lon":10.203538,"lat":50.246695},{"name":"Henneberg-Volksschule Bad Kissingen-Garitz","id":"BY-7651","address":"Baptist-Hoffmann-Str. 14 97688 Bad Kissingen Garitz","school_type":"Grundschule","fax":"0971 60573","phone":"0971 5725","website":null,"state":"BY","programs":{"programs":[]},"full_time_school":false,"lon":10.057134,"lat":50.191626},{"name":"Volksschule Sandberg","id":"BY-7715","address":"Kreuzbergstraße 97657 Sandberg","school_type":"Grundschule","fax":"09701 9212","phone":"09701 9210","website":"http://www.volksschule-sandberg.de","state":"BY","programs":{"programs":[]},"full_time_school":false,"lon":10.007294,"lat":50.348105},{"name":"Valentin-Rathgeber-Volksschule Oberelsbach","id":"BY-7709","address":"Neumühlenweg 2 97656 Oberelsbach Weisbach","school_type":"Grundschule","fax":"09774 9234","phone":"09774 9233","website":null,"state":"BY","programs":{"programs":[]},"full_time_school":false,"lon":10.078357,"lat":50.424896},{"name":"Volksschule Besengau-Bastheim","id":"BY-7695","address":"Schulstr. 8 97654 Bastheim","school_type":"Grundschule","fax":"09773 1786","phone":"09773 434","website":null,"state":"BY","programs":{"programs":[]},"full_time_school":false,"lon":10.204833,"lat":50.398941},{"name":"Volksschule Nordheim v.d.Rhön","id":"BY-7708","address":"Schulstr. 5 97647 Nordheim","school_type":"Grundschule","fax":"09779 1897","phone":"09779 330","website":null,"state":"BY","programs":{"programs":[]},"full_time_school":false,"lon":10.186167,"lat":50.479698},{"name":"Volksschule Ostheim v.d.Rhön","id":"BY-7711","address":"Ritter-von-Halt-Str. 1 97645 Ostheim","school_type":"Grundschule","fax":"09777 9216","phone":"09777 9215","website":null,"state":"BY","programs":{"programs":[]},"full_time_school":false,"lon":10.232617,"lat":50.460738},{"name":"Volksschule Oberstreu","id":"BY-7710","address":"Gartenstr. 1 97640 Oberstreu Mittelstreu","school_type":"Grundschule","fax":"09773 5192","phone":"09773 1279","website":null,"state":"BY","programs":{"programs":[]},"full_time_school":false,"lon":10.271878,"lat":50.391464},{"name":"Volksschule Mellrichstadt","id":"BY-7706","address":"Friedenstr. 22 97638 Mellrichstadt","school_type":"Grundschule","fax":"09776 7413","phone":"09776 277","website":null,"state":"BY","programs":{"programs":[]},"full_time_school":false,"lon":10.304687,"lat":50.428143},{"name":"Volksschule Sulzfeld","id":"BY-7764","address":"Schulstr. 2 97633 Sulzfeld","school_type":"Grundschule","fax":"09761 397309","phone":"09761 2502","website":"http://www.vs-sulzfeld.de","state":"BY","programs":{"programs":[]},"full_time_school":false,"lon":10.406558,"lat":50.263198},{"name":"Volksschule Saaletal in Saal a.d. Saale","id":"BY-7713","address":"Marktplatz 1 97633 Saal","school_type":"Grundschule","fax":"09762 6197","phone":"09762 6117","website":null,"state":"BY","programs":{"programs":[]},"full_time_school":false,"lon":10.356063,"lat":50.31692},{"name":"Volksschule Milzgrund in Aubstadt","id":"BY-7691","address":"Schulstr. 8 97633 Aubstadt","school_type":"Grundschule","fax":"09761 5585","phone":"09761 2602","website":"http://vsmilzgrund.de","state":"BY","programs":{"programs":[]},"full_time_school":false,"lon":10.434088,"lat":50.330437},{"name":"Volksschule Hollstadt","id":"BY-7703","address":"Schulstr. 5 97618 Hollstadt","school_type":"Grundschule","fax":"09773 763","phone":"09773 6621","website":null,"state":"BY","programs":{"programs":[]},"full_time_school":false,"lon":10.287175,"lat":50.354731},{"name":"Karl-Straub-Volksschule Salz","id":"BY-7714","address":"Hirtshorn 2 97616 Salz","school_type":"Grundschule","fax":"09771 994181","phone":"09771 3567","website":"http://www.vs-salz.de","state":"BY","programs":{"programs":[]},"full_time_school":false,"lon":10.215672,"lat":50.306053},{"name":"Volksschule Bad Neustadt a.d.Saale-Brendlorenzen","id":"BY-7697","address":"Valentin-Rathgeber-Str. 1-3 97616 Bad Neustadt Brendlorenzen","school_type":"Grundschule","fax":"09771 994139","phone":"09771 3263","website":null,"state":"BY","programs":{"programs":[]},"full_time_school":false,"lon":10.211537,"lat":50.332689},{"name":"Volksschule Bad Neustadt a.d.Saale-Herschfeld","id":"BY-7694","address":"Kirchstraße 16 97616 Bad Neustadt Herschfeld","school_type":"Grundschule","fax":"09771 994119","phone":"09771 2374","website":null,"state":"BY","programs":{"programs":[]},"full_time_school":false,"lon":8.149619,"lat":49.35225},{"name":"Karl-Ludwig-von-Guttenberg-Volksschule Bad Neustadt a.d.Saale","id":"BY-7692","address":"Rhönblick 15 97616 Bad Neustadt","school_type":"Grundschule","fax":"09771 994130","phone":"09771 2534","website":"http://www.gsnes.de","state":"BY","programs":{"programs":[]},"full_time_school":false,"lon":10.20509,"lat":50.323988},{"name":"Volksschule Wasserlosen","id":"BY-7926","address":"Friedhofstraße 14 97535 Wasserlosen","school_type":"Grundschule","fax":"09726 8424","phone":"09726 3869","website":null,"state":"BY","programs":{"programs":[]},"full_time_school":false,"lon":10.030112,"lat":50.096581},{"name":"Volksschule Sennfeld","id":"BY-7908","address":"Gartenstraße 2 97526 Sennfeld","school_type":"Grundschule","fax":"09721 60150","phone":"09721 60150","website":null,"state":"BY","programs":{"programs":[]},"full_time_school":false,"lon":10.257101,"lat":50.039188},{"name":"Volksschule Schwanfeld","id":"BY-7905","address":"Schulstr. 4 - 6 97523 Schwanfeld","school_type":"Grundschule","fax":"09384 8649","phone":"09384 253","website":"http://www.vs-schwanfeld.de","state":"BY","programs":{"programs":[]},"full_time_school":false,"lon":10.140499,"lat":49.919177},{"name":"Volksschule Röthlein","id":"BY-7903","address":"Friedhofstr. 1 97520 Röthlein","school_type":"Grundschule","fax":"09723 5966","phone":"09723 1519","website":"http://www.roethlein.de","state":"BY","programs":{"programs":[]},"full_time_school":false,"lon":10.216927,"lat":49.988526},{"name":"Volksschule Oberaurach","id":"BY-7750","address":"Am Sportzentrum 4 97514 Oberaurach Trossenfurt","school_type":"Grundschule","fax":"09522 950837","phone":"09522 328","website":null,"state":"BY","programs":{"programs":[]},"full_time_school":false,"lon":10.660636,"lat":49.924194},{"name":"Volksschule Kolitzheim","id":"BY-7915","address":"Schulweg 15 97509 Kolitzheim Herlheim","school_type":"Grundschule","fax":"09382 3733","phone":"09382 8388","website":"http://www.grundschule-kolitzheim.de","state":"BY","programs":{"programs":[]},"full_time_school":false,"lon":10.2692244,"lat":49.9067164},{"name":"Volksschule Grettstadt","id":"BY-7894","address":"Kirchgasse 11 97508 Grettstadt","school_type":"Grundschule","fax":"09729 7297","phone":"09729 7204","website":"http://www.schule.grettstadt.de","state":"BY","programs":{"programs":[]},"full_time_school":false,"lon":10.313298,"lat":49.985521},{"name":"Theresia-Gerhardinger-Volksschule Grafenrheinfeld","id":"BY-7893","address":"Hermasweg 1 b 97506 Grafenrheinfeld","school_type":"Grundschule","fax":"09723 5965","phone":"09723 1422","website":null,"state":"BY","programs":{"programs":[]},"full_time_school":false,"lon":10.20193,"lat":50.005984},{"name":"Volksschule Euerbach","id":"BY-7888","address":"Schulstraße 1 97502 Euerbach","school_type":"Grundschule","fax":"09726 915544","phone":"09726 435","website":null,"state":"BY","programs":{"programs":[]},"full_time_school":false,"lon":10.135764,"lat":50.060571},{"name":"Volksschule Ebelsbach","id":"BY-7729","address":"Georg-Schäfer-Str. 58 97500 Ebelsbach","school_type":"Grundschule","fax":"09522 1228","phone":"09522 70492","website":null,"state":"BY","programs":{"programs":[]},"full_time_school":false,"lon":10.683778,"lat":49.989156},{"name":"Volksschule Burgpreppach","id":"BY-7728","address":"Fitzendorfer Str. 5 97496 Burgpreppach","school_type":"Grundschule","fax":"09534 213","phone":"09534 272","website":null,"state":"BY","programs":{"programs":[]},"full_time_school":false,"lon":10.642398,"lat":50.13934},{"name":"Julius-Echter-Volksschule in Bergrheinfeld","id":"BY-7883","address":"Schloßgasse 1 97493 Bergrheinfeld","school_type":"Grundschule","fax":"09721 97312","phone":"09721 90454","website":null,"state":"BY","programs":{"programs":[]},"full_time_school":false,"lon":10.179353,"lat":50.005287},{"name":"Regiomontanus-Volksschule Königsberg i.Bay.","id":"BY-7740","address":"Alleestr. 1 a 97486 Königsberg","school_type":"Grundschule","fax":"09525 8358","phone":"09525 8481","website":null,"state":"BY","programs":{"programs":[]},"full_time_school":false,"lon":10.566315,"lat":50.079894},{"name":"Johann-Baptist-Graser-Volksschule Eltmann","id":"BY-7732","address":"Oskar-Serrand-Straße 25 97483 Eltmann","school_type":"Grundschule","fax":"09522 950311","phone":"09522 950310","website":null,"state":"BY","programs":{"programs":[]},"full_time_school":false,"lon":10.663156,"lat":49.969205},{"name":"Volksschule Zeil a.Main/Sand a.Main","id":"BY-7754","address":"Schulring 1 97475 Zeil","school_type":"Grundschule","fax":"09524 94997","phone":"09524 94992","website":null,"state":"BY","programs":{"programs":[]},"full_time_school":false,"lon":10.592933,"lat":50.011588},{"name":"Volksschule Gochsheim","id":"BY-7891","address":"Adam-Riese-Str. 12 97469 Gochsheim","school_type":"Grundschule","fax":"09721 6496210","phone":"09721 6752930","website":"http://www.grundschule-gochsheim.de","state":"BY","programs":{"programs":[]},"full_time_school":false,"lon":10.288006,"lat":50.023261},{"name":"Volksschule Hofheim i.UFr.","id":"BY-7735","address":"Johannisstr. 32 97461 Hofheim","school_type":"Grundschule","fax":"09523 6149","phone":"09523 6038","website":null,"state":"BY","programs":{"programs":[]},"full_time_school":false,"lon":10.519914,"lat":50.141226},{"name":"Volksschule Schonungen","id":"BY-7904","address":"Schulweg 7 - 13 97453 Schonungen","school_type":"Grundschule","fax":"09721 75173","phone":"09721 75172","website":null,"state":"BY","programs":{"programs":[]},"full_time_school":false,"lon":10.303087,"lat":50.052131},{"name":"Volksschule Arnstein-Schwebenried","id":"BY-7868","address":"Schulstr. 7 97450 Arnstein Schwebenried","school_type":"Grundschule","fax":"09728 241","phone":"09728 241","website":null,"state":"BY","programs":{"programs":[]},"full_time_school":false,"lon":11.457401,"lat":51.699099},{"name":"Volksschule Arnstein","id":"BY-7832","address":"Schwebenrieder Str. 10 97450 Arnstein","school_type":"Grundschule","fax":"09363 99059","phone":"09363 1789","website":null,"state":"BY","programs":{"programs":[]},"full_time_school":false,"lon":9.972826,"lat":49.980196},{"name":"Volksschule Gerolzhofen","id":"BY-7890","address":"Lülsfelder Weg 6 97447 Gerolzhofen","school_type":"Grundschule","fax":"09382 310071","phone":"09382 310070","website":"http://www.grundschule-gerolzhofen.de","state":"BY","programs":{"programs":[]},"full_time_school":false,"lon":10.349233,"lat":49.898196},{"name":"Volksschule Haßfurt","id":"BY-7733","address":"Dürerweg 22 97437 Haßfurt","school_type":"Grundschule","fax":"09521 944497","phone":"09521 944455","website":null,"state":"BY","programs":{"programs":[]},"full_time_school":false,"lon":10.524605,"lat":50.035689},{"name":"Gartenstadt-Volksschule Schweinfurt","id":"BY-7531","address":"Kleinflürleinsweg 38 97424 Schweinfurt","school_type":"Grundschule","fax":"09721 51950","phone":"09721 51952","website":null,"state":"BY","programs":{"programs":[]},"full_time_school":false,"lon":10.216996,"lat":50.0593},{"name":"Dr.-Pfeiffer-Volksschule Schweinfurt","id":"BY-7528","address":"Fuchsgasse 1 97424 Schweinfurt","school_type":"Grundschule","fax":"09721 7968553","phone":"09721 7968552","website":null,"state":"BY","programs":{"programs":[]},"full_time_school":false,"lon":10.205257,"lat":50.027817},{"name":"Albert-Schweitzer-Volksschule Schweinfurt","id":"BY-7523","address":"Albert-Schweitzer-Str. 3 97424 Schweinfurt","school_type":"Grundschule","fax":"09721 51947","phone":"09721 51949","website":"http://www.albertschweitzerschule-schweinfurt.de","state":"BY","programs":{"programs":[]},"full_time_school":false,"lon":10.201932,"lat":50.039521},{"name":"Schiller-Volksschule Schweinfurt","id":"BY-7535","address":"Deutschhöfer Str. 22 97422 Schweinfurt","school_type":"Grundschule","fax":"09721 51879","phone":"09721 51882","website":null,"state":"BY","programs":{"programs":[]},"full_time_school":false,"lon":10.231648,"lat":50.053331},{"name":"Kerschensteiner-Volksschule Schweinfurt","id":"BY-7533","address":"Kerschensteinerstr. 2 97422 Schweinfurt","school_type":"Grundschule","fax":"09721 51960","phone":"09721 51962","website":null,"state":"BY","programs":{"programs":[]},"full_time_school":false,"lon":10.244145,"lat":50.059935},{"name":"Priv. Montessori-Volksschule","id":"BY-7668","address":"Gorch-Fock-Str. 1 a 97421 Schweinfurt","school_type":"Grundschule","fax":"09721 84073","phone":"09721 85000","website":"http://www.montessori-schweinfurt.de","state":"BY","programs":{"programs":[]},"full_time_school":false,"lon":10.219176,"lat":50.052245},{"name":"Körner-Volksschule Schweinfurt","id":"BY-7532","address":"Körnerstr. 1 97421 Schweinfurt","school_type":"Grundschule","fax":"09721 51368","phone":"09721 51368","website":null,"state":"BY","programs":{"programs":[]},"full_time_school":false,"lon":10.220793,"lat":50.046907},{"name":"Auen-Volksschule Schweinfurt","id":"BY-7526","address":"Friedhofstr. 35 97421 Schweinfurt","school_type":"Grundschule","fax":"09721 51970","phone":"09721 51973","website":null,"state":"BY","programs":{"programs":[]},"full_time_school":false,"lon":10.223852,"lat":50.050699},{"name":"Volksschule Schwarzacher Becken Schwarzach a.Main","id":"BY-7780","address":"Schulstr. 2 97359 Schwarzach Münsterschwarzach","school_type":"Grundschule","fax":"09324 3518","phone":"09324 762","website":null,"state":"BY","programs":{"programs":[]},"full_time_school":false,"lon":8.995912,"lat":49.381659},{"name":"Volksschule Kleinlangheim","id":"BY-7772","address":"Schulstr. 18 97355 Kleinlangheim","school_type":"Grundschule","fax":"09325 233","phone":"09325 210","website":null,"state":"BY","programs":{"programs":[]},"full_time_school":false,"lon":10.279864,"lat":49.773884},{"name":"Volksschule Mainbernheim","id":"BY-7773","address":"Holzgraben 13 97350 Mainbernheim","school_type":"Grundschule","fax":"09323 6285","phone":"09323 1222","website":"http://www.vs-mainbernheim.de","state":"BY","programs":{"programs":[]},"full_time_school":false,"lon":10.219378,"lat":49.711803},{"name":"Volksschule Willanzheim","id":"BY-7786","address":"Schulstr. 8 97348 Willanzheim","school_type":"Grundschule","fax":"09323 870204","phone":"09323 3058","website":null,"state":"BY","programs":{"programs":[]},"full_time_school":false,"lon":10.227559,"lat":49.681175},{"name":"Volksschule Martinsheim","id":"BY-7779","address":"Bäckergasse 11 97340 Martinsheim","school_type":"Grundschule","fax":"09332 590328","phone":"09332 9206","website":null,"state":"BY","programs":{"programs":[]},"full_time_school":false,"lon":10.152038,"lat":49.624773},{"name":"Volksschule Marktbreit","id":"BY-7775","address":"Fleischmannstr. 3 a 97340 Marktbreit","school_type":"Grundschule","fax":"09332 4658","phone":"09332 9535","website":"http://gs_marktbreityahoo.de","state":"BY","programs":{"programs":[]},"full_time_school":false,"lon":10.145907,"lat":49.66621},{"name":"Volksschule Sommerach","id":"BY-7783","address":"Raiffeisenstr. 9 97334 Sommerach","school_type":"Grundschule","fax":"09381 717679","phone":"09381 2434","website":"http://www.home.t-online.de/home/volksschule-sommerach","state":"BY","programs":{"programs":[]},"full_time_school":false,"lon":10.204381,"lat":49.831377},{"name":"Albert-Schweitzer-Volksschule Albertshofen","id":"BY-7760","address":"Waldstr. 9 97320 Albertshofen","school_type":"Grundschule","fax":"09321 384831","phone":"09321 31558","website":null,"state":"BY","programs":{"programs":[]},"full_time_school":false,"lon":10.164297,"lat":49.766192},{"name":"Volksschule Kitzingen-Siedlung","id":"BY-7769","address":"Danziger Straße 1 97318 Kitzingen","school_type":"Grundschule","fax":"09321 9305060","phone":"09321 9305050","website":"http://gss.stadt-kitzingen.de","state":"BY","programs":{"programs":[]},"full_time_school":false,"lon":10.181834,"lat":49.729007},{"name":"St.-Hedwig-Volksschule Kitzingen","id":"BY-7767","address":"Schulhof 3 97318 Kitzingen","school_type":"Grundschule","fax":"09321 929904","phone":"09321 25444","website":"http://www.kitzingen.de/st-hedwig","state":"BY","programs":{"programs":[]},"full_time_school":false,"lon":10.160864,"lat":49.740861},{"name":"Volksschule Zell a.Main","id":"BY-7975","address":"Schulstr. 6 97299 Zell","school_type":"Grundschule","fax":"0931 462791","phone":"0931 462791","website":null,"state":"BY","programs":{"programs":[]},"full_time_school":false,"lon":9.872905,"lat":49.809488},{"name":"Volksschule Thüngersheim","id":"BY-7967","address":"Schulstraße 1 97291 Thüngersheim","school_type":"Grundschule","fax":"09364 811925","phone":"09364 9643","website":null,"state":"BY","programs":{"programs":[]},"full_time_school":false,"lon":9.84064,"lat":49.881804},{"name":"Volksschule Thüngen","id":"BY-7871","address":"Frühlingsstr. 3 97289 Thüngen","school_type":"Grundschule","fax":"09360 99998","phone":"09360 322","website":"http://volksschule-thuengen.de","state":"BY","programs":{"programs":[]},"full_time_school":false,"lon":9.8594,"lat":49.9422},{"name":"Volksschule Röttingen","id":"BY-7960","address":"Schulstr. 5 97285 Röttingen","school_type":"Grundschule","fax":"09338 9801090","phone":"09338 302","website":null,"state":"BY","programs":{"programs":[]},"full_time_school":false,"lon":9.973562,"lat":49.509402},{"name":"Volksschule Retzstadt","id":"BY-7516","address":"Schulstr. 1 97282 Retzstadt","school_type":"Grundschule","fax":"09364 812040","phone":"09364 9546","website":"http://www.grundschule-retzstadt.de","state":"BY","programs":{"programs":[]},"full_time_school":false,"lon":9.875024,"lat":49.909305},{"name":"Volksschule Leinach","id":"BY-7970","address":"F.-J.-Strauß-Straße 97274 Leinach","school_type":"Grundschule","fax":"09364 812846","phone":"09364 5852","website":"http://www.vs-leinach.de","state":"BY","programs":{"programs":[]},"full_time_school":false,"lon":9.8058,"lat":49.8619},{"name":"Volksschule Kürnach","id":"BY-7948","address":"An der Heiligen Wiese 97273 Kürnach","school_type":"Grundschule","fax":"09367 2474","phone":"09367 410","website":null,"state":"BY","programs":{"programs":[]},"full_time_school":false,"lon":10.0333,"lat":49.85},{"name":"Volksschule Kist","id":"BY-7946","address":"Oskar-Popp-Str. 4 97270 Kist","school_type":"Grundschule","fax":"09306 981829","phone":"09306 1622","website":null,"state":"BY","programs":{"programs":[]},"full_time_school":false,"lon":9.841569,"lat":49.742926},{"name":"Volksschule Kirchheim","id":"BY-7945","address":"Rathausstr. 4 97268 Kirchheim","school_type":"Grundschule","fax":"09366 990334","phone":"09366 1566","website":null,"state":"BY","programs":{"programs":[]},"full_time_school":false,"lon":9.858963,"lat":49.656009},{"name":"Volksschule Himmelstadt","id":"BY-7517","address":"Brückenstr. 12a 97267 Himmelstadt","school_type":"Grundschule","fax":"09364 896331","phone":"09364 896330","website":null,"state":"BY","programs":{"programs":[]},"full_time_school":false,"lon":9.804596,"lat":49.922343},{"name":"Astrid-Lindgren-Volksschule Helmstadt","id":"BY-7942","address":"Don-Bosco-Str. 1 97264 Helmstadt","school_type":"Grundschule","fax":"09369 652","phone":"09369 651","website":null,"state":"BY","programs":{"programs":[]},"full_time_school":false,"lon":9.707904,"lat":49.764186},{"name":"Ignatius-Gropp-Volksschule Güntersleben","id":"BY-7940","address":"Schulstraße 2 97261 Güntersleben","school_type":"Grundschule","fax":"09365 880251","phone":"09365 4224","website":null,"state":"BY","programs":{"programs":["Fairtrade Schools"]},"full_time_school":false,"lon":9.903296,"lat":49.87068},{"name":"Volksschule Sonderhofen","id":"BY-7965","address":"Am Königshof 18 97253 Gaukönigshofen Sonderhofen","school_type":"Grundschule","fax":"09337 1041","phone":"09337 1040","website":null,"state":"BY","programs":{"programs":[]},"full_time_school":false,"lon":10.001725,"lat":49.63214},{"name":"Volksschule Frickenhausen a.Main","id":"BY-7934","address":"Geheusteige 17 97252 Frickenhausen","school_type":"Grundschule","fax":"09331 803831","phone":"09331 3148","website":null,"state":"BY","programs":{"programs":[]},"full_time_school":false,"lon":10.091173,"lat":49.672435},{"name":"Volksschule Eisingen-Waldbrunn","id":"BY-7931","address":"Schulstr. 2 97249 Eisingen","school_type":"Grundschule","fax":"09306 99571","phone":"09306 99570","website":null,"state":"BY","programs":{"programs":[]},"full_time_school":false,"lon":9.829913,"lat":49.757613},{"name":"Volksschule Bütthard","id":"BY-7929","address":"Simmringer Str. 20 97244 Bütthard","school_type":"Grundschule","fax":"09336 997605","phone":"09336 336","website":null,"state":"BY","programs":{"programs":[]},"full_time_school":false,"lon":9.882874,"lat":49.594797},{"name":"Volksschule Bergtheim Verbandsschule","id":"BY-7928","address":"Frühlingstr. 10 97241 Bergtheim","school_type":"Grundschule","fax":"09367 907676","phone":"09367 90760","website":null,"state":"BY","programs":{"programs":[]},"full_time_school":false,"lon":10.06931,"lat":49.896093},{"name":"Volksschule Aub","id":"BY-7927","address":"In der Peunt 1 97239 Aub","school_type":"Grundschule","fax":"09335 430","phone":"09335 430","website":null,"state":"BY","programs":{"programs":[]},"full_time_school":false,"lon":10.061003,"lat":49.550312},{"name":"Volksschule Randersacker","id":"BY-7957","address":"Schulstraße 15 97236 Randersacker","school_type":"Grundschule","fax":"0931 7059752","phone":"0931 706857","website":null,"state":"BY","programs":{"programs":[]},"full_time_school":false,"lon":9.982975,"lat":49.7614},{"name":"Volksschule Reichenberg","id":"BY-7958","address":"Malzstr. 16 97234 Reichenberg","school_type":"Grundschule","fax":"0931 6677995","phone":"0931 69381","website":null,"state":"BY","programs":{"programs":[]},"full_time_school":false,"lon":9.91379,"lat":49.729805},{"name":"Volksschule Giebelstadt","id":"BY-7938","address":"Schulstraße 1 97232 Giebelstadt","school_type":"Grundschule","fax":"09334 90845","phone":"09334 90844","website":null,"state":"BY","programs":{"programs":[]},"full_time_school":false,"lon":9.945639,"lat":49.655065},{"name":"Volksschule Estenfeld","id":"BY-7933","address":"Riemenschneiderstraße 26 97230 Estenfeld","school_type":"Grundschule","fax":"09305 9005040","phone":"09305 88840","website":null,"state":"BY","programs":{"programs":[]},"full_time_school":false,"lon":10.005848,"lat":49.826612},{"name":"Volksschule Rottendorf","id":"BY-7963","address":"Schulstr. 2 97228 Rottendorf","school_type":"Grundschule","fax":"09302 990454","phone":"09302 99995","website":null,"state":"BY","programs":{"programs":[]},"full_time_school":false,"lon":10.027568,"lat":49.793449},{"name":"Volksschule Zellingen","id":"BY-7877","address":"Schulplatz 10 97225 Zellingen","school_type":"Grundschule","fax":"09364 811718","phone":"09364 2522","website":null,"state":"BY","programs":{"programs":[]},"full_time_school":false,"lon":9.820551,"lat":49.899167},{"name":"Matthias-Ehrenfried-Volksschule Rimpar","id":"BY-7959","address":"Neue Siedlung 1 97222 Rimpar","school_type":"Grundschule","fax":"09365 3000120","phone":"09365 9708","website":"http://www.rimpar.de","state":"BY","programs":{"programs":[]},"full_time_school":false,"lon":9.961547,"lat":49.851563},{"name":"Volksschule Uffenheim","id":"BY-6907","address":"Schulstr. 2 - 4 97215 Uffenheim","school_type":"Grundschule","fax":"09842 7805","phone":"09842 7005","website":"http://www.vs-uffenheim.de","state":"BY","programs":{"programs":[]},"full_time_school":false,"lon":10.223119,"lat":49.544795},{"name":"Volksschule Ochsenfurt","id":"BY-7955","address":"Jahnstraße 1 97199 Ochsenfurt","school_type":"Grundschule","phone":"09331 3500","website":null,"state":"BY","programs":{"programs":[]},"full_time_school":false,"lon":10.067962,"lat":49.66377},{"name":"Leonhard-Frank-Schule Würzburg-Heuchelhof/Rottenbauer","id":"BY-7856","address":"Berner Str. 35 97084 Würzburg","school_type":"Grundschule","fax":"0931 2600661","phone":"0931 6677680","website":null,"state":"BY","programs":{"programs":[]},"full_time_school":false,"lon":9.957338,"lat":49.73754},{"name":"Volksschule Würzburg-Heuchelhof","id":"BY-7572","address":"Römer Str. 1 97084 Würzburg","school_type":"Grundschule","fax":"0931 6677632","phone":"0931 60224","website":"http://www.ganztagsschule-heuchelhof.de","state":"BY","programs":{"programs":[]},"full_time_school":false,"lon":9.959258,"lat":49.746732},{"name":"Walther-Volksschule Würzburg","id":"BY-7567","address":"Winterhäuser Str. 1 97084 Würzburg","school_type":"Grundschule","fax":"0931 2058150","phone":"0931 20581-40","website":"http://www.waltherschule.de","state":"BY","programs":{"programs":[]},"full_time_school":false,"lon":9.954606,"lat":49.763257},{"name":"Steinbachtal-Burkarder-Volksschule Würzburg","id":"BY-7566","address":"Waldkugelweg 3 97082 Würzburg","school_type":"Grundschule","fax":"0931 2600676","phone":"0931 74716","website":null,"state":"BY","programs":{"programs":[]},"full_time_school":false,"lon":9.92799,"lat":49.774279},{"name":"Adalbert-Stifter-Volksschule Würzburg-Zellerau","id":"BY-7546","address":"Friedrichstr. 9 97082 Würzburg","school_type":"Grundschule","fax":"0931 2058220","phone":"0931 2058214","website":null,"state":"BY","programs":{"programs":[]},"full_time_school":false,"lon":9.914528,"lat":49.79651},{"name":"Volksschule Würzburg-Dürrbachgrund","id":"BY-7969","address":"Unterdürrbacher Str. 280 97080 Würzburg","school_type":"Grundschule","fax":"0931 2059775","phone":"0931 94150","website":null,"state":"BY","programs":{"programs":[]},"full_time_school":false,"lon":9.913973,"lat":49.809243},{"name":"Josef-Volksschule Würzburg","id":"BY-7559","address":"Steinheilstr. 30 97080 Würzburg","school_type":"Grundschule","fax":"0931 2877747","phone":"0931 24880","website":null,"state":"BY","programs":{"programs":[]},"full_time_school":false,"lon":9.946097,"lat":49.80318},{"name":"Volksschule Würzburg-Versbach","id":"BY-7973","address":"Heide 14 97078 Würzburg","school_type":"Grundschule","fax":"0931 2600220","phone":"0931 24396","website":"http://www.wuerzburg.de/grundschule-versbach","state":"BY","programs":{"programs":[]},"full_time_school":false,"lon":9.961468,"lat":49.822083},{"name":"Gustav-Walle-Volksschule Würzburg","id":"BY-7554","address":"Schwabenstr. 12 97078 Würzburg","school_type":"Grundschule","fax":"0931 2991230","phone":"0931 299-1220","website":null,"state":"BY","programs":{"programs":["Schule ohne Rassismus - Schule mit Courage"]},"full_time_school":false,"lon":9.963912,"lat":49.809936},{"name":"Volksschule Würzburg-Lengfeld","id":"BY-7950","address":"Carl-Orff-Str. 2 97076 Würzburg","school_type":"Grundschule","fax":"0931 2600683","phone":"0931 271444","website":"http://www.grundschule-lengfeld.de","state":"BY","programs":{"programs":[]},"full_time_school":false,"lon":9.988934,"lat":49.807285},{"name":"Max-Dauthendey-Volksschule Würzburg","id":"BY-7557","address":"Danziger Str. 12 97072 Würzburg","school_type":"Grundschule","fax":"0931 2600666","phone":"0931 73705","website":null,"state":"BY","programs":{"programs":[]},"full_time_school":false,"lon":9.936649,"lat":49.776529},{"name":"Volksschule Würzburg-Stadtmitte","id":"BY-7548","address":"Hofstr. 16 97070 Würzburg","school_type":"Grundschule","fax":"0931 572821","phone":"0931 572821","website":null,"state":"BY","programs":{"programs":[]},"full_time_school":false,"lon":9.935306,"lat":49.792868},{"name":"Emil-Fischer-Volksschule Dörfles-Esbach","id":"BY-5681","address":"Martin-Luther-Straße 2 96487 Dörfles-Esbach","school_type":"Grundschule","fax":"09561 550420","phone":"09561 55040","website":null,"state":"BY","programs":{"programs":[]},"full_time_school":false,"lon":10.997024,"lat":50.284263},{"name":"Johann-Gemmer-Volksschule Ahorn","id":"BY-5680","address":"Schulstraße 21 96482 Ahorn","school_type":"Grundschule","fax":"09561 247774","phone":"09561 247773","website":null,"state":"BY","programs":{"programs":[]},"full_time_school":false,"lon":10.960599,"lat":50.237096},{"name":"Volksschule Weitramsdorf","id":"BY-5705","address":"Schulstraße 3 96479 Weitramsdorf","school_type":"Grundschule","fax":"09561 38762","phone":"09561 39021","website":"http://www.vs-weitramsdorf.de","state":"BY","programs":{"programs":[]},"full_time_school":false,"lon":10.882964,"lat":50.257996},{"name":"Volksschule Bad Rodach I","id":"BY-5692","address":"Schloßplatz 5 96476 Bad Rodach","school_type":"Grundschule","fax":"09564 922618","phone":"09564 92260","website":null,"state":"BY","programs":{"programs":[]},"full_time_school":false,"lon":10.778266,"lat":50.342126},{"name":"Volksschule Rödental-Mönchröden","id":"BY-5697","address":"Schulstr. 36 96472 Rödental Mönchröden","school_type":"Grundschule","fax":"09563 50896","phone":"09563 8225","website":"http://www.grundschule-moenchroeden.de","state":"BY","programs":{"programs":[]},"full_time_school":false,"lon":11.062356,"lat":50.300921},{"name":"Volksschule Rödental-Mitte","id":"BY-5696","address":"Mecklenburger Str. 12 96472 Rödental","school_type":"Grundschule","fax":"09563 741750","phone":"09563 74170","website":null,"state":"BY","programs":{"programs":[]},"full_time_school":false,"lon":11.04243,"lat":50.29729},{"name":"Volksschule Rödental-Einberg","id":"BY-5694","address":"Glockenberg 22 96472 Rödental Einberg","school_type":"Grundschule","fax":"09563 50897","phone":"09563 1473","website":null,"state":"BY","programs":{"programs":[]},"full_time_school":false,"lon":11.045341,"lat":50.28936},{"name":"Luther-Volksschule Coburg","id":"BY-5559","address":"Albertsplatz 1 96450 Coburg","school_type":"Grundschule","fax":"09561 73054","phone":"09561 73054","website":null,"state":"BY","programs":{"programs":[]},"full_time_school":false,"lon":10.962606,"lat":50.256507},{"name":"Volksschule Coburg-Neuses","id":"BY-5557","address":"Friedrich-Rückert-Str. 47 96450 Coburg","school_type":"Grundschule","fax":"09561 69162","phone":"09561 69162","website":null,"state":"BY","programs":{"programs":[]},"full_time_school":false,"lon":10.950791,"lat":50.277311},{"name":"Melchior-Franck-Volksschule Coburg","id":"BY-5556","address":"Baumschulenweg 47 96450 Coburg","school_type":"Grundschule","fax":"09561 831065","phone":"09561 36672","website":null,"state":"BY","programs":{"programs":[]},"full_time_school":false,"lon":10.945791,"lat":50.250313},{"name":"Volksschule Coburg-Ketschendorf","id":"BY-5554","address":"Neue Heimat 5 96450 Coburg","school_type":"Grundschule","fax":"09561 15028","phone":"09561 15028","website":null,"state":"BY","programs":{"programs":[]},"full_time_school":false,"lon":10.97436,"lat":50.245117},{"name":"Jean-Paul-Volksschule Coburg","id":"BY-5553","address":"Neustadter Straße 5 96450 Coburg","school_type":"Grundschule","fax":"09561 861623","phone":"09561 54420","website":null,"state":"BY","programs":{"programs":[]},"full_time_school":false,"lon":10.967017,"lat":50.271668},{"name":"Volksschule Coburg-Creidlitz","id":"BY-5550","address":"Florianweg 3 96450 Coburg","school_type":"Grundschule","fax":"09561 18246","phone":"09561 18246","website":null,"state":"BY","programs":{"programs":[]},"full_time_school":false,"lon":10.980139,"lat":50.231733},{"name":"Volksschule Coburg am Heimatring","id":"BY-5548","address":"Heimatring 58 96450 Coburg","school_type":"Grundschule","fax":"09561 8307070","phone":"09561 830700","website":null,"state":"BY","programs":{"programs":[]},"full_time_school":false,"lon":10.945429,"lat":50.267344},{"name":"Volksschule Weißenbrunn","id":"BY-5807","address":"Schulweg 9 96369 Weißenbrunn","school_type":"Grundschule","fax":"09261 54291","phone":"09261 4338","website":null,"state":"BY","programs":{"programs":[]},"full_time_school":false,"lon":11.343523,"lat":50.200741},{"name":"Volksschule Nordhalben","id":"BY-5793","address":"Kronacher Straße 9 96365 Nordhalben","school_type":"Grundschule","fax":"09267 8160","phone":"09267 1428","website":null,"state":"BY","programs":{"programs":[]},"full_time_school":false,"lon":11.510746,"lat":50.372895},{"name":"Volksschule Rodachtal in Unterrodach","id":"BY-5805","address":"Schulweg 3 96364 Marktrodach Unterrodach","school_type":"Grundschule","fax":"09261 966365","phone":"09261 20051","website":null,"state":"BY","programs":{"programs":[]},"full_time_school":false,"lon":11.385195,"lat":50.252469},{"name":"Priv. Montessori-Grundschule Marktrodach d.Vereins Mont.-Fördergem.Kronach u.Umgeb.e.V.in Unterrodach","id":"BY-5568","address":"Schulweg 3 96364 Marktrodach","school_type":"Grundschule","website":null,"state":"BY","programs":{"programs":[]},"full_time_school":false,"lon":11.385195,"lat":50.252469},{"name":"Volksschule Tettau","id":"BY-5802","address":"Schulberg 5 96355 Tettau","school_type":"Grundschule","fax":"09269 9625","phone":"09269 9623","website":"http://www.kronachonline.de/~vst","state":"BY","programs":{"programs":[]},"full_time_school":false,"lon":11.25617,"lat":50.470716},{"name":"Volksschule Kronachtal in Wilhelmsthal","id":"BY-5808","address":"Grieser Str. 9 96352 Wilhelmsthal Steinberg","school_type":"Grundschule","fax":"09260 6787","phone":"09260 350","website":null,"state":"BY","programs":{"programs":[]},"full_time_school":false,"lon":11.36484,"lat":50.282945},{"name":"Volksschule Stockheim","id":"BY-5801","address":"Frankenwaldstraße 4 96342 Stockheim","school_type":"Grundschule","fax":"09265 5044","phone":"09265 1227","website":null,"state":"BY","programs":{"programs":[]},"full_time_school":false,"lon":11.279049,"lat":50.312216},{"name":"Volksschule Johannisthal-Schmölz","id":"BY-5799","address":"Kirchenstr. 12 96328 Küps Johannisthal","school_type":"Grundschule","fax":"09264 7127","phone":"09264 7127","website":null,"state":"BY","programs":{"programs":[]},"full_time_school":false,"lon":11.286954,"lat":50.209553},{"name":"Volksschule Kronach-Neuses","id":"BY-5792","address":"Am Damm 10 96317 Kronach Neuses","school_type":"Grundschule","fax":"09261 63086","phone":"09261 2252","website":null,"state":"BY","programs":{"programs":[]},"full_time_school":false,"lon":11.309279,"lat":50.211273},{"name":"Lucas-Cranach-Volksschule Kronach","id":"BY-5787","address":"Turnstr. 7 96317 Kronach","school_type":"Grundschule","fax":"09261 61571","phone":"09261 61570","website":null,"state":"BY","programs":{"programs":[]},"full_time_school":false,"lon":11.327485,"lat":50.23823},{"name":"Volksschule Gehülz-Ziegelerden","id":"BY-5785","address":"Breitenloh 104 96317 Kronach Gehülz","school_type":"Grundschule","fax":"09261 61591","phone":"09261 61590","website":"http://home.nikocity.de/vs-gehuelz","state":"BY","programs":{"programs":[]},"full_time_school":false,"lon":11.29017,"lat":50.24548},