address,fax,full_time_school,id,lat,lon,name,official_id,phone,school_type,school_type_entity,state
Schulstraße 10 16356 Ahrensfelde/OT Blumberg,033394 5799919,false,BB-102350,52.60201,13.618922,Friedrich von Canitz Grundschule Blumberg ,102350,033394 579990,Grundschule,,BB
Weitzgrunder Weg 3 14806 Bad Belzig,033841 34994,false,BB-101321,52.149229,12.587634,Geschwister-Scholl-Grundschule  ,101321,033841 42155,Grundschule,,BB
Ernst-Thälmann-Straße 2 14806 Bad Belzig,033841 34938,false,BB-120224,52.142724,12.587466,Fläming-Gymnasium  ,120224,033841 42474,Gymnasium,,BB
Fischerstraße 16 16278 Angermünde,03331 299785,false,BB-100640,53.01987,14.004073,Puschkinschule  ,100640,03331 32649,Grundschule,,BB
Rudolf-Harbig-Straße 12 16278 Angermünde,03331 32644,false,BB-100638,53.018195,13.984404,Gustav-Bruhn-Grundschule  ,100638,03331 32644,Grundschule,,BB
Heinrichstraße 7 16278 Angermünde,03331 261725,false,BB-120108,53.018433,13.99768,Einstein-Gymnasium  ,120108,03331 26170,Gymnasium,,BB
Puschkinallee 30a 16278 Angermünde,03331 299746,true,BB-110449,53.011386,13.99562,Ehm Welk - Oberschule integrativ-kooperative Ganztagsschule mit Förderklassen ,110449,03331 32504,Oberschule,,BB
Puschkinstraße 6 15838 Am Mellensee/OT Sperenberg,033703 68775,false,BB-100584,52.14102,13.358217,Anne Frank-Grundschule  ,100584,033703 77439,Grundschule,,BB
Hauptstraße 16 15838 Am Mellensee,03377 3300424,false,BB-100560,52.185299,13.414516,Grundschule am Mellensee  ,100560,03377 300697,Grundschule,,BB
Klosterstraße 3 15345 Altlandsberg,033438 67983,false,BB-110620,52.563354,13.726359,Stadtschule Altlandsberg Oberschule mit Grundschulteil ,110620,033438 60222,Oberschule mit Grundschule,,BB
Schulstraße 1 03229 Altdöbern,035434 664231,false,BB-100183,51.650675,14.01935,Lilien-Grundschule Altdöbern  ,100183,035434 346,Grundschule,,BB
Heinrich-Heine-Straße 42 04924 Bad Liebenwerda,035341 493863,false,BB-130280,51.527659,13.400666,Robert-Reiss-Oberschule Schule mit berufsfeldorientiertem Unterricht ,130280,035341 2784,Oberschule,,BB
Riesaer Straße 5-7 04924 Bad Liebenwerda,035341 26754,false,BB-105788,51.508244,13.391744,Grundschulzentrum Robert Reiss Bad Liebenwerda,105788,035341 10032,Grundschule,,BB
Oderberger Chaussee 11 16259 Bad Freienwalde (Oder)/OT Neuenhagen,033369 213,false,BB-100122,52.838829,14.050646,Insel-Grundschule  ,100122,033369 213,Grundschule,,BB
Am Scheunenberg 1 16259 Bad Freienwalde (Oder),03344 332212,false,BB-120030,52.78295,14.040226,"Gymnasium ""Bertolt Brecht"" ",120030,03344 3806,Gymnasium,,BB
Chausseestraße 6 15806 Zossen/OT Wünsdorf,033702 66629,false,BB-130060,52.161312,13.46614,Oberschule Wünsdorf  ,130060,033702 66411,Oberschule,,BB
Freienwalder Straße 1 16269 Wriezen,033456 150915,false,BB-121241,52.721285,14.132941,Evangelisches Johanniter-Gymnasium Wriezen - anerkannte Ersatzschule ,121241,033456 15090,Gymnasium,,BB
Freienwalder Straße 1 16269 Wriezen,033456 150915,false,BB-106744,52.721285,14.132941,Ev. Johanniter - Grundschule Wriezen - genehmigte Ersatzschule - ,106744,033456 15090,Grundschule,,BB
Vogelsdorfer Str. 5-7 15569 Woltersdorf,03362 884580,false,BB-113414,52.459735,13.748884,Gesamtschule mit gymnasialer Oberstufe Woltersdorf - staatlich anerkannte Ersatzschule - ,113414,03362 884556,Gesamtschule mit GOST,,BB
Blumenstraße 13 15569 Woltersdorf,,false,BB-106562,52.450733,13.762141,Freie Schule Woltersdorf reformpädagogisch orientierte Grundschule,106562,03362 700973,Grundschule,,BB
Horning 9c 19322 Wittenberge,,false,BB-180282,53.005216,11.752205,"IBiS-Oberschule ""Maria Montessori"" Wittenberge Staatlich genehmigte Ersatzschule in Trägerschaft der IBiS GmbH ",180282, ,Oberschule,,BB
Horning 9c 19322 Wittenberge,03877 9526771,false,BB-106161,53.005216,11.752205,"IBiS-Grundschule ""Maria Montessori"" Wittenberge anerkannte Ersatzschule ",106161,03877 9526717,Grundschule,,BB
Perleberger Straße 165 19322 Wittenberge,03877 561818,false,BB-200785,52.996448,11.753849,Berufliche Schule der BBZ Berufsbildungszentrum Prignitz GmbH anerkannte Ersatzschule,200785,03877 949150,Berufliche Schule in freier Trägerschaft,,BB
Eichstraße 1 15745 Wildau,03375 216242,false,BB-121034,52.316214,13.629528,Gymnasium Villa Elisabeth - anerkannte Ersatzschule - Schule mit internation. Ausrichtung,121034,03375 216240,Gymnasium,,BB
Kirchstraße 2 15745 Wildau,03375 5295026,false,BB-106641,52.315844,13.628047,Grundschule Villa Elisabeth Pestalozzischule - genehmigte Ersatzschule -,106641,03375 5295025,Grundschule,,BB
Elsastraße 14/16 14542 Werder (Havel),03327 45863,false,BB-700058,52.396224,12.925352,Freie Waldorfschule Werder (Havel) Christian Morgenstern ,700058,03327 45838,Waldorfschule,,BB
Schulstraße 17 03253 Tröbitz,035326 939930,false,BB-106197,51.594246,13.426388,Evangelische Grundschule Tröbitz anerkannte Ersatzschule ,106197,035326 93877,Grundschule,,BB
Röddeliner Straße 36 17268 Templin,03987 2086219,false,BB-400919,53.115889,13.480119,Waldhofschule Integrative Grundschule -Eine Schule für alle-,400919,03987 2086210,Grundschule,,BB
Röddeliner Straße 1 17268 Templin,03987 200640,false,BB-113463,53.119863,13.48523,Aktive Naturschule Templin Gesamtschule mit gymn. Oberstufe - genehmigte Ersatzschule -,113463,03987 54900,Gesamtschule mit GOST,,BB
Röddeliner Straße 1 17268 Templin,03987 200640,false,BB-106379,53.119863,13.48523,Aktive Naturschule mit Montessori- Orientierung Templin Grundschule,106379,03987 54900,Grundschule,,BB
Lichterfelder Allee 45 14513 Teltow,03328 433533,false,BB-401109,52.403624,13.278453,"Hans-Christian-Andersen-Schule Schule mit dem sonderpädagogischen Förderschwerpunkt ""geistige Entwicklung""",401109,03328 433534,Schule mit dem sonderpäd. Förderschwerpunkt geistige Entwicklung,,BB
Lichterfelder Allee 45 14513 Teltow,03328 433282,false,BB-106616,52.403624,13.278453,Evangelische Ursula-Wölfel-Grundschule Teltow genehmigte Ersatzschule ,106616,03328 433272,Grundschule,,BB
Potsdamer Straße 51 14513 Teltow,03328 351519019,false,BB-330061,52.401873,13.257113,Dietrich-Bonhoeffer-Schule Berufliche Schule des Evangelischen Diakonissenhauses Berlin-Teltow,330061,03328 351519010,Berufliche Schule in freier Trägerschaft,,BB
Oderstraße 57 14513 Teltow,03328 475119,false,BB-200876,52.399,13.238361,Berufliche Schule für Hotellerie und Gastronomie des Ausbildungsverbunds Teltow e.V.,200876,03328 475120,Berufliche Schule in freier Trägerschaft,,BB
Schulstraße 1 16307 Tantow,033333 31093,false,BB-106513,53.266727,14.350019,Evangelische Salveytal-Grundschule Tantow ,106513,033333 31068,Grundschule,,BB
Prötzeler Chaussee 7 15344 Strausberg,03341 250066,false,BB-121228,52.589786,13.903927,Freie Schule Strausberg - Gymnasium anerkannte Ersatzschule ,121228,03341 311355,Gymnasium,,BB
Prötzeler Chaussee 7 15344 Strausberg,03341 250066,false,BB-106288,52.589786,13.903927,Freie Schule Strausberg Grundschule anerkannte Ersatzschule,106288,03341 311355,Grundschule,,BB
Dorfstraße 62 15859 Storkow (Mark)/OT Bugk,03362 8899911,false,BB-130904,52.25,13.93333,Oberschule Chance BugK/Grünheide genehmigte Ersatzschule ,130904,03362 8899914,Oberschule,,BB
Gartenstraße 18 03130 Spremberg,03563 594346,false,BB-106380,51.570648,14.371615,"ASF-GRUNDSCHULE ""Lausitzer Haus des Lernens"" Spremberg anerkannte Ersatzschule",106380,03563 594820,Grundschule,,BB
Platz des Friedens 5 01968 Senftenberg/OT Brieske,03573 36759912,false,BB-106598,51.506819,13.974219,Georg Heinsius von Mayenburg Grundschule genehmigte Ersatzschule,106598,03573 3675990,Grundschule,,BB
Auf dem Franzensberg 2 14548 Schwielowsee/OT Geltow,03327 599999,false,BB-113384,52.356971,12.970079,KARIBU-Oberschule Geltow anerkannte Ersatzschule ,113384,03327 599916,Oberschule,,BB
Auf dem Franzensberg 2 14548 Schwielowsee/OT Geltow,03327 599999,false,BB-401468,52.356971,12.970079,Förderschule für Erziehungshilfe  ,401468,03327 599917,Schule mit dem sonderpäd. Förderschwerpunkt emotionale und soziale Entwicklung,,BB
Schwedter Straße 4 16303 Schwedt/Oder/OT Vierraden,03332 269887,false,BB-401481,53.093812,14.294737,Ev. Schulzentrum TABALUGA Oberschule mit koop.-integr. Förderklassen ,401481,03332 269744,Oberschule mit Grundschule,,BB
Lindenallee 32 16303 Schwedt/Oder,03332 834529,false,BB-106665,53.059726,14.288067,Evangelische Grundschule Schwedt/Oder genehmigte Ersatzschule,106665,03332 834520,Grundschule,,BB
Am Pfarracker 2 12529 Schönefeld,03379 3227725,false,BB-121319,52.38833,13.50472,Evangelische Schule Schönefeld - Gymnasium - genehmigte Ersatzschule (anerkannt in der Sekundarstufe I),121319,03379 322770,Gymnasium,,BB
Frauenhainer Weg 1 04932 Röderland/OT Prösen,03533 607969,false,BB-130916,51.42566,13.48751,"Oberschule Prösen ""Aktive Entwicklungsschule"" - anerkannte Ersatzschule -",130916,03533 8225,Oberschule,,BB
Schulstraße 3 15518 Rauen,03361 373787,false,BB-106501,52.327752,14.028328,Pfarrer Bräuer Schule Evangelische Grundschule in Rauen genehmigte Ersatzschule,106501,03361 373717,Grundschule,,BB
Stauffenbergallee 6 15834 Rangsdorf,033708 44948,false,BB-180210,52.282144,13.417789,Seeoberschule Rangsdorf anerkannte Ersatzschule ,180210,033708 44947,Oberschule,,BB
Stauffenbergallee 6 15834 Rangsdorf,033708 44948,true,BB-121101,52.282144,13.417789,Freies Gymnasium Rangsdorf Internationale Ganztagsschule mit Internat am See,121101,033708 44947,Gymnasium,,BB
An der Promenade 5 16928 Pritzwalk,03395 764444,false,BB-200840,53.151323,12.17987,Private Berufsschule für Wirtschaft und Technik Prignitz in Pritzwalk Ersatzschule mit anerkannten und genehmigten Bildungsgängen der Berufsschule,200840,03395 709287,Berufliche Schule in freier Trägerschaft,,BB
Neustädter Damm 5 17291 Prenzlau,03984 831928,false,BB-130874,53.309223,13.846097,Aktive Naturschule Prenzlau Grund- und Oberschule Oberschule mit angegliedertem Grundschulteil -anerkannte Ersatzschule-,130874,03984 831928,Oberschule mit Grundschule,,BB
Alte Hauptstraße 24 14727 Premnitz,03386 21254813,false,BB-330127,52.533514,12.329209,"Berufliche Schule für Sozialwesen FS Sozialwesen, FR:Soz.päd. und Heilerz.pfl., BFS Soziales anerkannte Ersatzschule",330127,03386 2125480,Berufliche Schule in freier Trägerschaft,,BB
Hauptstraße 22 14476 Potsdam/OT Marquardt,033208 20188,false,BB-106460,52.460876,12.963584,Neue Grundschule Marquardt anerkannte Ersatzschule ,106460,033208 20187,Grundschule,,BB
Erich-Weinert-Straße 5 14478 Potsdam,0331 87000380,false,BB-700046,52.36509,13.099131,Waldorfschule Potsdam  ,700046,0331 972077,Waldorfschule,,BB
Fritz-Lang-Straße 15 14480 Potsdam,0331 9513662,false,BB-121113,52.367739,13.143599,Schiller-Gymnasium  ,121113,0331 9513661,Gymnasium,,BB
Sternstraße 68 14480 Potsdam,0331 6009305,false,BB-106306,52.364054,13.127897,Schiller Grundschule im Sternfeld anerkannte Ersatzschule ,106306,0331 6009301,Grundschule,,BB
Rudolf-Breitscheid-Straße 24 14482 Potsdam,0331 7634900,false,BB-401092,52.39258,13.089904,"Oberlinschule - Schule mit dem sonderpädagogischen Förderschwerpunkt ""körperliche und motorische Entwicklung""",401092,0331 7634891,Schule mit dem sonderpäd. Förderschwerpunkt körperliche und motorische Entwicklung,,BB
Großbeerenstr. 189 14482 Potsdam,0331 70455639,false,BB-121095,52.383222,13.12075,Neues Gymnasium Potsdam (Babelsberger Filmgymnasium) anerkannte Ersatzschule,121095,0331 70455631,Gymnasium,,BB
Flotowstraße 10 14480 Potsdam,0331 2011049,false,BB-106124,52.382314,13.136734,Neue Grundschule Potsdam anerkannte Ersatzschule ,106124,0331 20029766,Grundschule,,BB
Großbeerenstraße 189 14482 Potsdam,0331 70455639,false,BB-113440,52.383222,13.12075,Neue Gesamtschule Babelsberg der ASG - Anerkannte Ersatzschule in der Sekundarstufe I - ,113440,0331 70455631,Gesamtschule mit GOST,,BB
Großbeerenstraße 189 14482 Potsdam,0331 70455639,false,BB-200803,52.383222,13.12075,"Medienschule Babelsberg, BFS für Medien und Kommunikation mit anerkannten Bildungsgängen, FOS - einjährig, anerkannte Ersatzschule in der FR Gestaltung",200803,0331 70455651,Berufliche Schule in freier Trägerschaft,,BB
Espengrund 10 14482 Potsdam,0331 60037139,false,BB-121265,52.395952,13.114308,"Katholische Marienschule Potsdam, Gymnasium anerkannte Ersatzschule ",121265,0331 60037130,Gymnasium,,BB
Espengrund 10 14482 Potsdam,,false,BB-106586,52.395952,13.114308,Katholische Marienschule Potsdam Grundschule - anerkannte Ersatzschule -,106586,0331 60037130,Grundschule,,BB
Ravensbergweg 30 14478 Potsdam,0331 88739428,false,BB-106446,52.372681,13.079388,Internationale Grundschule Potsdam Primary School genehmigte Ersatzschule,106446,0331 8873550,Grundschule,,BB
Fritz-Lang-Straße 15 14480 Potsdam,0331 9513662,false,BB-160015,52.367739,13.143599,Gesamtschule Potsdam - Drewitzer Modellschule - genehmigte Ersatzschule -,160015,0331 9513364,Gesamtschule mit GOST,,BB
Bisamkiez 28 14478 Potsdam,0331 8714813,false,BB-106010,52.376098,13.100796,Freie Schule Potsdam des Vereins Freie Schule Potsdam e.V.,106010,0331 8714810,Grundschule,,BB
Röhrenstraße 6 14480 Potsdam,0331 73040710,false,BB-330255,52.380364,13.132014,Fachschule Sozialwesen in der Fachrichtung Sozialpädagogik des AWO-Bezirksverb. Potsdam e.V. anerkannte Ersatzschule,330255,0331 73040719,Fachschule,,BB
Hermannswerder 18 14473 Potsdam,0331 2313143,false,BB-120832,52.382015,13.032116,Evangelisches Gymnasium Hermannswerder - mit Internat - ,120832,0331 2313141,Gymnasium,,BB
Rudolf-Breitscheid-Straße 21 14482 Potsdam,0331 7309316,false,BB-106471,52.392174,13.090328,Evangelische Grundschule Potsdam-Babelsberg -anerkannte Ersatzschule- ,106471,0331 7309314,Grundschule,,BB
Große Weinmeisterstraße 49 14469 Potsdam,0331 2803666,false,BB-106045,52.415616,13.063331,Evangelische Grundschule Potsdam  ,106045,0331 2803660,Grundschule,,BB
Steinstraße 80-82-84 14480 Potsdam,0331 6694355,false,BB-200440,52.384906,13.139404,Berufliche Schule Theodor Hoppe in der Berufsbildungswerk im Oberlinhaus gGmbH ,200440,0331 6694310,Berufliche Schule in freier Trägerschaft,,BB
Hermannswerder 10 14473 Potsdam,0331 2313407,false,BB-330073,52.382362,13.031381,Berufliche Schule Potsdam der Hoffbauer gGmbH ,330073,0331 2313151,Berufliche Schule in freier Trägerschaft,,BB
Am Luftschiffhafen 1 14471 Potsdam,0331 90757777,false,BB-200864,52.374767,13.013669,Berufliche Schule für Sport und Gesundheit der Europäischen Sportakademie des Landes Brandenburg,200864,0331 90757100,Berufliche Schule in freier Trägerschaft,,BB
Zeppelinstraße 152 14471 Potsdam,0331 9672230,false,BB-330152,52.393885,13.037991,Berufliche Schule für Sozialwesen am Brandenburgischen Bildungswerk für Medizin und Soziales e.V.,330152,0331 967220,Berufliche Schule in freier Trägerschaft,,BB
Kaiser-Friedrich-Straße 32 14469 Potsdam,0331 7304071,false,BB-106732,52.404877,12.988227,"AWO Grundschule ""Marie Juchacz"" Potsdam - genehmigte Ersatzschule - ",106732,0171 8182464,Grundschule,,BB
Ravensbergweg 30 14478 Potsdam,0331 88739428,false,BB-113438,52.372681,13.079388,Alfred-Nobel-Gesamtschule Potsdam - Anerkannte Ersatzschule in der Sekundarstufe I - ,113438,0331 8873550,Gesamtschule mit GOST,,BB
Liefeldsgrund 23-25 14478 Potsdam,0331 2733039,false,BB-106320,52.35943,13.09365,Aktive Schule Potsdam Grundschule ,106320,0331 2733034,Grundschule,,BB
Großbeerenstraße 189 14482 Potsdam,0331 237357829,false,BB-330267,52.383222,13.12075,"AGUS/GADAT Berufl. Schule Potsdam FS für Sozialwesen, FR Sozialpädag. anerkannte Ersatzschule",330267,0331 23735780,Berufliche Schule in freier Trägerschaft,,BB
Rambower Weg 3 19339 Plattenburg/OT Hoppenrade,033982 61019,false,BB-400701,53.035312,12.058996,"Förderschule im Jugenddorf Prignitz Schule mit dem sonderpädagogischen Förderschwerpunkt ""geistige Entwicklung""",400701,033982 61020,Schule mit dem sonderpäd. Förderschwerpunkt geistige Entwicklung,,BB
Elbestraße 48 15370 Petershagen/Eggersdorf,033439 53897,false,BB-106082,52.530506,13.782388,Katholische Schule St. Hedwig Grundschule,106082,033439 78457,Grundschule,,BB
Eggersdorfer Straße 91-95 15370 Petershagen/Eggersdorf,033439 540031,false,BB-113402,52.528151,13.791334,Gesamtschule mit GOST Petershagen/Eggersdorf der FAW gGmbH anerkannte Ersatzschule,113402,033439 540029,Gesamtschule mit GOST,,BB
Spreestraße 2 16341 Panketal/OT Zepernick,030 94418696,false,BB-121083,52.658023,13.540071,Gymnasium Panketal Freie Stadtrandschule im Grünen anerkannte Ersatzschule,121083,030 94418124,Gymnasium,,BB
Möserstraße 21 16341 Panketal/OT Zepernick,,false,BB-106690,52.652298,13.529801,Grundschule an der Panke genehmigte Ersatzschule ,106690, ,Grundschule,,BB
Friedrichsthaler Chaussee 18 16515 Oranienburg/OT Friedrichsthal,03301 2029151,false,BB-180191,52.795518,13.27563,Adventschule Oberhavel Oberschule mit  Grundschulteil ,180191,03301 206183,Oberschule mit Grundschule,,BB
Struveweg 500 16515 Oranienburg/OT Eden,03301 205490,false,BB-106264,52.750086,13.20711,Kinderschule Oberhavel Grundschule anerkannte Ersatzschule,106264,03301 204587,Grundschule,,BB
Hildburghausener Straße 4 16515 Oranienburg,03301 538169,false,BB-401110,52.739792,13.236805,"Schule St. Johannesberg Schule mit dem sonderpädagogischen Förderschwerpunkt ""geistige Entwicklung""",401110,03301 538168,Schule mit dem sonderpäd. Förderschwerpunkt geistige Entwicklung,,BB
Liebigstraße 34 16515 Oranienburg,,false,BB-180268,52.759025,13.245636,Mosaik-Oberschule Oberhavel - genehmigte Ersatzschule ,180268, ,Oberschule,,BB
Liebigstraße 34 16515 Oranienburg,03301 8390252,false,BB-121253,52.759025,13.245636,Mosaik-Gymnasium Oberhavel - anerkannte Ersatzschule in freier Trägerschaft der Jugend- und Sozialwerk gGmbH Oranienburg Kreis Oberhavel,121253,03301 8390251,Gymnasium,,BB
Rungestraße 17 16515 Oranienburg,03301 5777703,false,BB-106057,52.757721,13.243582,Mosaik-Grundschule-Oranienburg anerkannte Ersatzschule ,106057,03301 5777702,Grundschule,,BB
Bernauer Straße 146A 16515 Oranienburg,,false,BB-330279,52.762154,13.269161,Mosaik-Fachschule für Sozialwesen - genehmigte Ersatzschule ,330279, ,Fachschule,,BB
Stiftsplatz 7 15898 Neuzelle,033652 8258255,false,BB-121174,52.090701,14.651806,"Rahn Education - Freies Gymnasium im Stift Neuzelle, Staatlich anerkannte Ersatzschule ",121174,033652 82580,Gymnasium,,BB
Stiftsplatz 7a 15898 Neuzelle,033652 8258255,false,BB-180154,52.090701,14.651806,"Rahn Education - Freie Oberschule im Stift Neuzelle, Staatlich anerkannte Ersatzschule",180154,033652 8258250,Oberschule,,BB
Frankfurter Straße 3 a 15896 Neuzelle,033652 6147,false,BB-401134,52.089592,14.648857,Integrative katholische Grundschule Neuzelle  mit vorübergehend  angegliederten Förderklassen für Schülerinnen und Schüler mit einer geistigen Behinderung - genehmigte Ersatzschule -,401134,033652 825890,Grundschule,,BB
Roddahner Dorfstraße 9 16845 Neustadt (Dosse)/OT Roddahn,033973 52898,false,BB-130898,52.830648,12.30741,Nachbarschaftsschule Freie Schule  ,130898,033973 809711,Oberschule,,BB
Roddahner Dorfstraße 9 16845 Neustadt (Dosse)/OT Roddahn,,false,BB-106021,52.830648,12.30741,Nachbarschaftsschule Freie Grundschule Roddahn des Vereins Tausendweg e.V.,106021,033973 809711,Grundschule,,BB
Wichmannstraße 9 16816 Neuruppin,,false,BB-180270,52.923855,12.805315,Montessori-Oberschule Neuruppin - genehmigte Ersatzschule - ,180270, ,Oberschule,,BB
Wichmannstraße 17 16816 Neuruppin,03391 402819,false,BB-106173,52.923573,12.806519,Montessori-Grundschule Neuruppin in freier Trägerschaft der IBiS Bildungsstätten GmbH staatlich anerkannte Ersatzschule,106173,03391 402818,Grundschule,,BB
Regattastraße 9 16816 Neuruppin,03391 503536,false,BB-106331,52.916943,12.807993,Evanglische Schule Neuruppin Grundschule anerkannte Ersatzschule,106331,03391 505784,Grundschule,,BB
Regattastraße 9 16816 Neuruppin,03391 503536,false,BB-121009,52.916943,12.807993,Evangelische Schule Neuruppin Gymnasium ,121009,03391 505784,Gymnasium,,BB
Regattastraße 9 16818 Neuruppin,03391 503536,false,BB-180208,52.916943,12.807993,Evangelische Schule Neuruppin Oberschule anerkannte Ersatzschule,180208,03391 505784,Oberschule,,BB
Artur-Becker-Straße 11 16816 Neuruppin,03391 403126,false,BB-200761,52.9148,12.796298,Berufsschule des Internationalen Bundes in Neuruppin anerkannte Ersatzschule,200761,03391 403065,Berufliche Schule in freier Trägerschaft,,BB
Alt Ruppiner Allee 40 16816 Neuruppin,03391 402709,false,BB-200633,52.949754,12.826533,AGUS/GADAT Berufliche Schule Neuruppin  ,200633,03391 402700,Berufliche Schule in freier Trägerschaft,,BB
Puschkinweg 3-5 15366 Neuenhagen bei Berlin,03342 212300,false,BB-180014,52.514588,13.71013,Oberschule Neuenhagen bei Berlin mit berufsorientierendem Profil anerkannte Ersatzschule,180014,03342 697,Oberschule,,BB
Ziegelstraße 16 15366 Neuenhagen bei Berlin,03342 253815,false,BB-200566,52.523083,13.710734,Berufliche Schule Neuenhagen Ersatzschule mit anerkannten Bildungsgängen der Berufsschule,200566,03342 253810,Berufliche Schule in freier Trägerschaft,,BB
Dorfstraße 22 03159 Neiße-Malxetal/OT Groß Kölzig,035600 23497,false,BB-106290,51.638263,14.597377,Evangelische Grundschule Groß Kölzig genehmigte Ersatzschule,106290,035600 6216,Grundschule,,BB
Alfred-Nobel-Straße 10 14641 Nauen,03321 7487850,true,BB-121060,52.596368,12.889065,Leonardo da Vinci-Campus Internationales Ganztagsgymnasium ,121060,03321 7487820,Gymnasium,,BB
Alfred-Nobel-Straße 10 14641 Nauen,03321 7487850,true,BB-106276,52.596368,12.889065,LEONARDO DA VINCI CAMPUS  Kreativitäts- und Ganztagsgrundschule Nauen - anerkannte Ersatzschule -,106276,03321 7487821,Grundschule,,BB
Alfred-Nobel-Straße 10 14641 Nauen,03321 7487850,true,BB-180117,52.596368,12.889065,Kreativitäts- u. Ganztagsgesamtschule auf dem Leonardo-da-Vinci-Campus Nauen -genehmigte Ersatzschule-,180117,03321 7487822,Gesamtschule mit GOST,,BB
Zu den Luchbergen 25 14641 Nauen,03321 455351,false,BB-200499,52.600115,12.888472,Berufliche Schule für Wirtschaft Nauen ,200499,03321 48080,Berufliche Schule in freier Trägerschaft,,BB
Langerwischer Straße 27 14552 Michendorf,033205 245852,false,BB-401122,52.312594,13.034302,"Schule am Norberthaus gGmbH Schule mit dem sonderpädagogischenFörderschwerpunkt ""geistige Entwicklung"" anerkannte Ersatzschule",401122,033205 245851,Schule mit dem sonderpäd. Förderschwerpunkt geistige Entwicklung,,BB
Alexander-von-Humboldt-Straße 43 03222 Lübbenau/Spreewald,03542 889719,false,BB-330164,51.862441,13.943653,Berufliche Schule der Arbeiterwohlfahrt Regionalverband Brandenburg Süd e.V,330164,03542 889712,Berufliche Schule in freier Trägerschaft,,BB
Berliner Straße 21 15907 Lübben,03546 226745,false,BB-106392,51.94408,13.89099,Evangelische Grundschule Lübben -anerkannte Ersatzschule- ,106392,03546 226503,Grundschule,,BB
Granseer Straße 10 16835 Lindow (Mark),033933 90240,false,BB-200670,52.977977,13.006813,"Berufliche Schule für Sport und Soziales Lindow der ESAB gGmbH, BFS anerk. Berufsabschluss Sportassistent FS Sozialw.-FR Sozialpäd. anerkannt",200670,033933 90238,Berufliche Schule in freier Trägerschaft,,BB
Hüttenstraße 1c 01979 Lauchhammer,03574 4646991,false,BB-330218,51.5031,13.79865,Berufl. Schule f. Sozialwesen der HEC Lauchhammer FS f. Sozialwesen mit den anerk. FR Heilerz.pfl. und Sozialpäd. anerk. BFS f. Soziales,330218,03574 4646990,Berufliche Schule in freier Trägerschaft,,BB
Schulstraße 03 15713 Königs Wusterhausen,033762 220088,false,BB-106630,52.342939,13.664308,Montessori Grundschule Königs Wusterhausen der FAW gGmbH genehmigte Ersatzschule,106630,033762 207462,Grundschule,,BB
Schulstraße 3 15713 Königs Wusterhausen,033762 889861,false,BB-113499,52.340581,13.669171,Gesamtschule mit gymn. Oberstufe Königs Wusterhausen der FAW gGmbH - genehmigte Ersatzschule - ,113499,033762 889860,Gesamtschule mit GOST,,BB
Am Hochwald 30 14532 Kleinmachnow,033203 70022,false,BB-700034,52.399804,13.214086,Freie Waldorfschule Kleinmachnow ,700034,033203 70021,Waldorfschule,,BB
Schwarzer Weg 7 14532 Kleinmachnow,03328 3517928,false,BB-121277,52.39456,13.234883,Evangelisches Gymnasium Kleinmachnow anerkannte Ersatzschule ,121277,03328 351790,Gymnasium,,BB
Schwarzer Weg 1 14532 Kleinmachnow,033203 879988,false,BB-106343,52.395812,13.23189,Evangelische Grundschule Kleinmachnow anerkannte Ersatzschule ,106343,033203 879980,Grundschule,,BB
Schopfheimer Allee  10 14532 Kleinmachnow,033203 803621,false,BB-105673,52.4021784,13.2198894,Berlin Brandenburg International School GmbH (BBIS)  ,105673,033203 80360,Oberschule mit Grundschule,,BB
Am Dammtor 16 14913 Jüterbog,03372 443456,false,BB-106409,51.990666,13.073508,Evangelische Grundschule Jüterbog  - anerkannte Ersatzschule ,106409,03372 443453,Grundschule,,BB
Brunoldstraße 16A 16247 Joachimsthal,033361 72813,false,BB-121198,52.973359,13.74987,Freies Joachimsthaler Gymnasium anerkannte Ersatzschule ,121198,033361 72811,Gymnasium,,BB
Berliner Straße 60 16540 Hohen Neuendorf,03303 218023,false,BB-106483,52.706642,13.275088,Mosaik-Grundschule Oberhavel anerkannte Ersatzschule ,106483,03303 218022,Grundschule,,BB
Stiftsgelände (Stifthauptmannshaus 17) 1 16909 Heiligengrabe,,false,BB-180063,53.15,12.35,"Gemeinschaftsschule im Kloster Stift zum Heiligengrabe Oberschule m. angegliederten Grundschulteil, anerkannte Ersatzschule für die Oberschule",180063,033962 129988,Oberschule mit Grundschule,,BB
Blossiner Weg 3 15754 Heidesee/OT Wolzig,033767 30948,false,BB-180142,52.273166,13.822995,Jean-Itard-Ersatzschule Integrative Oberschule  -genehmigte Ersatzschule -,180142,033767 89015,Oberschule,,BB
Große Waldstraße 19 15537 Grünheide (Mark)/OT Hangelsberg,033632 59301,false,BB-180105,52.395385,13.927335,Freie Montessori Oberschule Hangelsberg der FAW gGmbH -anerkannte Ersatzschule-,180105,033632 59923,Oberschule,,BB
Große Waldstraße 19 15537 Grünheide (Mark)/OT Hangelsberg,033632 59301,false,BB-106240,52.395385,13.927335,Freie Montessori Grundschule Hangelsberg anerkannte Ersatzschule,106240,033632 59068,Grundschule,,BB
An der Löcknitz 10 15537 Grünheide (Mark),03362 299584,false,BB-121204,52.414034,13.82381,Philipp-Melanchthon-Gymnasium Humanistisches Privatgymnasium anerkannte Ersatzschule,121204,03362 299583,Gymnasium,,BB
An der Löcknitz 10 15537 Grünheide (Mark),03362 299584,false,BB-180040,52.414034,13.82381,Bettina-von-Arnim-Schule Private Oberschule anerkannte Ersatzschule,180040,03362 299583,Oberschule,,BB
Denkmalplatz 4 04932 Großthiemig,,false,BB-106094,51.381728,13.675976,Evangelische Schraden-Grundschule  ,106094,035343 78850,Grundschule,,BB
Baeker Hauptstraße 5 a 16928 Groß Pankow (Prignitz,038782 41906,false,BB-106203,53.162787,11.910186,Landweg- Freie Schule Baek Grundschule ,106203,038782 41073,Grundschule,,BB
Buchholzer Weg 1 16775 Gransee/OT Seilershof,033085 70691,false,BB-130886,53.08548,13.138806,"Oberschule ""An der Polz"" der Balance gGmbH ",130886,033085 70227,Oberschule,,BB
Buchholzer Weg 1 16775 Gransee/OT Seilershof,033085 70691,false,BB-200542,53.08548,13.138806,Berufliche Schule für gastronomische Berufe ,200542,033085 70227,Berufliche Schule in freier Trägerschaft,,BB
Berliner Straße 35 15537 Gosen-Neu Zittau,03362 889511,false,BB-180075,52.390938,13.736045,Johannes-Gutenberg-Oberschule -anerkannte Ersatzschule- ,180075,03362 889510,Oberschule,,BB
Berliner Straße 35-36 15537 Gosen-Neu Zittau,03362 889511,false,BB-121332,52.39333,13.71278,Friedrich-Gedike-Gymnasium Humanistisches Privatgymnasium - genehmigte Ersatzschule -,121332,03362 889510,Gymnasium,,BB
Berliner Straße 35-36 15537 Gosen-Neu Zittau,,false,BB-200888,52.39333,13.71278,"Bertha-von-Suttner-Fachoberschule, Private Fachober- schule - anerkannte Ersatzschule in den Fachrichtungen Sozialwesen u. Wirtschaft und Verw.",200888, ,Berufliche Schule in freier Trägerschaft,,BB
Schönfließer Straße 16-24 16548 Glienicke/Nordbahn,033056 248894,false,BB-121230,52.6356455,13.3145182,Neues Gymnasium Glienicke anerkannte Ersatzschule ,121230,033056 231901,Gymnasium,,BB
Goetheplatz 15 a 15517 Fürstenwalde/Spree,03361 7767922,false,BB-200517,52.358794,14.058783,"Rahn Education - Freie Fachoberschule Fürstenwalde, Staatlich anerkannte Ersatzschule",200517,03361 7767920,Berufliche Schule in freier Trägerschaft,,BB
Eisenbahnstraße 19 15517 Fürstenwalde/Spree,03361 7767355,false,BB-106367,52.361062,14.061855,"Rahn Education - Freie Grundschule Fürstenwalde, Staatlich genehmigte Ersatzschule",106367,03361 7767350,Grundschule,,BB
Goetheplatz 15 a 15517 Fürstenwalde/Spree,03361 7767922,false,BB-180099,52.358794,14.058783,"Rahn Education - Freie Oberschule Fürstenwalde, Staatlich anerkannte Ersatzschule",180099,03361 7767920,Oberschule,,BB
Langewahler Straße 70 15517 Fürstenwalde/Spree,03361 567333,false,BB-330050,52.35209,14.069923,Korczak-Schule Berufliche Schule für Sozialwesen Samariteranstalten Fürstenwalde,330050,03361 567310,Berufliche Schule in freier Trägerschaft,,BB
Trebuser Straße 45 15517 Fürstenwalde/Spree,03361 372265,false,BB-120420,52.376572,14.054734,Katholische Schule Bernhardinum Gymnasium anerkannte Ersatzschule,120420,03361 340350,Gymnasium,,BB
Trebuser Straße 45 15517 Fürstenwalde/Spree,03361 372265,false,BB-130850,52.376572,14.054734,Katholische Schule Bernhardinum Oberschule ,130850,03361 340350,Oberschule,,BB
Trebuser Straße 45 15517 Fürstenwalde/Spree,03361 372265,false,BB-105946,52.376572,14.054734,Katholische Schule Bernhardinum Grundschule ,105946,03361 340350,Grundschule,,BB
August-Bebel-Straße 1-4 15517 Fürstenwalde/Spree,03361 567397,false,BB-401080,52.349698,14.068958,Burgdorf-Schule Schule mit dem sonderpäd. Förderschwerpunkt geistige Entwicklung  ,401080,03361 567330,Schule mit dem sonderpäd. Förderschwerpunkt geistige Entwicklung,,BB
Julius-Pintsch-Ring 25 15517 Fürstenwalde,03361 358402,false,BB-200621,52.370779,14.056082,Berufliche Schule der FAW gGmbH Berufsfachschule und Fachschule für Sozialwesen mit staatlich anerk. Bildungsgängen,200621,03361 735829,Berufliche Schule in freier Trägerschaft,,BB
Weinbergweg 30 15236 Frankfurt (Oder),0335 4013584,false,BB-700022,52.336104,14.52697,Freie Waldorfschule Frankfurt (Oder) ,700022,0335 4013583,Waldorfschule,,BB
Luisenstraße 25 d 15230 Frankfurt (Oder),0335 4011511,false,BB-106185,52.348061,14.532465,Evangelische Grundschule Frankfurt (Oder) anerkannte Ersatzschule,106185,0335 4011510,Grundschule,,BB
Wiesenstraße 18 03149 Forst (Lausitz),03562 9599027,false,BB-401420,51.736292,14.633029,"Wichernschule Schule mit dem sonderpädagogischen Förderschwerpunkt ""geistige Entwicklung""",401420,03562 8258,Schule mit dem sonderpäd. Förderschwerpunkt geistige Entwicklung,,BB
Cottbuser Straße 151 03149 Forst (Lausitz),03562 697849,false,BB-106434,51.748397,14.625831,Evangelische Grundschule Forst anerkannte Ersatzschule ,106434,03562 697841,Grundschule,,BB
Pestalozzistraße 4 03149 Forst (Lausitz),03562 9269995,false,BB-106707,51.723972,14.617878,"Archimedes Grundschule Forst, -genehmigte Ersatzschule- ",106707,03562 9269993,Grundschule,,BB
W.-Liebknecht-Straße 25 03238 Finsterwalde,03531 718079,false,BB-106318,51.63306,13.71667,Evangelische Grundschule Finsterwalde anerkannte Ersatzschule,106318,03531 718061,Grundschule,,BB
Uhlandallee 28-30 15732 Eichwalde,030 6755261,false,BB-180129,52.378768,13.622094,Freie Oberschule Villa Elisabeth Eichwalde - anerkannte Ersatzschule -,180129,030 6755262,Oberschule,,BB
Alfred-Dengler-Straße 9 16225 Eberswalde,03334 2022188,false,BB-200530,52.829823,13.802518,Oberbarnim-Schule Berufliche Schule d. Berufsbildungs- vereins Eberswalde e.V.,200530,03334 2022116,Berufliche Schule in fr. Trägerschaft mit Beruflichem Gymnasium,,BB
Alfred-Dengler-Straße 9 16225 Eberswalde,03334 2022188,false,BB-180130,52.829823,13.802518,Oberbarnim-Oberschule anerkannte Ersatzschule ,180130,03334 2022116,Oberschule,,BB
Kupferhammerweg 34 16225 Eberswalde,03334 38666029,false,BB-106070,52.83809,13.791523,Kinderakademie Evangelische Grundschule ,106070,03334 38666011,Grundschule,,BB
Alfred-Dengler-Straße 9 16225 Eberswalde,03334 2022188,false,BB-121149,52.829823,13.802518,Jugendakademie Evangelisches Gymnasium anerkannte Ersatzschule,121149,03334 2022116,Gymnasium,,BB
Friedrich-Engels-Straße 6 16225 Eberswalde,03334 288548,false,BB-106033,52.832689,13.805914,Freie Montessorischule Barnim Grundschule ,106033,03334 288548,Grundschule,,BB
Eberswalder Straße 30 a 16227 Eberswalde,03334 383481,false,BB-180178,52.839751,13.761709,Freie Gesamtschule Finow - genehmigte Ersatzschule -  ,180178,03334 383491,Gesamtschule mit GOST,,BB
Spreewaldstraße 20/22 16227 Eberswalde,03334 383545,false,BB-200591,52.829673,13.764645,Berufliche Schule Buckow Ersatzschule mit anerkannten Bildungsgängen der Berufsschule,200591,03334 383544,Berufliche Schule in freier Trägerschaft,,BB
Dorfstraße 74a 03253 Doberlug-Kirchhain/OT Trebbus,035322 519940,false,BB-106525,51.659519,13.588211,Evangelische Grundschule Trebbus ,106525,035322 519938,Grundschule,,BB
Straße der Jugend 11 03253 Doberlug-Kirchhain,035322 51241,false,BB-121186,51.638483,13.560563,Evangelisches Gymnasium Doberlug-Kirchhain anerkannte Ersatzschule ,121186,035322 18859,Gymnasium,,BB
Karl-Marx-Straße 32 03253 Doberlug-Kirchhain,035322 187860,false,BB-180051,51.608745,13.551936,Evangelische Oberschule Doberlug-Kirchhain anerkannte Ersatzschule,180051,035322 181139,Oberschule,,BB
Leipziger Straße 14 03048 Cottbus,0355 4838025,false,BB-700010,51.743405,14.312681,Freie Waldorfschule Cottbus ,700010,0355 473242,Waldorfschule,,BB
Elisabeth-Wolf-Straße 31 a 03042 Cottbus,0355 75368029,false,BB-121320,51.765829,14.350956,Evangelische Schule Cottbus Gymnasium staatlich genehmigte Ersatzschule,121320,0355 7536800,Gymnasium,,BB
Ströbitzer Schulstraße 42 03046 Cottbus,0355 35559115,false,BB-106100,51.751954,14.29881,Evangelische Gottfried-Forck-Grundschule anerkannte Ersatzschule,106100,0355 3555910,Grundschule,,BB
Straße der Jugend 75 03050 Cottbus,0355 48644877,false,BB-106550,51.747275,14.331453,Bewegte Grundschule Cottbus -genehmigte Ersatzschule- ,106550,0355 724051,Grundschule,,BB
Berliner Straße 56 03046 Cottbus,0355 35554130,false,BB-200839,51.75819,14.313776,Berufsschule des Gemeinnützigen Berufsbildungsvereins Guben e.V. Ersatzschule mit anerkannten Bildungsgängen der Berufsschule ,200839,0355 35554100,Berufliche Schule in freier Trägerschaft,,BB
Parzellenstraße 10 03046 Cottbus,0355 35541799,false,BB-330190,51.713394,14.348734,Berufliche Schule für Sozialwesen der DEB in Brandenburg gemeinnützige Schulträger-GmbH - anerkannte Ersatzschule -,330190,0355 35541790,Berufliche Schule in freier Trägerschaft,,BB
Wallmow 6 17291 Carmzow-Wallmow,039862 64777,false,BB-106069,53.342384,14.091435,Dorfschule Wallmow genehmigte Ersatzschule ,106069,039862 35040,Grundschule,,BB
Frankfurter Str. 74 15518 Briesen (Mark),033607 591426,false,BB-180166,52.348062,14.280893,Oberschule Briesen der FAW gGmbH anerkannte Ersatzschule,180166,033607 591425,Oberschule,,BB
Maerckerstraße 11 14776 Brandenburg an der Havel,03381 79830939,false,BB-106574,52.39715,12.543426,WIR-Grundschule -anerkannte Ersatzschule- ,106574,03381 79830931,Grundschule,,BB
Kirchhofstraße 3-7 14776 Brandenburg an der Havel,03381 702798,false,BB-330206,52.404613,12.562997,Fachschule für Sozialwesen im Europäischen Bildungswerk für Beruf und Gesellschaft gGmbH,330206,03381 702456,Fachschule,,BB
Domkietz 5 14776 Brandenburg an der Havel,03381 20876029,false,BB-121216,52.413108,12.564137,Evangelisches Gymnasium am Dom zu Brandenburg anerkannte Ersatzschule ,121216,03381 20876012,Gymnasium,,BB
Domlinden 25 14776 Brandenburg an der Havel,03381 211993,false,BB-106112,52.416098,12.568241,Evangelische Grundschule Brandenburg an der Havel  ,106112,03381 211990,Grundschule,,BB
Berliner Straße 26 15831 Blankenfelde-Mahlow/OT Mahlow,03379 207550,false,BB-106537,52.365725,13.400446,Evangelische Grundschule Mahlow ,106537,03379 207500,Grundschule,,BB
Eichhornstraße 4-5 15741 Bestensee,033763 226737,false,BB-180245,52.25,13.65,Gesamtschule Villa Elisabeth mit gymnasialer Oberstufe - Schule in freier Trägerschaft,180245,033763 227750,Gesamtschule mit GOST,,BB
Bonhoefferweg 1 16321 Bernau bei Berlin/OT Lobetal,03338 66261,false,BB-330097,52.72636,13.595704,"Berufliche Schule der Hoffnungstaler Stiftung Lobetal Fachschule Sozialwesen, Berufsfachschule Soziales anerkannte Ersatzschule",330097,03338 66251,Berufliche Schule in freier Trägerschaft,,BB
Niederbarnimallee 75 16321 Bernau bei Berlin,033397 29514,false,BB-130928,52.72648,13.492964,Montessorischule Niederbarnim Oberschule anerkannte Ersatzschule,130928,033397 28762,Oberschule,,BB
Niederbarnimallee 75 16321 Bernau bei Berlin,033397 29514,false,BB-106150,52.72648,13.492964,Montessorischule Niederbarnim Grundschule anerkannte Ersatzschule,106150,033397 28762,Grundschule,,BB
Ladeburger Chaussee 69 16321 Bernau bei Berlin,03338 704337,false,BB-106604,52.684831,13.586073,Evangelische Grundschule Bernau Staatlich anerkannte Ersatzschule ,106604,03338 704329,Grundschule,,BB
Niederbarnimallee 75 16321 Bernau bei Berlin,033397 29514,false,BB-113475,52.72648,13.492964,Aristoteles-Gesamtschule Bernau Reformpädagogische Gesamtschule m. GOST - genehmigte Ersatzschule -,113475,033397 28762,Gesamtschule mit GOST,,BB
Straße nach Fichtenwalde 16 14547 Beelitz,033204 21455,false,BB-330188,52.255277,12.931035,"Berufliche Schule für Sozialwesen, Fachschule für Sozialwesen mit den anerk. FR Heilerz.pflege u. Sozialpäd. anerk. Berufsfachschule f. Soziales",330188,033204 21450,Berufliche Schule in freier Trägerschaft,,BB
Waldweg 1 15837 Baruth/Mark,033704 67620,false,BB-180038,52.042283,13.512781,Freie Oberschule Baruth anerkannte Ersatzschule ,180038,033704 67264,Oberschule,,BB
Johannisstraße 1 16259 Bad Freienwalde,03344 301778,false,BB-400038,52.786289,14.027799,"Laurentiusschule, Schule mit dem sonderpädagogischen Förderschwerpunkt ""geistige Entwicklung"" - anerkannte Ersatzschule -",400038,03344 301775,Schule mit dem sonderpäd. Förderschwerpunkt geistige Entwicklung,,BB
Ernst-Thälmann-Straße 10 14806 Bad Belzig,033841 454266,false,BB-106252,52.143733,12.583629,Freie Schule Fläming Ganzheitliche Naturschule nach Maria Montessori,106252,033841 441143,Grundschule,,BB
Kirchgasse 2 16278 Angermünde,03331 298056,false,BB-106215,53.018876,14.002016,Freie Schule Angermünde Grundschule ,106215,03331 298055,Grundschule,,BB
Kirchgasse 2 16278 Angermünde,03331 298056,false,BB-180180,53.018876,14.002016,Freie Schule Angermünde Oberschule anerkannte Ersatzschule,180180,03331 298055,Oberschule,,BB
Puschkinallee 12 16278 Angermünde,03331 260577,false,BB-200578,53.008957,13.990073,Berufliche Schule Angermünde ,200578,03331 26050,Berufliche Schule in freier Trägerschaft,,BB
Schloßstraße 7a 16356 Ahrensfelde/OT Blumberg,,false,BB-180257,52.602838,13.6208,Private Oberschule Blumberg - genehmigte Ersatzschule -,180257, ,Oberschule,,BB
Schloßstraße 7a 16356 Ahrensfelde/OT Blumberg,,false,BB-121344,52.602838,13.6208,Humanistisches Privatgymnasium Blumberg - genehmigte Ersatzschule -,121344, ,Gymnasium,,BB
Friedrich-Raue-Straße 1 15806 Zossen/OT Wünsdorf,033702 66657,false,BB-100596,52.18565,13.465569,Erich Kästner Grundschule Wünsdorf/OT Waldstadt ,100596,033702 66657,Grundschule,,BB
Am Sportplatz 8 15806 Zossen/OT Glienick,03377 2052028,false,BB-100456,52.255131,13.379284,Grundschule Glienick  ,100456,03377 2052020,Grundschule,,BB
Triftstraße 1 15806 Zossen,03377 330467,false,BB-100341,52.240633,13.432305,Grundschule Zossen/Dabendorf  ,100341,03377 334517,Grundschule,,BB
Gerichtstraße 39 15806 Zossen,03377 202691,false,BB-110383,52.217608,13.468189,Goetheschule Zossen Grundschule ,110383,03377 302689,Grundschule,,BB
Triftstraße 3 15806 Zossen,03377 303368,false,BB-110395,52.242004,13.431664,Geschwister-Scholl-Schule Gesamtschule mit GOST Zossen OT Dabendorf,110395,03377 334324,Gesamtschule mit GOST,,BB
Gubener Straße 33 15295 Ziltendorf,033653 46365,false,BB-102556,52.202424,14.628363,Grundschule Ziltendorfer Niederung  ,102556,033653 217,Grundschule,,BB
Schulstraße 11 14793 Ziesar,033830 12323,false,BB-110498,52.268657,12.290316,Thomas-Müntzer-Oberschule mit Grundschule ,110498,033830 258,Oberschule mit Grundschule,,BB
Schulstraße 4 15738 Zeuthen,033762 92294,false,BB-112630,52.352878,13.627465,Musikbetonte Gesamtschule Paul Dessau Zeuthen ,112630,033762 71987,Gesamtschule mit GOST,,BB
Forstallee 66 15738 Zeuthen,033762 84027,false,BB-104784,52.345599,13.618695,Grundschule am Wald Zeuthen  ,104784,033762 8400,Grundschule,,BB
Gartenweg 11 15326 Zeschdorf/OT Alt Zeschdorf,033602 45045,false,BB-104462,52.423474,14.442521,"""Schule im Grünen"" Verlässliche Halbtagsgrundschule Alt Zeschdorf  ",104462,033602 229,Grundschule,,BB
Ribbecker Straße 1 16792 Zehdenick/OT Mildenberg,03307 3029635,false,BB-102945,53.013868,13.283546,"Mildenberger Grundschule ""Am Ziegeleipark"" ",102945,03307 2203,Grundschule,,BB
Dammhaststraße 8 16792 Zehdenick,03307 312912,false,BB-102933,52.983867,13.340226,Linden-Grundschule Zehdenick  ,102933,03307 310265,Grundschule,,BB
Hospitalstraße 1 16792 Zehdenick,03307 301371,false,BB-102921,52.977614,13.332819,Havelland-Grundschule Zehdenick  ,102921,03307 310237,Grundschule,,BB
Wesendorfer Weg 39 16792 Zehdenick,03307 467660,false,BB-200244,52.982892,13.354419,Georg-Mendheim-Oberstufenzentrum Oberhavel ,200244,03307 46760,OSZ mit beruflichem Gymnasium,,BB
Marianne-Grunthal-Straße 2 16792 Zehdenick,03307 312567,false,BB-111818,52.971694,13.330348,Exin-Oberschule Zehdenick  ,111818,03307 2774,Oberschule,,BB
Marianne-Grunthal-Straße 1 b 16792 Zehdenick,03307 302569,false,BB-400737,52.973871,13.330987,"EXIN-Förderschule Zehdenick Schule mit dem sonderpädagogischen Förderschwerpunkt ""geistige Entwicklung""",400737,03307 2328,Schule mit dem sonderpäd. Förderschwerpunkt geistige Entwicklung,,BB
Ernst-Thälmann-Straße 58 14789 Wusterwitz,033839 254,false,BB-100766,52.376054,12.379669,Wilhelm-Götze-Schule  ,100766,033839 253,Grundschule,,BB
Schulstraße 16 14641 Wustermark/OT Elstal,033234 86768,false,BB-112161,52.542434,12.985297,Heinz Sielmann Oberschule Elstal  ,112161,033234 86767,Oberschule,,BB
Hamburger Straße 8 14641 Wustermark,033234 86774,false,BB-103597,52.547634,12.941017,"Grundschule ""Otto Lilienthal"" Wustermark  ",103597,033234 60242,Grundschule,,BB
Schulstraße 1 16868 Wusterhausen/Dosse,033979 14246,false,BB-102891,52.821583,12.577948,Astrid- Lindgren- Grundschule  Wusterhausen ,102891,033979 14233,Grundschule,,BB
Hospitalstraße 36 a 16269 Wriezen,033456 2105,false,BB-110097,52.71524,14.134004,"Grund- und Oberschule ""Salvador Allende"" Wriezen  ",110097,033456 2104,Oberschule mit Grundschule,,BB
Weinbergstraße 27 15569 Woltersdorf,03362 887858,false,BB-111521,52.454605,13.753867,Grundschule am Weinberg  ,111521,03362 5127,Grundschule,,BB
Dr.-Sorge-Straße 4/5 14778 Wollin,033833 71869,false,BB-100687,52.277145,12.462086,Grundschule Wollin  ,100687,033833 70216,Grundschule,,BB
Waldring 27 16909 Wittstock/Dosse,03394 448161,false,BB-101618,53.172842,12.503019,Waldring-Grundschule Wittstock  ,101618,03394 4007117,Grundschule,,BB
Meyenburger Chaussee 2 16909 Wittstock/Dosse,03394 448203,false,BB-120303,53.166888,12.484735,Städtisches Gymnasium Wittstock/Dosse  ,120303,03394 433559,Gymnasium,,BB
Rheinsberger Straße 3 16909 Wittstock/Dosse,03394 448142,false,BB-400403,53.163182,12.494374,"Schule mit dem sonderpädagogischen Förderschwerpunkt ""Lernen"" Wittstock ",400403,03394 444448,Schule mit dem sonderpäd. Schwerpunkt Lernen,,BB
Lietzenweg 2a 16909 Wittstock/Dosse,03394 471121,false,BB-400415,53.16673,12.492279,"Mosaik-Schule Schule mit dem sonderpädagogischen Förderschwerpunkt ""geistige Entwicklung"" Wittstock ",400415,03394 471120,Schule mit dem sonderpäd. Förderschwerpunkt geistige Entwicklung,,BB
Polthierstraße 19 16909 Wittstock/Dosse,03394 448910,false,BB-110917,53.153228,12.480074,Dr.-Wilhelm-Polthier-Oberschule Wittstock ,110917,03394 712229,Oberschule,,BB
Auf der Freiheit 3 16909 Wittstock/Dosse,03394 403481,false,BB-101606,53.160486,12.485569,Diesterweg-Grundschule Wittstock  ,101606,03394 403480,Grundschule,,BB
Hartwigstraße 1 19322 Wittenberge,03877 564247,false,BB-400968,53.007896,11.760683,"Schule mit dem sonderpädagogischen Förderschwerpunkt ""Lernen"" Wittenberge ",400968,03877 403856,Schule mit dem sonderpäd. Schwerpunkt Lernen,,BB
Bad Wilsnacker Straße 48 19322 Wittenberge,03877 924730,false,BB-200232,52.991296,11.76529,Oberstufenzentrum Prignitz  ,200232,03877 92470,OSZ mit beruflichem Gymnasium,,BB
Scheunenstraße 13 19322 Wittenberge,03877 77082,false,BB-800132,52.99355,11.753764,Oberschule Wittenberge  ,800132,03877 403832,Oberschule,,BB
Ernst-Thälmann-Straße 2 19322 Wittenberge,03877 405637,false,BB-800120,52.999988,11.751666,Marie-Curie-Gymnasium Wittenberge  ,800120,03877 565560,Gymnasium,,BB
J.-Runge-Straße 40 19322 Wittenberge,03877 563177,true,BB-113293,53,11.75,"Grundschule ""Friedrich-Ludwig-Jahn"" mit offenem Ganztagsangebot ",113293,03877 403979,Grundschule,,BB
Dr.-Salvador-Allende-Straße 62 19322 Wittenberge,03877 565982,false,BB-104000,53.007685,11.751508,Grundschule Elblandgrundschule Wittenberge ,104000,03877 902084,Grundschule,,BB
Prof.-Hilgenfeldt-Straße 19 a 19322 Wittenberge,03877 923821,false,BB-400970,53,11.75,"Albert-Schweitzer-Schule Wittenberge Schule mit dem sonderpädagogischen Förderschwerpunkt ""geistige Entwicklung""",400970,03877 923811,Schule mit dem sonderpäd. Förderschwerpunkt geistige Entwicklung,,BB
Karl-Marx-Straße 108 15745 Wildau,03375 503439,false,BB-130679,52.321732,13.636287,Ludwig Witthöft Oberschule Wildau  ,130679,03375 503331,Oberschule,,BB
Fichtestraße 90 15745 Wildau,03375 4680926,false,BB-104759,52.322638,13.623465,Grundschule Wildau  ,104759,03375 468090,Grundschule,,BB
Parkstraße 4 14827 Wiesenburg/Mark,033849 90649,false,BB-101333,52.110126,12.446244,"Grundschule ""Am Schlosspark"" Wiesenburg  ",101333,033849 50338,Grundschule,,BB
Kleeallee 1 16356 Werneuchen,033398 88918,false,BB-102398,52.625196,13.761292,Grundschule im Rosenpark  ,102398,033398 8890,Grundschule,,BB
Thälmannstraße 63a 16356 Werneuchen,033398 87848,false,BB-111338,52.622549,13.750598,Europaschule Werneuchen  ,111338,033398 7271,Oberschule,,BB
Töplitz Hasselberg 11 14542 Werder (Havel)/OT Töplitz,033202 700249,false,BB-103445,52.4334,12.907192,Inselschule Töplitz  ,103445,033202 60234,Grundschule,,BB
Glindower Dorfstraße 1 14542 Werder (Havel)/OT Glindow,03327 669462,false,BB-103494,52.364923,12.909301,Grundschule Glindow  ,103494,03327 45907,Grundschule,,BB
Kemmnitzer Chaussee 75 14542 Werder (Havel),03327 6689930,false,BB-400828,52.421433,12.892234,"Schule am Plessower See - Schule mit dem sonderpädagogischen Förderschwerpunkt ""Lernen""  ",400828,03327 668990,Schule mit dem sonderpäd. Schwerpunkt Lernen,,BB
Altenkirch-Weg 6-8 14542 Werder (Havel),03327 668760,false,BB-200323,52.380768,12.928491,Oberstufenzentrum Werder des Landkreises Potsdam-Mittelmark ,200323,03327 66870,OSZ mit beruflichem Gymnasium,,BB
Gluckstraße 8 14542 Werder (Havel),03327 730876,false,BB-103329,52.380996,12.925014,"Grundschule ""Karl Hagemeister""  ",103329,03327 42355,Grundschule,,BB
Kesselgrundstraße 62-68 14542 Werder (Havel),03327 663444,false,BB-120560,52.392358,12.920975,Ernst-Haeckel-Gymnasium  ,120560,03327 663430,Gymnasium,,BB
Unter den Linden 11 14542 Werder (Havel),03327 730609,false,BB-130539,52.376354,12.934803,Carl-von-Ossietzky-Oberschule mit angegliederter Primarstufe  ,130539,03327 42725,Oberschule mit Grundschule,,BB
Jahnstraße 24 03119 Welzow,035751 28274,false,BB-101175,51.584986,14.170628,"Grundschule Welzow ""Johann Wolfgang von Goethe""  ",101175,035751 20369,Grundschule,,BB
Ernst-Thälmann-Straße 22 16348 Wandlitz/OT Klosterfelde,033396 878719,false,BB-130369,52.794228,13.48653,Oberschule Klosterfelde  ,130369,033396 878710,Oberschule,,BB
Ernst-Thälmann-Straße 22 16348 Wandlitz/OT Klosterfelde,033396 878719,false,BB-102301,52.794228,13.48653,Grundschule Klosterfelde  ,102301,033396 878720,Grundschule,,BB
Primelstraße 12 16348 Wandlitz/OT Basdorf,033397 81861,false,BB-111302,52.715367,13.442051,Grundschule Basdorf  ,111302,033397 81860,Grundschule,,BB
Prenzlauer Chaussee 130 16348 Wandlitz,033397 61875,false,BB-120900,52.750653,13.467368,Gymnasium Wandlitz  ,120900,033397 61874,Gymnasium,,BB
An der Sporthalle 5 16348 Wandlitz,033397 671110,false,BB-105764,52.746902,13.467103,Grundschule Wandlitz  ,105764,033397 21164,Grundschule,,BB
Mühlenweg 8 16818 Walsleben,033920 70380,false,BB-110176,52.942148,12.66795,Thomas-Müntzer-Grundschule  ,110176,033920 69329,Grundschule,,BB
Straße des Friedens 5 15306 Vierlinden/OT Worin,033477 54799,false,BB-401020,52.517184,14.27208,Schule mit dem sonderpäd. Förderschwerpunkt geistige Entwicklung Schule am Wald  ,401020,033477 4411,Schule mit dem sonderpäd. Förderschwerpunkt geistige Entwicklung,,BB
Gahlener Weg 6 03226 Vetschau/Spreewald/OT Missen,035436 56091,false,BB-100250,51.7277,14.042625,Lindengrundschule Missen  ,100250,035436 327,Grundschule,,BB
Pestalozzistraße 13 03226 Vetschau/Spreewald,035433 70765,false,BB-113244,51.782163,14.086291,"Oberschule mit Grundschulteil Schulzentrum ""Dr. Albert Schweitzer"" Vetschau/Spreewald",113244,035433 2119,Oberschule mit Grundschule,,BB
H.-Aurel-Zieger-Str 20 16727 Velten,03304 502668,false,BB-105053,52.677818,13.174523,Löwenzahn-Grundschule Velten  ,105053,03304 502277,Grundschule,,BB
Viktoriastraße 10 16727 Velten,03304 502723,false,BB-105041,52.688785,13.178021,Linden-Grundschule Velten ,105041,03304 502417,Grundschule,,BB
Emma-Ihrer-Straße 7 b 16727 Velten,03304 393333,false,BB-120972,52.685314,13.177943,Hedwig-Bollhagen-Gymnasium Velten  ,120972,03304 39330,Gymnasium,,BB
Breite Straße 32 16727 Velten,03212 1325048,false,BB-130680,52.687855,13.182073,1. Oberschule Velten  ,130680,03304 502598,Oberschule,,BB
Zinsdorfer Straße 6 04924 Uebigau-Wahrenbrück/OT Wahrenbrück,035341 23084,false,BB-111089,51.548007,13.355366,Grundschule Erich Schindler Wahrenbrück,111089,035341 94437,Grundschule,,BB
Wahrenbrücker Straße 15 04938 Uebigau-Wahrenbrück/OT Uebigau,035365 89420,false,BB-102209,51.596518,13.307436,Grundschule Uebigau  ,102209,035365 8940,Grundschule,,BB
Werbelow 33 17337 Uckerland/OT Werbelow,039740 20415,false,BB-105867,53.457021,13.867229,Grundschule Uckerland  ,105867,039740 20415,Grundschule,,BB
Burgwallstraße 1 14929 Treuenbrietzen,033748 13623,false,BB-120510,52.099566,12.878295,"Gymnasium ""Am Burgwall""  ",120510,033748 15563,Gymnasium,,BB
Albert-Schweitzer-Straße 23 14929 Treuenbrietzen,033748 70509,false,BB-103123,52.088637,12.848948,"Grundschule ""Albert Schweitzer""  ",103123,033748 70510,Grundschule,,BB
Ruhemannweg 57 b 14959 Trebbin/OT Blankensee,033731 31237,false,BB-103317,52.233894,13.135724,Grundschule Blankensee  ,103317,033731 15379,Grundschule,,BB
Goethestraße 19 14959 Trebbin,033731 700422,false,BB-103251,52.216192,13.21724,Grundschule Trebbin  ,103251,033731 80605,Grundschule,,BB
Goethestraße 18 14959 Trebbin,033731 30124,false,BB-113347,52.215863,13.217871,Goetheoberschule Trebbin  ,113347,033731 15564,Oberschule,,BB
Lindenstraße 4 15755 Teupitz,033766 21569,false,BB-104747,52.133783,13.614026,"Grundschule ""Teupitz am See""  ",104747,033766 62353,Grundschule,,BB
Dargersdorfer Straße 69b 17268 Templin,03987 200818,false,BB-400890,53.112026,13.515164,"Schule mit dem sonderpädagogischen Förderschwerpunkt ""Lernen"" Willy Gabbert ",400890,03987 40415,Schule mit dem sonderpäd. Schwerpunkt Lernen,,BB
Dargersdorfer Straße 14 17268 Templin,03987 200659,false,BB-112185,53.115942,13.513395,Oberschule Templin  ,112185,03987 40295,Oberschule,,BB
Feldstraße 1 17268 Templin,03987 204929,false,BB-120601,53.11114,13.512996,Gymnasium Templin  ,120601,03987 20490,Gymnasium,,BB
Seestraße 2 17268 Templin,03987 200846,false,BB-103718,53.123319,13.501459,"Grundschule ""Johann Wolfgang von Goethe""  ",103718,03987 6282,Grundschule,,BB
Rosa-Luxemburg-Straße 18 17268 Templin,03987 409943,false,BB-112197,53.114097,13.506537,Grundschule Am Egelpfuhl ,112197,03987 40485,Grundschule,,BB
Werdersteg 1 16845 Temnitztal/OT Wildberg,033928 70382,false,BB-100330,52.8755652,12.6027333,Grundschule am Burgwall  ,100330,033928 70382,Grundschule,,BB
Potsdamer Straße 4 14513 Teltow,03328 350717,false,BB-200311,52.395553,13.239192,Oberstufenzentrum I Technik des Landkreises Potsdam-Mittelmark ,200311,03328 35070,OSZ,,BB
Albert-Wiebach-Straße 4 14513 Teltow,03328 304782,false,BB-112010,52.397957,13.270361,Mühlendorf-Oberschule Teltow  ,112010,03328 41287,Oberschule,,BB
Liselotte-Herrmann-Straße 4 14513 Teltow,03328 303955,false,BB-120996,52.395842,13.275461,Immanuel-Kant-Gymnasium  ,120996,03328 41172,Gymnasium,,BB
Ruhlsdorf / Sputendorfer Straße 1 14513 Teltow,03328 332435,false,BB-105922,52.373192,13.261627,"Grundschule ""Am Röthepfuhl""  ",105922,03328 332436,Grundschule,,BB
Egerstraße 10 14513 Teltow,03328 332862,false,BB-103330,52.396775,13.247192,Ernst-von-Stubenrauch-Grundschule  ,103330,03328 473623,Grundschule,,BB
John-Schehr-Straße 18 14513 Teltow,03328 352696,false,BB-103342,52.392131,13.278452,Anne-Frank-Grundschule  ,103342,03328 42077,Grundschule,,BB
Schulstraße 27 15848 Tauche/OT Lindenberg,033677 620022,false,BB-102131,52.205705,14.115013,Rolf-Zuckowski-Grundschule  ,102131,033677 5759,Grundschule,,BB
Beeskower Chaussee 65 15848 Tauche,033675 203,false,BB-102120,52.14886,14.159523,Ludwig-Leichhardt-Grundschule  ,102120,033675 203,Grundschule,,BB
Dorfstraße 34 16230 Sydower Fließ/OT Grüntal,03337 430937,false,BB-105661,52.742736,13.720181,Grundschule Grüntal  ,105661,03337 46118,Grundschule,,BB
Heinrich-Dorrenbach-Straße 1 15344 Strausberg,03341 445778,false,BB-101102,52.536022,13.837601,Vorstadt-Grundschule  ,101102,03341 422045,Grundschule,,BB
Wriezener Straße 28 15344 Strausberg,03341 345546,false,BB-640025,52.583077,13.886372,Volkshochschule Märkisch-Oderland Geschäftsstelle Zweiter Bildungsweg Strausberg,640025,03341 345552,ZBW an VHS und anderen Schulformen,,BB
August-Bebel-Straße 49 15344 Strausberg,03341 360422,false,BB-120182,52.574456,13.878672,Theodor-Fontane-Gymnasium Strausberg  ,120182,03341 36040,Gymnasium,,BB
Wriezener Straße 28 E 15344 Strausberg,03342 345543,false,BB-200190,52.583077,13.886372,Oberstufenzentrum Märkisch-Oderland  ,200190,03341 345511,OSZ mit beruflichem Gymnasium,,BB
Am Kieferngrund 5 15344 Strausberg,03341 472734,false,BB-110711,52.536551,13.831453,Lise-Meitner-Oberschule  Strausberg,110711,03341 422057,Oberschule,,BB
Hegermühlenstraße 8 15344 Strausberg,03341 217513,false,BB-101096,52.575002,13.883036,Hegermühlen-Grundschule  ,101096,03341 22965,Grundschule,,BB
Otto-Grotewohl-Ring 69 15344 Strausberg,03341 308960,false,BB-101138,52.575228,13.897836,Grundschule am Wäldchen  ,101138,03341 27486,Grundschule,,BB
Am Annatal 64 15344 Strausberg,03341 472884,false,BB-101126,52.54916,13.864464,"Grundschule ""Am Annatal""  ",101126,03341 421224,Grundschule,,BB
Am Sportpark 1 15344 Strausberg,03341 421481,false,BB-400269,52.53969,13.844196,"Clara-Zetkin-Schule Schule mit dem sonderpäd. Förderschwerpunkt ""Lernen"" Strausberg  ",400269,03341 421023,Schule mit dem sonderpäd. Schwerpunkt Lernen,,BB
Peter-Göring-Straße 24 15344 Strausberg,03341 498923,false,BB-110693,52.583746,13.891039,Anne-Frank-Oberschule Strausberg  ,110693,03341 22076,Oberschule,,BB
Kirchstraße 13 15913 Straupitz,035475 80847,false,BB-111120,51.908312,14.118104,Von-Houwald-Grundschule Straupitz  ,111120,035475 286,Grundschule,,BB
Theodor-Fontane-Straße 23 15859 Storkow (Mark),033678 44454,false,BB-111168,52.251328,13.945768,Europaschule Storkow Grund- und Oberschule ,111168,033678 72621,Oberschule mit Grundschule,,BB
Straße der Jugend 5 15518 Steinhöfel/OT Heinersdorf,033432 72826,false,BB-111582,52.453339,14.218417,"Grundschule ""Dr. Theodor Neubauer"" ",111582,033432 8848,Grundschule,,BB
Fürstenberger Staße 3 16775 Stechlin,033082 51022,false,BB-111831,53.1,13.03333,Theodor-Fontane-Schule Menz ,111831,033082 50370,Grundschule,,BB
Heinrich-Zille-Straße 30 14532 Stahnsdorf,03329 6960899,false,BB-121290,52.388921,13.192682,Vicco-von-Bülow-Gymnasium  ,121290,03329 696080,Gymnasium,,BB
Schulstraße 9 14532 Stahnsdorf,03329 692339,false,BB-106495,52.389876,13.220675,Lindenhof-Grundschule  ,106495,03329 692202,Grundschule,,BB
Friedrich-Naumann-Straße 74 14532 Stahnsdorf,03329 698995,false,BB-103354,52.383561,13.205896,"Grundschule ""Heinrich Zille""  ",103354,03329 62139,Grundschule,,BB
Feldstraße 4 03130 Spremberg/OT Sellessen,03563 604620,false,BB-101229,51.603582,14.403294,Heidegrundschule  ,101229,03563 5547,Grundschule,,BB
An der Schule 2 03130 Spremberg/OT Schwarze Pumpe,03564 318732,false,BB-101187,51.57167,14.37944,Grundschule Geschwister Scholl ,101187,03564 22086,Grundschule,,BB
Zedlitzstraße 1 03130 Spremberg,03563 6080590,false,BB-101205,51.564585,14.370428,Grundschule Kollerberg  ,101205,03563 2595,Grundschule,,BB
Slamener Höhe 22 03130 Spremberg,03563 345586,false,BB-400282,51.571858,14.396031,"Georgenbergschule Schule mit dem sonderpädagogischen Förderschwerpunkt ""Lernen"" ",400282,03563 2298,Schule mit dem sonderpäd. Schwerpunkt Lernen,,BB
Mittelstraße  1 03130 Spremberg,03563 594386,false,BB-120200,51.572507,14.373018,Erwin-Strittmatter-Gymnasium  ,120200,03563 2038,Gymnasium,,BB
Wirthstraße 1 03130 Spremberg,03563 344059,false,BB-130187,51.569192,14.375329,Berufsorientierende Oberschule Spremberg  ,130187,03563 2205,Oberschule,,BB
Finkenweg 3 03130 Spremberg,03563 6080585,false,BB-101230,51.572761,14.358496,Astrid-Lindgren-Grundschule  ,101230,03563 90254,Grundschule,,BB
Wiesenweg 22 03130 Spremberg,03563 3499593,false,BB-400294,51.555344,14.374914,"""Wiesenwegschule"" Schule mit dem sonderpädagogischen Förderschwerpunkt ""geistige Entwicklung"" ",400294,03563 2423,Schule mit dem sonderpäd. Förderschwerpunkt geistige Entwicklung,,BB
A.-Becker-Ring 3 15528 Spreenhagen,033633 66597,false,BB-111533,52.34361,13.87444,"Grundschule  ""Am Kiefernwald"" ",111533,033633 324,Grundschule,,BB
Schulstraße 4 03249 Sonnewalde,035323 61972,false,BB-103810,51.693487,13.650956,Grundschule Sonnewalde  ,103810,035323 60209,Grundschule,,BB
August-Bebel-Straße 4 01996 Senftenberg/OT Hosena,035756 12866,false,BB-113189,51.453047,14.023998,Linden-Grundschule Hosena  ,113189,035756 60222,Grundschule,,BB
Rathenaustraße 6/8 01968 Senftenberg,03573 36758888,false,BB-104176,51.52359,14.00643,Walther-Rathenau-Grundschule  ,104176,03573 3675880,Grundschule,,BB
J.-R.-Becher-Straße 19 01968 Senftenberg,03573 3637615,false,BB-104188,51.51667,14.01667,Regenbogen-Grundschule Senftenberg  ,104188,03573 363760,Grundschule,,BB
Joachim-Gottschalk-Straße 17 01968 Senftenberg,03573 369499,false,BB-400981,51.522234,14.0084,"Marianne Seidel Schule Schule mit dem sonderpädagogischen Förderschwerpunkt ""Lernen"" ",400981,03573 794644,Schule mit dem sonderpäd. Schwerpunkt Lernen,,BB
Joachim-Gottschalk-Str. 22 01968 Senftenberg,03573 810310,false,BB-640372,51.522566,14.008041,Kreisvolkshochschule Oberspreewald-Lausitz Geschäftsstelle Senftenberg,640372,03573 81030,ZBW an VHS und anderen Schulformen,,BB
Usedomer Straße 51 01968 Senftenberg,03573 363994,false,BB-401377,51.509808,13.984825,"Hand in Hand Schule mit dem sonderpädagogischen Förderschwerpunkt ""geistige Entwicklung"" ",401377,03573 61186,Schule mit dem sonderpäd. Förderschwerpunkt geistige Entwicklung,,BB
Steigerstraße 23 01968 Senftenberg,03573 140079,false,BB-104206,51.51372,13.998296,Grundschule am See Senftenberg ,104206,03573 3951,Grundschule,,BB
Fischreiherstraße 14 01968 Senftenberg,03573 147526,false,BB-120649,51.509382,13.989424,Friedrich-Engels-Gymnasium  ,120649,03573 61014,Gymnasium,,BB
Calauer Straße 26 01968 Senftenberg,03573 368741,false,BB-130643,51.530943,13.999905,Dr.-Otto-Rindt-Oberschule Senftenberg ,130643,03573 368740,Oberschule,,BB
Bernhard-Kellermann-Straße 2A 01968 Senftenberg,03573 3637710,false,BB-112379,51.516779,13.986222,Bernhard-Kellermann-Oberschule Senftenberg ,112379,03573 363770,Oberschule,,BB
Bertolt-Brecht-Straße 1 15306 Seelow,03346 201104,true,BB-112574,52.530341,14.388073,"Oberschule ""Bertolt Brecht"" Seelow Ganztagsschule ",112574,03346 248,Oberschule,,BB
Am Stadion 18 15306 Seelow,03346 8540016,false,BB-401031,52.534365,14.390938,Kleeblatt-Schule Schule mit dem sonderpädagogischen Förderschwerpunkt Lernen  ,401031,03346 292,Schule mit dem sonderpäd. Schwerpunkt Lernen,,BB
Bertolt-Brecht-Straße 3 15306 Seelow,03346 843030,false,BB-120686,52.529491,14.388806,Gymnasium auf den Seelower Höhen ,120686,03346 415,Gymnasium,,BB
Straße der Jugend 7 15306 Seelow,03346 849812,false,BB-104590,52.532145,14.386694,Grundschule Seelow  ,104590,03346 633,Grundschule,,BB
Pareyer Straße 3 a 14715 Seeblick/OT Hohennauen,033872 90706,false,BB-105296,52.667184,12.336085,Kleine Grundschule Hohennauen  ,105296,033872 90705,Grundschule,,BB
Neuseddin / Hans-Beimler-Straße 17 14554 Seddiner See,033205 7338,false,BB-112070,52.289082,12.990625,Friedrich-List-Grundschule  ,112070,033205 7330,Grundschule,,BB
Hauffstraße 33 14548 Schwielowsee/OT Geltow,03327 56165,false,BB-103500,52.363081,12.972312,Meusebach-Grundschule Geltow verlässliche Halbtagsgrundschule mit integrierter Kindertagesbetreuung ,103500,03327 56166,Grundschule,,BB
Straße der Einheit 45 14548 Schwielowsee/OT Caputh,033209 229729,false,BB-103470,52.34772,12.993231,"Grundschule ""Albert Einstein"" Schwielowsee OT Caputh Kreis Potsdam-Mittelmark",103470,033209 229700,Grundschule,,BB
Am Bahnhof 52 15913 Schwielochsee/OT Goyatz,035478 13047,false,BB-180026,52.014518,14.178793,Ludwig Leichhardt Oberschule des Amtes Lieberose/Oberspreewald ,180026,035478 322,Oberschule,,BB
Rosa-Luxemburg-Straße 6 16303 Schwedt/Oder,03332 47396,false,BB-640451,53.066476,14.259107,"Zweiter Bildungsweg an der Gesamtschule ""Talsand"" ",640451,03332 32106,ZBW an VHS und anderen Schulformen,,BB
Berliner Straße 50 16303 Schwedt/Oder,03332 839691,false,BB-400385,53.057298,14.294408,"Schule mit dem sonderpädagogischen Förderschwerpunkt ""Lernen"" Am Schloßpark Schwedt/Oder",400385,03332 22017,Schule mit dem sonderpäd. Schwerpunkt Lernen,,BB
Wasserplatz 2 16303 Schwedt/Oder,03332 291965,false,BB-400373,53.059891,14.295997,"Schule mit dem sonderpädagogischen Förderschwerpunkt ""geistige Entwicklung"" Im Odertal ",400373,03332 22020,Schule mit dem sonderpäd. Förderschwerpunkt geistige Entwicklung,,BB
Straße der Jugend 9 16303 Schwedt/Oder,03332 2670016,false,BB-101527,53.067112,14.295297,"Grundschule ""Bertolt Brecht""  ",101527,03332 251098,Grundschule,,BB
Dr.-Wilhelm-Külz-Viertel 2 16303 Schwedt/Oder,03332 414412,false,BB-101576,53.06743,14.247686,"Grundschule ""Am Waldrand""  ",101576,03332 32209,Grundschule,,BB
Rosa-Luxemburg-Straße 6 16303 Schwedt/Oder,03332 47396,false,BB-110863,53.066476,14.259107,"Gesamtschule mit gymnasialer Oberstufe ""Talsand""  ",110863,03332 32106,Gesamtschule mit GOST,,BB
Rosa-Luxemburg-Straße 47 16303 Schwedt/Oder,03332 839481,false,BB-101552,53.064033,14.265838,Erich Kästner-Grundschule  ,101552,03332 32453,Grundschule,,BB
Dr.-Theodor-Neubauer-Straße 1 16303 Schwedt/Oder,03332 572332,false,BB-110851,53.05804,14.282032,Dreiklang Oberschule  ,110851,03332 572333,Oberschule,,BB
August-Bebel-Straße 26 16303 Schwedt/Oder,03332 572268,false,BB-120273,53.059504,14.291516,Carl-Friedrich-Gauß-Gymnasium  ,120273,03332 22037,Gymnasium,,BB
Dr.-Theodor-Neubauer-Straße 3 16303 Schwedt/Oder,03332 2670051,false,BB-101540,53.058325,14.282641,Astrid Lindgren Grundschule  ,101540,03332 22313,Grundschule,,BB
Lauchhammerstraße 33 01987 Schwarzheide,035752 949449,false,BB-120662,51.492086,13.818367,SeeCampus Niederlausitz Emil-Fischer-Gymnasium ,120662,035752 949440,Gymnasium,,BB
Lauchhammerstraße 33 01987 Schwarzheide,035752 949459,false,BB-200025,51.492086,13.818367,Oberstufenzentrum Lausitz  ,200025,035752 949450,OSZ mit beruflichem Gymnasium,,BB
Geschwister-Scholl-Straße 27 01987 Schwarzheide,035752 96819,false,BB-104255,51.473944,13.856406,Grundschule Schwarzheide-Wandelhof  ,104255,035752 7171,Grundschule,,BB
Illgenstraße 26-32 15732 Schulzendorf,033762 211859,false,BB-104711,52.359537,13.593576,Grundschule Schulzendorf  ,104711,033762 40115,Grundschule,,BB
Oderberger Straße 36-38 16244 Schorfheide/OT Lichterfelde,03334 4298519,false,BB-113116,52.8692108,13.7495144,Grundschule Lichterfelde  ,113116,03334 219114,Grundschule,,BB
Berliner Straße 24 16244 Schorfheide/OT Groß Schönebeck,033393 664164,false,BB-113219,52.900819,13.53458,Grundschule Groß Schönebeck  ,113219,033393 326,Grundschule,,BB
Spechthausener Straße 1 - 3 16244 Schorfheide/OT Finowfurt,03335 31316,false,BB-113098,52.842007,13.683901,Schule Finowfurt  ,113098,03335 7465,Oberschule mit Grundschule,,BB
Sachsenweg 24 14621 Schönwalde-Glien/OT Schönwalde-Siedlung,03322 2121308,false,BB-103615,52.601702,13.131556,"Grundschule ""Menschenskinder"" Verlässliche Halbtagsgrundschule Schönwalde-Glien Ortsteil Schönwalde-Siedlung",103615,03322 3624,Grundschule,,BB
Turmstraße 1 14621 Schönwalde-Glien/OT Perwenitz,033231 71224,false,BB-103627,52.652317,13.010453,Grundschule im Glien  ,103627,033231 7120,Grundschule,,BB
Hauptstraße 50 15910 Schönwald,035474 612,false,BB-102052,51.974856,13.763934,Grundschule Schönwalde  ,102052,035474 36568,Grundschule,,BB
Pestalozzistraße 6 04916 Schönewalde,035362 74934,false,BB-111235,51.815835,13.22592,"Grundschule ""Otto Nagel"" Schönewalde ",111235,035362 360,Grundschule,,BB
Dorfaue 17 15566 Schöneiche bei Berlin,030 22171145,false,BB-102570,52.481034,13.702857,Storchenschule  ,102570,030 6495494,Grundschule,,BB
Prager Straße 31 a 15566 Schöneiche bei Berlin,030 22171168,false,BB-102568,52.466255,13.715751,"Grundschule ""Bruno Hans Bürgel""  ",102568,030 6495424,Grundschule,,BB
Karl-Marx-Str. 142 12529 Schönefeld/OT Großziethen,03379 4468010,false,BB-104632,52.396011,13.443593,Paul-Maar-Grundschule  ,104632,03379 4468004,Grundschule,,BB
Am Seegraben 58/60 12529 Schönefeld,030 6347982,false,BB-112586,52.395093,13.529785,Oberschule am Airport Schönefeld  ,112586,030 6338321,Oberschule,,BB
Hans-Grade-Allee 16 12529 Schönefeld,030 63409532,false,BB-105934,52.392181,13.499657,Astrid-Lindgren-Grundschule  ,105934,030 63409530,Grundschule,,BB
Bahnhofstraße 3 04936 Schlieben,035361 80071,false,BB-111211,51.725668,13.381786,Oberschule mit Grundschule Ernst Legal Schlieben ,111211,035361 718,Oberschule mit Grundschule,,BB
Kieselwitzer Straße 9 15890 Schlaubetal/OT Fünfeichen,033654 208,false,BB-111508,52.140488,14.528205,Fünfeichener Grundschule  ,111508,033654 208,Grundschule,,BB
Bahnhofstraße 2 01994 Schipkau/OT Annahütte,035754 64591,false,BB-113165,51.561236,13.894614,"Grundschule ""Blauer Planet"" Annahütte  ",113165,035754 1202,Grundschule,,BB
Friedrich-Engels-Straße 41 01993 Schipkau,035754 641701,false,BB-105880,51.518114,13.898835,"Grundschule ""Paul Noack""  ",105880,035754 9561,Grundschule,,BB
Schulweg 3a 03172 Schenkendöbern/OT Grano,035693 609914,false,BB-110980,51.972922,14.631687,Grundschule Grano  ,110980,035693 4042,Grundschule,,BB
Dresdner Straße 9 01945 Ruhland,035752 940081,false,BB-112410,51.4531,13.8661,Geschwister-Scholl-Oberschule mit Grundschule Ruhland ,112410,035752 2089,Oberschule mit Grundschule,,BB
Bahnhofstraße 39 15378 Rüdersdorf bei Berlin/OT Hennickendorf,033434 7254,false,BB-110644,52.508022,13.846481,"Grundschule ""Am Stienitzsee""  ",110644,033434 7254,Grundschule,,BB
Brückenstraße 80 A 15562 Rüdersdorf bei Berlin,033638 29975,false,BB-120443,52.465438,13.800296,Gymnasium Friedrich Anton von Heinitz ,120443,033638 3327,Gymnasium,,BB
Brückenstraße 79 a 15562 Rüdersdorf bei Berlin,033638 63509,false,BB-111569,52.465669,13.799801,Grund- und Oberschule Rüdersdorf ,111569,033638 3303,Oberschule mit Grundschule,,BB
Friedersdorfer Straße 10 03238 Rückersdorf,035325 17696,false,BB-103822,51.56818,13.567925,Grundschule Rückersdorf  ,103822,035325 17695,Grundschule,,BB
Dorfstraße 29a 14778 Roskow,033831 30062,false,BB-100742,52.470844,12.720768,Grundschule Roskow  ,100742,033831 30205,Grundschule,,BB
Frauenhainer Weg 1 04932 Röderland/OT Prösen,03533 607969,false,BB-101953,51.42566,13.48751,Grundschule Prösen  ,101953,03533 811130,Grundschule,,BB
Görziger Straße 64 15848 Rietz-Neuendorf/OT Görzig,033672 72825,false,BB-105132,52.238181,14.200713,"Grundschule ""Schule des Friedens"" ",105132,033672 380,Grundschule,,BB
Lindenstraße 1a 14728 Rhinow,033875 900389,false,BB-105260,52.752928,12.341627,Lilienthal-Grundschule  ,105260,033875 900380,Grundschule,,BB
Töpferweg 1 16837 Rheinsberg/OT Flecken Zechlin,033923 70325,false,BB-110190,53.156857,12.765088,Grundschule Flecken Zechlin ,110190,033923 70251,Grundschule,,BB
Schlossstraße 38/40 16831 Rheinsberg,033931 39963,false,BB-112835,53.098524,12.898375,Heinrich-Rau-Schule  Rheinsberg Oberschule,112835,033931 39962,Oberschule,,BB
Kiefernweg 5 16831 Rheinsberg,033931 43797,false,BB-110188,53.101595,12.901857,"Grundschule ""Dr. Salvador Allende"" Rheinsberg ",110188,033931 2244,Grundschule,,BB
Ernst-Thälmann-Straße 42 15345 Rehfelde,033435 77395,false,BB-110668,52.530953,13.912094,Grundschule Rehfelde  ,110668,033435 211,Grundschule,,BB
Große Hagenstraße 3b 14712 Rathenow,03385 494943,false,BB-401225,52.611418,12.33816,Schule Spektrum - Schule mit dem sonderpädagogischen Förderschwerpunkt geistige Entwicklung  ,401225,03385 503142,Schule mit dem sonderpäd. Förderschwerpunkt geistige Entwicklung,,BB
Baustraße 5 14712 Rathenow,03385 512233,false,BB-401249,52.608391,12.335563,Pestalozzi-Schule - Schule mit dem sonderpädagogischen Förderschwerpunkt Lernen  ,401249,03385 512233,Schule mit dem sonderpäd. Schwerpunkt Lernen,,BB
Pfarrer-Fröhlich-Straße 9 14712 Rathenow,03385 618611,false,BB-105211,52.606731,12.311087,Otto-Seeger-Grundschule Rathenow West ,105211,03385 505417,Grundschule,,BB
Schleusenstraße 9-10 14712 Rathenow,03385 512324,false,BB-130722,52.6054988,12.33581,"Oberschule ""Johann Heinrich August Duncker"" ",130722,03385 512325,Oberschule,,BB
Schulplatz 3 14712 Rathenow,03385 5191879,false,BB-105181,52.604149,12.335035,Grundschule am Weinberg  ,105181,03385 512262,Grundschule,,BB
Geschwister-Scholl-Straße 7 a 14712 Rathenow,03385 618574,false,BB-105193,52.602248,12.346282,"Grundschule ""Geschwister Scholl""  ",105193,03385 512105,Grundschule,,BB
Bruno-Baum-Ring 26 14712 Rathenow,03385 5191889,true,BB-112859,52.60606,12.361496,"Gesamtschule ""Bruno H. Bürgel"" - Sportprofilierte Ganztagsschule mit gymnasialer Oberstufe - UNESCO-Projektschule - ",112859,03385 514185,Gesamtschule mit GOST,,BB
Jahnstraße 33 14712 Rathenow,03385 499201,false,BB-120777,52.610293,12.349133,Friedrich-Ludwig-Jahn-Gymnasium  ,120777,03385 512079,Gymnasium,,BB
Friedrich-Ebert-Ring 107 14712 Rathenow,03385 618971,false,BB-105170,52.609702,12.350589,Friedrich-Ludwig-Jahn-Grundschule  ,105170,03385 512182,Grundschule,,BB
Dorfstraße 11 15834 Rangsdorf/OT Groß Machnow,033708 529884,false,BB-106628,52.273987,13.464196,Grundschule Groß Machnow ,106628,033708 903136,Grundschule,,BB
Großmachnower Straße 4 15834 Rangsdorf,033708 20749,false,BB-130059,52.289484,13.441035,Oberschule Rangsdorf  ,130059,033708 20739,Oberschule,,BB
Clara-Zetkin-Straße 5a 15834 Rangsdorf,033708 935475,false,BB-100572,52.294529,13.425954,Grundschule Rangsdorf  ,100572,033708 20606,Grundschule,,BB
Fontaneweg 24 15834 Rangsdorf,033708 933977,false,BB-120091,52.293799,13.424902,Fontane-Gymnasium Landkreis Teltow-Fläming Sitz Rangsdorf,120091,033708 93396,Gymnasium,,BB
Parchimer Chaussee 2 16949 Putlitz,033981 80961,false,BB-111685,53.254084,12.037535,Grundschule Putlitz  ,111685,033981 80251,Grundschule,,BB
Schulweg 1 15345 Prötzel,033436 15205,false,BB-101151,52.634043,13.979042,Grundschule Prötzel  ,101151,033436 272,Grundschule,,BB
Zur Hainholzmühle 27 16928 Pritzwalk,03395 300351,false,BB-400695,53.152722,12.190947,"Schule mit dem sonderpädagogischen Förderschwerpunkt ""Lernen"" Pritzwalk ",400695,03395 302315,Schule mit dem sonderpäd. Schwerpunkt Lernen,,BB
Giesensdorfer Weg 3 16928 Pritzwalk,03395 4013650,false,BB-120479,53.147839,12.169912,Johann-Wolfgang-von-Goethe- Gymnasium Pritzwalk ,120479,03395 4013630,Gymnasium,,BB
Hainholzweg 47 16928 Pritzwalk,03395 300260,false,BB-102775,53.153965,12.18223,Herbert-Quandt-Grundschule Pritzwalk ,102775,03395 700961,Grundschule,,BB
Zur Hainholzmühle 24 16928 Pritzwalk,03395 306554,false,BB-102763,53.152551,12.187365,Friedrich-Ludwig-Jahn-Schule Pritzwalk ,102763,03395 302635,Grundschule,,BB
Nordstraße 18 16928 Pritzwalk,03395 400040,false,BB-130461,53.155866,12.177348,Freiherr-von-Rochow-Schule - Oberschule - ,130461,03395 304297,Oberschule,,BB
Lindenstraße 2 17291 Prenzlau,03984 719844,false,BB-400774,53.313284,13.854208,Schule mit dem sonderpädagogischen Förderschwerpunkt Lernen Max Lindow ,400774,03984 2547,Schule mit dem sonderpäd. Schwerpunkt Lernen,,BB
Brüssower Allee 97 17291 Prenzlau,03984 8656318,false,BB-200189,53.331662,13.894148,Oberstufenzentrum Uckermark  ,200189,03984 8656310,OSZ,,BB
Berliner Straße 29 17291 Prenzlau,03984 808134,false,BB-113311,53.301284,13.822264,Oberschule mit Grundschule Carl Friedrich Grabow ,113311,03984 801890,Oberschule mit Grundschule,,BB
Georg-Dreke-Ring 58 17291 Prenzlau,03984 808914,false,BB-130837,53.317024,13.868393,"Oberschule ""Philipp Hackert""  ",130837,03984 808913,Oberschule,,BB
Brüssower Allee 93 17291 Prenzlau,03984 832670,false,BB-400762,53.330854,13.892967,"Lebensschule Uckermark Schule mit dem sonderpädagogischen Förderschwerpunkt ""geistige Entwicklung"" ",400762,03984 5544,Schule mit dem sonderpäd. Förderschwerpunkt geistige Entwicklung,,BB
Robert-Schulz-Ring 58 17291 Prenzlau,03984 718530,false,BB-103093,53.321528,13.879112,"Grundschule ""Artur Becker""  ",103093,03984 718529,Grundschule,,BB
Winterfeldtstraße 44 17291 Prenzlau,03984 808380,false,BB-103081,53.320125,13.859355,Grundschule Johann Heinrich Pestalozzi ,103081,03984 2224,Grundschule,,BB
Am Steintor 5 17291 Prenzlau,03984 808470,false,BB-103068,53.309504,13.863213,Diesterweg-Grundschule  ,103068,03984 2313,Grundschule,,BB
Dr.-Bähr-Straße 1 17291 Prenzlau,03984 718278,false,BB-120509,53.307491,13.86645,Christa-und-Peter-Scherpf-Gymnasium  ,120509,03984 2314,Gymnasium,,BB
Mühlenweg 1 14727 Premnitz,03386 210617,false,BB-112860,52.526829,12.346354,Oberschule Premnitz  ,112860,03386 282030,Oberschule,,BB
Karl-Marx-Straße 15 14727 Premnitz,03386 200699,false,BB-105223,52.542523,12.345407,Grundschule Am Dachsberg  ,105223,03386 282023,Grundschule,,BB
Hechtsprung 14 14476 Potsdam/OT Groß Glienicke,033201 20415,false,BB-103512,52.466012,13.104282,"Grundschule ""Hanna von Pestalozza""  ",103512,033201 20414,Grundschule,,BB
Ketziner Straße 31c 14476 Potsdam/OT Fahrland,033208 217874,false,BB-112082,52.471927,13.004958,Regenbogenschule Fahrland  ,112082,033208 50260,Grundschule,,BB
Haeckelstraße 74 14471 Potsdam,0331 2897521,false,BB-105429,52.389277,13.022926,Zeppelin-Grundschule  ,105429,0331 2897520,Grundschule,,BB
Bisamkiez 107-111 14478 Potsdam,0331 2897041,false,BB-401298,52.374995,13.101991,"Wilhelm-von-Türk-Schule Schule mit den sonderpädagogischen Förderschwerpunkten ""Hören"" und ""Sprache""",401298,0331 2897040,Schule mit dem sonderpäd. Förderschwerpunkt Hören,,BB
Schilfhof 29 14478 Potsdam,0331 2897281,false,BB-105351,52.378114,13.097016,Weidenhof-Grundschule  ,105351,0331 2897280,Grundschule,,BB
Friedrich-Wolf-Straße 12 14478 Potsdam,0331 2897631,false,BB-105430,52.367526,13.096144,Waldstadt-Grundschule  ,105430,0331 2897630,Grundschule,,BB
Lindenstraße 32/33 14467 Potsdam,0331 2898001,false,BB-113050,52.397496,13.050285,Voltaireschule Gesamtschulcampus mit gymnasialem Bildungsgang ,113050,0331 2898000,Gesamtschule mit GOST,,BB
Zeppelinstraße 115 14471 Potsdam,0331 2898201,false,BB-115540,52.381919,13.020449,"Sportschule Potsdam ""Friedrich Ludwig Jahn"" ",115540,0331 2898200,Gesamtschule mit GOST,,BB
An der Alten Zauche 2c 14478 Potsdam,0331 2898181,false,BB-401262,52.373957,13.093516,"Schule mit dem sonderpädagogischen Förderschwerpunkt ""Lernen"" ""Schule am Nuthetal""",401262,0331 2898180,Schule mit dem sonderpäd. Schwerpunkt Lernen,,BB
Friedrich-Ebert-Straße 17 14467 Potsdam,0331 2896731,false,BB-600027,52.401279,13.05796,"Schule des Zweiten Bildungsweges ""Heinrich von Kleist"" ",600027,0331 2896730,Schule des ZBW,,BB
Domstraße 14b 14482 Potsdam,0331 2897651,false,BB-112999,52.396103,13.116227,Schule am Griebnitzsee  ,112999,0331 2897650,Grundschule,,BB
Burgstraße 23a 14467 Potsdam,0331 2897951,false,BB-105454,52.397313,13.066928,Rosa-Luxemburg-Schule  ,105454,0331 2897950,Grundschule,,BB
Jägerallee 23 a 14469 Potsdam,0331 2897102,false,BB-200372,52.406866,13.053737,Oberstufenzentrum I - Technik  ,200372,0331 2897101,OSZ,,BB
Zum Jagenstein 26 14478 Potsdam,0331 2897201,false,BB-200384,52.365056,13.089716,Oberstufenzentrum 2 Europaschule - Wirtschaft und Verwaltung ,200384,0331 2897200,OSZ,,BB
Berliner Straße 114-115 14467 Potsdam,0331 2897347,false,BB-200396,52.4085854,13.0769672,"Oberstufenzentrum ""Johanna Just""  ",200396,0331 2897300,OSZ,,BB
Zum Teufelssee 2-4 14478 Potsdam,0331 2898131,false,BB-113001,52.36041,13.091496,"Oberschule ""Theodor Fontane"" mit Primarstufe ",113001,0331 2898130,Oberschule mit Grundschule,,BB
Schlüterstraße 2 14471 Potsdam,0331 2898061,false,BB-112963,52.388863,13.013365,Montessori-Oberschule mit Primarstufe ,112963,0331 2898060,Oberschule mit Grundschule,,BB
Haeckelstraße 72 14471 Potsdam,0331 2897541,false,BB-113426,52.387995,13.023396,Leonardo-da-Vinci-Gesamtschule  ,113426,0331 2897540,Gesamtschule mit GOST,,BB
Galileistraße 2-4 14480 Potsdam,0331 2897701,false,BB-120820,52.375433,13.132481,Leibniz-Gymnasium  ,120820,0331 2897700,Gymnasium,,BB
Clara-Zetkin-Straße 11 14471 Potsdam,0331 2897821,false,BB-130734,52.396778,13.037909,Käthe-Kollwitz-Oberschule  ,130734,0331 2897820,Oberschule,,BB
Kirschallee 172 14469 Potsdam,0331 2897601,false,BB-112938,52.415626,13.033699,Karl-Foerster-Schule Städtische Grundschule Potsdam ,112938,0331 2897600,Grundschule,,BB
Heinrich-Mann-Allee 103 14473 Potsdam,0331 2897871,false,BB-120790,52.381338,13.078479,Humboldt-Gymnasium  ,120790,0331 2897870,Gymnasium,,BB
Kurfürstenstraße 53 14467 Potsdam,0331 2897581,false,BB-120819,52.403876,13.059366,Hermann-von-Helmholtz-Gymnasium Europaschule ,120819,0331 2897580,Gymnasium,,BB
Jägerallee 23 A 14469 Potsdam,0331 2896221,false,BB-121356,52.406866,13.053737,Gymnasium Potsdam West im OSZ I ,121356,0331 2896220,Gymnasium,,BB
Lise-Meitner-Straße 4-6 14480 Potsdam,0331 2897801,false,BB-106008,52.359701,13.136927,Grundschule Im Kirchsteigfeld  ,106008,0331 2897800,Grundschule,,BB
Jakob-von-Gundling-Straße 25 14469 Potsdam,0331 2894531,false,BB-106677,52.411451,13.046629,Grundschule im Bornstedter Feld  ,106677,0331 2894530,Grundschule,,BB
Potsdamer Straße 90 14469 Potsdam,0331 2896201,false,BB-106720,52.422374,13.002744,Grundschule Bornim  ,106720,0331 2896200,Grundschule,,BB
Galileistraße 8 14480 Potsdam,0331 2897721,false,BB-105363,52.375921,13.134456,Grundschule Am Pappelhain  ,105363,0331 2897720,Grundschule,,BB
Humboldtring 15-17 14473 Potsdam,0331 2897761,false,BB-105405,52.3964728,13.076753,Grundschule am Humboldtring  ,105405,0331 2897760,Grundschule,,BB
Dortustraße 28-29 14467 Potsdam,0331 2897441,false,BB-105326,52.3978441,13.0530114,"Grundschule ""Max Dortu""  ",105326,0331 2897440,Grundschule,,BB
Kaiser-Friedrich-Straße 15a 14469 Potsdam,0331 2897401,false,BB-103421,52.405351,12.993501,"Grundschule ""Ludwig Renn""  ",103421,0331 2897400,Grundschule,,BB
Karl-Liebknecht-Straße 29 14482 Potsdam,0331 2897481,false,BB-105491,52.395381,13.09389,"Grundschule ""Bruno H. Bürgel""  ",105491,0331 2897480,Grundschule,,BB
Oskar-Meßter-Straße 4-6 14480 Potsdam,0331 2897501,false,BB-105466,52.366156,13.13457,"Grundschule ""Am Priesterweg""  ",105466,0331 2897500,Grundschule,,BB
Esplanade 5 14469 Potsdam,,false,BB-106770,52.4,13.06667,Grundschule im Bornstedter Feld - Rote Kaserne Ost,106770,0331 2896250,Grundschule,,BB
Stephensonstraße 1 14482 Potsdam,0331 2898051,false,BB-106653,52.390422,13.099345,Goethe-Grundschule  ,106653,0331 2898050,Grundschule,,BB
Schilfhof 25 14478 Potsdam,0331 2897261,false,BB-113451,52.378529,13.096195,Gesamtschule Am Schilfhof  ,113451,0331 2897260,Gesamtschule mit GOST,,BB
Humboldtring 17 14473 Potsdam,0331 2897781,false,BB-112975,52.395329,13.076704,"Gesamtschule ""Peter Joseph Lenné""  ",112975,0331 2897780,Gesamtschule mit GOST,,BB
Carl-von-Ossietzky-Straße 37 14471 Potsdam,0331 2897461,false,BB-105478,52.394267,13.034207,Gerhart-Hauptmann-Grundschule Potsdam  ,105478,0331 2897460,Grundschule,,BB
Zum Teufelssee 6 14478 Potsdam,0331 2897421,false,BB-401250,52.360893,13.090777,Fröbelschule Schule mit dem sonderpädagogischen Förderschwerpunkt emotionale und soziale Entwicklung,401250,0331 2897420,Schule mit dem sonderpäd. Förderschwerpunkt emotionale und soziale Entwicklung,,BB
Ricarda-Huch-Straße 23-27 14480 Potsdam,0331 2898101,false,BB-113049,52.363121,13.137377,Friedrich-Wilhelm-von-Steuben-Gesamtschule  ,113049,0331 2898100,Gesamtschule mit GOST,,BB
Kurfürstenstraße 51 14467 Potsdam,0331 2897561,false,BB-105533,52.404226,13.061542,Eisenhart-Schule  ,105533,0331 2897560,Grundschule,,BB
Hegelallee 30 14467 Potsdam,0331 2897901,false,BB-120868,52.40143,13.047779,Einstein-Gymnasium Potsdam  ,120868,0331 2897900,Gymnasium,,BB
Brauhausberg 10 14473 Potsdam,0331 2897981,false,BB-401274,52.385517,13.060331,"Comenius-Schule Schule mit dem sonderpädagogischen Förderschwerpunkt ""geistige Entwicklung""",401274,0331 2897980,Schule mit dem sonderpäd. Förderschwerpunkt geistige Entwicklung,,BB
Gagarinstraße 5-7 14480 Potsdam,0331 2898081,false,BB-112987,52.377758,13.123954,Berufsvorbereitende Oberschule Pierre de Coubertin  ,112987,0331 2898080,Oberschule,,BB
Kopernikusstraße 30 14482 Potsdam,0331 2898031,false,BB-121307,52.389583,13.099332,Bertha-von-Suttner-Gymnasium Babelsberg  ,121307,0331 2898030,Gymnasium,,BB
Steinweg 5 04928 Plessa,03533 5360,false,BB-111030,51.482155,13.598642,Goethe-Grundschule Hohenleipisch-Plessa  ,111030,03533 5301,Grundschule,,BB
Hauptstraße 40 19339 Plattenburg/OT Kleinow,038784 60408,false,BB-104061,53.05435,11.958561,"Grundschule ""Thomas Müntzer"" Kleinow ",104061,038784 60306,Grundschule,,BB
Bahnhofstraße 25 19339 Plattenburg/OT Glöwen,038787 70303,false,BB-113300,52.911715,12.084349,Oberschule mit Grundschule Glöwen  ,113300,038787 70283,Oberschule mit Grundschule,,BB
An der Gärtnerei 4 16278 Pinnow,033335 2051,false,BB-100626,53.059576,14.086258,Wilhelm-Busch-Grundschule Pinnow  ,100626,033335 2051,Grundschule,,BB
Karl-Marx-Straße 16 15345 Petershagen/Eggersdorf,03341 473581,false,BB-100997,52.540228,13.821595,Grundschule Eggersdorf  ,100997,03341 48136,Grundschule,,BB
Mittelstraße 28 15370 Petershagen/Eggersdorf,033439 543832,false,BB-101072,52.520641,13.772009,Grundschule Am Dorfanger  ,101072,033439 79849,Grundschule,,BB
An der Buhne 1 19348 Perleberg,03876 3015840,false,BB-400956,53.074958,11.860043,"Schule an der Stepenitz Schule mit dem sonderpädagogischen Förderschwerpunkt ""Lernen""",400956,03876 612956,Schule mit dem sonderpäd. Schwerpunkt Lernen,,BB
Beguinenwiese 10 19348 Perleberg,03876 612659,false,BB-104024,53.073227,11.860997,Rolandschule-Grundschule Perleberg  ,104024,03876 612656,Grundschule,,BB
Berliner Straße  49 19348 Perleberg,03876 713751,false,BB-640359,53.073612,11.8686,Kreisvolkshochschule Prignitz  ,640359,03876 713750,ZBW an VHS und anderen Schulformen,,BB
Dobberziner Straße 28 19348 Perleberg,03876 614102,false,BB-104036,53.068957,11.868054,"Grundschule ""Geschwister Scholl"" Perleberg ",104036,03876 789745,Grundschule,,BB
Puschkinstraße 13 19348 Perleberg,03876 300014,false,BB-120728,53.0764,11.864675,Gottfried-Arnold-Gymnasium Perleberg ,120728,03876 785162,Gymnasium,,BB
Dergenthiner Straße 29 19348 Perleberg,03876 3004716,false,BB-800211,53.073124,11.847453,Friedrich-Gedike-Oberschule Perleberg  ,800211,03876 612740,Oberschule,,BB
Juri-Gagarin-Straße 6a 03185 Peitz,035601 88054,false,BB-110942,51.856476,14.422413,Oberschule Peitzer Land  ,110942,035601 23018,Oberschule,,BB
Schulstraße 2 03185 Peitz,035601 88583,false,BB-101679,51.856539,14.413025,Mosaik-Grundschule Peitz  ,101679,035601 22088,Grundschule,,BB
Bahnhofstraße 5b 14641 Paulinenaue,033237 85250,false,BB-103585,52.673164,12.714244,Karibu-Grundschule-Paulinenaue  ,103585,033237 88228,Grundschule,,BB
Schulstraße 27 16306 Passow,033336 57084,false,BB-110401,53.141415,14.115786,Cornelia-Funke-Grundschule Passow  ,110401,033336 55714,Grundschule,,BB
Schönerlinder Straße 47 16341 Panketal/OT Zepernick,030 94417767,false,BB-102295,52.655662,13.531241,Grundschule Zepernick  ,102295,030 9446117,Grundschule,,BB
Schönerlinder Straße 83 - 90 16341 Panketal/OT Zepernick,030 94414442,false,BB-111340,52.656108,13.531734,"Gesamtschule ""Wilhelm Conrad Röntgen"" Zepernick ",111340,030 9444345,Gesamtschule mit GOST,,BB
Dorfstraße 14e/f 16341 Panketal,030 94399115,false,BB-130370,52.629823,13.547545,Grund- und Oberschule Schwanebeck  ,130370,030 9497182,Oberschule mit Grundschule,,BB
Schulstraße 21 01990 Ortrand,035755 207,false,BB-112409,51.379298,13.765799,Karl-Eduard von Lingenthal-Oberschule Ortrand mit integrierter Grundschule Europaschule,112409,035755 207,Oberschule mit Grundschule,,BB
Schmachtenhagener Dorfstraße 33 16515 Oranienburg/OT Schmachtenhagen,03301 704927,false,BB-104826,52.772533,13.327419,Neddermeyer-Grundschule Schmachtenhagen ,104826,03301 529212,Grundschule,,BB
Dianastraße 13 16515 Oranienburg/OT Lehnitz,03301 208198,false,BB-104978,52.744635,13.266577,"Grundschule ""Friedrich Wolf"" Lehnitz ",104978,03301 524476,Grundschule,,BB
Friedrichsthaler Chaussee 29-31 16515 Oranienburg/OT Friedrichsthal,03301 524625,false,BB-104930,52.796395,13.277145,Grundschule Friedrichsthal  ,104930,03301 524624,Grundschule,,BB
Andre-Pican-Str. 39 16515 Oranienburg,03301 6015759,false,BB-640426,52.752031,13.254908,Zweiter Bildungsweg am Georg-Mendheim-Oberstufenzentrum Oberhavel ,640426,03301 6015752,ZBW an VHS und anderen Schulformen,,BB
Kölner Straße 21 16515 Oranienburg,03301 207455,false,BB-105016,52.758684,13.2618,Waldschule Oranienburg Grundschule ,105016,03301 3477,Grundschule,,BB
Walther-Bothe-Straße 30 16515 Oranienburg,03301 6017599,false,BB-112768,52.747779,13.244471,Torhorst-Gesamtschule mit gymnasialer Oberstufe ,112768,03301 6017560,Gesamtschule mit GOST,,BB
Dr.-Kurt-Schumacher-Straße 8 16515 Oranienburg,03301 592726,false,BB-121046,52.749199,13.231089,Louise-Henriette-Gymnasium Oranienburg ,121046,03301 59270,Gymnasium,,BB
Hermann-Löns-Straße 5 16515 Oranienburg,03301 702564,false,BB-112756,52.775368,13.234193,Jean-Clermont-Oberschule Sachsenhausen  ,112756,03301 703287,Oberschule,,BB
Albert-Buchmann-Straße 11 16515 Oranienburg,03301 208953,false,BB-105028,52.748603,13.241197,Havelschule Oranienburg  ,105028,03301 582002,Grundschule,,BB
Willy-Brandt-Straße 20 16515 Oranienburg,03301 57671709,false,BB-120730,52.75404,13.246873,"Gymnasium ""Friedlieb Ferdinand Runge"" ",120730,03301 57671700,Gymnasium,,BB
Friedrichstraße 44 a 16515 Oranienburg,03301 207666,false,BB-105004,52.781798,13.244519,Grundschule Sachsenhausen  ,105004,03301 3179,Grundschule,,BB
Wiesenweg 4 A 16515 Oranienburg,03301 702784,false,BB-105739,52.751121,13.173619,Grundschule Germendorf  ,105739,03301 3504,Grundschule,,BB
Jenaer Straße 5 16515 Oranienburg,03301 6009371,false,BB-104851,52.735055,13.241483,Comenius Grundschule Oranienburg  ,104851,03301 2079270,Grundschule,,BB
Bernauer Straße 55 16515 Oranienburg,03301 207912,false,BB-401146,52.756454,13.245378,"""Linden-Schule"" Oranienburg Schule mit dem sonderpädagogischen Förderschwerpunkt ""Lernen""",401146,03301 3024,Schule mit dem sonderpäd. Schwerpunkt Lernen,,BB
Berliner Straße 87/88 16248 Oderberg,033369 744771,false,BB-113074,52.866031,14.043616,Grundschule Oderberg  ,113074,033369 225,Grundschule,,BB
Mittelstraße 10 16259 Oderaue/OT Altreetz,033457 46806,false,BB-110048,52.764088,14.165487,Grundschule Altreetz  ,110048,033457 206,Grundschule,,BB
Schulstraße 10 17291 Oberuckersee/OT Warnitz,039863 426,false,BB-103007,53.184016,13.874755,Grundschule am Oberuckersee  ,103007,039863 426,Grundschule,,BB
Bärenklauer Straße 22 16727 Oberkrämer/OT Vehlefanz,03304 562272,false,BB-105030,52.720784,13.103446,Nashorn-Grundschule Vehlefanz  ,105030,03304 562231,Grundschule,,BB
Dorfaue 8 16727 Oberkrämer/OT Bötzow,03304 253983,false,BB-104814,52.649534,13.139711,Grundschule Bötzow  ,104814,03304 502388,Grundschule,,BB
Am Tornowsee 1 d 15377 Oberbarnim,033433 57092,false,BB-401407,52.578277,14.105266,Schule am Tornowsee - Schule mit dem sonderpäd. Förderschwerpunkt emotionale und soziale Entwicklung Pritzhagen ,401407,033433 57482,Schule mit dem sonderpäd. Förderschwerpunkt emotionale und soziale Entwicklung,,BB
Saarmund Bergstraße 24 14558 Nuthetal/OT Saarmund,033200 83711,false,BB-103366,52.31785,13.125519,Grundschule Saarmund  ,103366,033200 85389,Grundschule,,BB
Andersenweg 43 14558 Nuthetal/OT Bergholz-Rehbrücke,033200 33113,false,BB-112057,52.339132,13.105952,"Grundschule ""Otto Nagel""  ",112057,033200 3310,Grundschule,,BB
Kastanienweg 1 14947 Nuthe-Urstromtal/OT Stülpe,033733 60556,false,BB-103238,52.048135,13.312878,Grundschule Stülpe  ,103238,033733 50203,Grundschule,,BB
Schulallee 1 14947 Nuthe-Urstromtal,033734 60121,false,BB-103226,52.11877,13.026011,"Grundschule ""Am Pekenberg"" Verlässliche Halbtagsgrundschule Zülichendorf ",103226,033734 50221,Grundschule,,BB
Schulstraße 2 17291 Nordwestuckermark/OT Gollmitz,039852 499930,false,BB-103032,53.297826,13.723955,Grundschule Gollmitz  ,103032,039852 433,Grundschule,,BB
Wallscheunenweg 9 17291 Nordwestuckermark/OT Fürstenwerder,039859 244,false,BB-103044,53.39194,13.58254,Kleine Grundschule Fürstenwerder  ,103044,039859 244,Grundschule,,BB
Waldstraße 1 14823 Niemegk,033843 51555,false,BB-101345,52.071716,12.702054,"Grundschule ""Robert Koch""  ",101345,033843 51537,Grundschule,,BB
Blönsdorf 22 14913 Niedergörsdorf/OT Blönsdorf,033743 50270,false,BB-103202,51.956518,12.887299,"Grundschule ""Thomas Müntzer""  ",103202,033743 50267,Grundschule,,BB
Gräfendorfer Straße 3 14913 Niederer Fläming,033746 80542,false,BB-103111,51.92633,13.190716,Ludwig-Achim-von-Arnim-Grundschule Werbig ,103111,033746 72204,Grundschule,,BB
Kirchstraße 36 15898 Neuzelle,033652 82521,false,BB-102532,52.088009,14.653996,Grundschule am Fasanenwald  ,102532,033652 6235,Grundschule,,BB
Hauptstraße 79 a 15320 Neutrebbin,033474 38158,false,BB-104565,52.572096,14.231328,Oderland Grundschule Neutrebbin  ,104565,033474 38157,Grundschule,,BB
Kiebitzwinkel 3 15320 Neutrebbin,033474 57401,false,BB-110073,52.662447,14.223816,Oderbruch-Oberschule Neutrebbin  ,110073,033474 57400,Oberschule,,BB
Lindenstraße 6 16845 Neustadt (Dosse),033970 5178113,false,BB-111739,52.855988,12.432191,Prinz-von-Homburg-Schule Gesamtschule mit Grundschulteil und Förderschulklassen ,111739,033970 5178101,Gesamtschule mit Grundschule und GOST,,BB
Weinberg 1 16827 Neuruppin/OT Alt Ruppin,03391 400582,false,BB-110218,52.972046,12.833997,"Grundschule ""Am Weinberg"" Alt Ruppin ",110218,03391 7171,Grundschule,,BB
Rosa-Luxemburg-Straße 16 16816 Neuruppin,03391 2663,false,BB-110255,52.926692,12.797751,Rosa-Luxemburg-Grundschule Neuruppin ,110255,03391 2663,Grundschule,,BB
Alt Ruppiner Allee 39 16816 Neuruppin,03391 769247,false,BB-200049,52.947682,12.82406,Oberstufenzentrum Ostprignitz-Ruppin ,200049,03391 769276,OSZ mit beruflichem Gymnasium,,BB
Puschkinstraße 5 b 16816 Neuruppin,03391 4584620,false,BB-130862,52.92429,12.798064,"Oberschule ""Alexander Puschkin"" Neuruppin ",130862,03391 458460,Oberschule,,BB
Alt-Ruppiner Allee 39 16816 Neuruppin,03391 769163,false,BB-640300,52.947682,12.82406,Kreisvolkshochschule Ostprignitz-Ruppin Geschäftsstelle Neuruppin,640300,03391 769162,ZBW an VHS und anderen Schulformen,,BB
Franz-Mehring-Straße 1A 16816 Neuruppin,03391 4049489,false,BB-100304,52.911868,12.789679,Karl-Liebknecht-Grundschule Neuruppin ,100304,03391 4049480,Grundschule,,BB
Käthe-Kollwitz-Straße 2 16816 Neuruppin,03391 594719,false,BB-120078,52.911045,12.802783,Karl-Friedrich-Schinkel-Gymnasium Neuruppin ,120078,03391 59470,Gymnasium,,BB
Puschkinstraße 5 c 16816 Neuruppin,03391 505963,false,BB-400087,52.92429,12.798064,"Johann-Heinrich-Pestalozzi-Schule Neuruppin Schule mit dem sonderpädagogischen Förderschwerpunkt ""Lernen""",400087,03391 505961,Schule mit dem sonderpäd. Schwerpunkt Lernen,,BB
Hermsdorfer Weg 1 16816 Neuruppin,03391 775933,false,BB-100390,52.927176,12.82804,Grundschule Gildenhall  ,100390,03391 2393,Grundschule,,BB
Gerhart-Hauptmann-Straße 38 16816 Neuruppin,03391 2804,false,BB-100316,52.932784,12.810075,"Grundschule ""Wilhelm Gentz"" Naturparkschule ",100316,03391 2804,Grundschule,,BB
A.-Becker-Straße 11 16816 Neuruppin,03391 401419,false,BB-110292,52.92222,12.8,Fontane-Oberschule Neuruppin  ,110292,03391 401411,Oberschule,,BB
Kastaniensteg 6 16816 Neuruppin,03391 655532,false,BB-400105,52.9312,12.810803,"""Schule am Kastaniensteg"" Neuruppin Schule mit dem sonderpädagogischen Förderschwerpunkt ""geistige Entwicklung""",400105,03391 358182,Schule mit dem sonderpäd. Förderschwerpunkt geistige Entwicklung,,BB
Chausseestraße 17 03058 Neuhausen/Spree,035605 42471,false,BB-105790,51.674643,14.437184,Grundschule Laubsdorf  ,105790,035605 40085,Grundschule,,BB
Friedrich-Engels-Straße 2 15320 Neuhardenberg,033476 50553,false,BB-104553,52.594672,14.233396,"Grundschule ""Am Windmühlenberg"" ",104553,033476 263,Grundschule,,BB
Amselsteg 24 15366 Neuenhagen bei Berlin,03342 206177,false,BB-400270,52.528448,13.679445,Schule am Amselsteg Schule mit dem sonderpäd. Förderschwerpunkt geistige Entwicklung Neuenhagen  ,400270,03342 80252,Schule mit dem sonderpäd. Förderschwerpunkt geistige Entwicklung,,BB
Langenbeckstraße 26 15366 Neuenhagen bei Berlin,03342 207144,false,BB-101060,52.522133,13.673274,Hans-Fallada-Grundschule  ,101060,03342 80241,Grundschule,,BB
Dorfstraße 7 15366 Neuenhagen bei Berlin,03342 1578970,false,BB-101047,52.514144,13.7112,Grundschule am Schwanenteich  ,101047,03342 200848,Grundschule,,BB
Rathausstraße 28 15366 Neuenhagen bei Berlin,03342 42023550,false,BB-101059,52.521207,13.689285,Goethe-Grundschule Neuenhagen  ,101059,03342 4202350,Grundschule,,BB
Dahlwitzer Straße 79 15366 Neuenhagen bei Berlin,03342 203910,false,BB-120170,52.522869,13.672123,Einstein-Gymnasium Neuenhagen  ,120170,03342 692,Gymnasium,,BB
Fontanestraße 2 14715 Nennhausen,033878 90619,false,BB-105284,52.603134,12.49974,"Grundschule ""Friedrich de la Motte Fouqué"" ",105284,033878 60414,Grundschule,,BB
Straße der Neubauten 5b 14641 Nauen/OT Markee,03321 746149,false,BB-400865,52.579739,12.877078,Havellandschule - Schule mit dem sonderpädagogischen Förderschwerpunkt geistige Entwicklung  ,400865,03321 454158,Schule mit dem sonderpäd. Förderschwerpunkt geistige Entwicklung,,BB
Berliner Straße 29 14641 Nauen,03321 453019,false,BB-400889,52.603954,12.878239,Regenbogenschule - Schule mit dem sonderpädagogischen Förderschwerpunkt Lernen  ,400889,03321 453019,Schule mit dem sonderpäd. Schwerpunkt Lernen,,BB
Martin-Luther-Platz 2 14641 Nauen,03321 7489011,false,BB-103639,52.606768,12.876311,Käthe-Kollwitz-Grundschule  ,103639,03321 7489010,Grundschule,,BB
Berliner Straße 16 14641 Nauen,03321 460713,false,BB-103548,52.604615,12.878256,Grundschule am Lindenplatz Nauen  ,103548,03321 455575,Grundschule,,BB
Kreuztaler Straße 3 14641 Nauen,03321 4498333,false,BB-112124,52.607234,12.88318,"Grund- und Oberschule ""Dr. Georg Graf von Arco""  ",112124,03321 449830,Oberschule mit Grundschule,,BB
Parkstraße 7 14641 Nauen,03321 7487920,false,BB-120583,52.609528,12.875696,Goethe-Gymnasium Nauen  ,120583,03321 748790,Gymnasium,,BB
Bergmannstraße 18 15374 Müncheberg,033432 72770,false,BB-110670,52.505649,14.152576,Oberschule Müncheberg  ,110670,033432 374,Oberschule,,BB
Ernst-Thälmann-Straße 25 15374 Müncheberg,033432 72773,false,BB-101035,52.501491,14.145397,Grundschule Müncheberg  ,101035,033432 559,Grundschule,,BB
Jahnstraße 3 15299 Müllrose,033606 88412,false,BB-111491,52.238306,14.409679,Grund- und Oberschule Müllrose  ,111491,033606 8840,Oberschule mit Grundschule,,BB
Hauptstraße 19 16567 Mühlenbecker Land/OT Mühlenbeck,033056 28390,false,BB-104991,52.636184,13.375704,Käthe-Kollwitz-Grundschule Mühlenbeck ,104991,033056 82640,Grundschule,,BB
Kirschweg 2 16567 Mühlenbecker Land/OT Mühlenbeck,033056 407209,false,BB-112744,52.666678,13.374072,Käthe-Kollwitz-Gesamtschule Mühlenbeck ,112744,033056 407200,Gesamtschule mit GOST,,BB
Franz-Schmidt-Straße 5 16552 Mühlenbecker Land,033056 89132,false,BB-104838,52.635106,13.374223,Europaschule am Fließ Schildow  ,104838,033056 74335,Grundschule,,BB
An der Postsäule 10-12 04931 Mühlberg/Elbe,035342 71520,false,BB-111065,51.434216,13.220002,Grundschule der Stadt Mühlberg/Elbe  ,111065,035342 244,Grundschule,,BB
Märkische Straße 2 15749 Mittenwalde/OT Töpchin,033769 208601,false,BB-104735,52.171738,13.577082,Grundschule Töpchin  ,104735,033769 50212,Grundschule,,BB
Rathausstraße 10 15749 Mittenwalde,033764 21659,false,BB-401043,52.259839,13.543104,"Schule am Sonnenhof Schule mit dem sonderpädagogischen Förderschwerpunkt ""geistige Entwicklung""",401043,033764 21658,Schule mit dem sonderpäd. Förderschwerpunkt geistige Entwicklung,,BB
Schulstraße 1 15749 Mittenwalde,033764 52020,false,BB-104693,52.269566,13.533722,Grundschule Mittenwalde  ,104693,033764 5200,Grundschule,,BB
Forststraße 2a 14715 Milower Land/OT Milow,03386 282043,false,BB-105247,52.516449,12.313528,Inge-Sielmann-Grundschule  ,105247,03386 282027,Grundschule,,BB
Parkstraße 5 14715 Milower Land/OT Großwudicke,033873 60030,false,BB-105272,52.592643,12.228997,Kleine Grundschule Großwudicke  ,105272,033873 60238,Grundschule,,BB
Betonstraße 7 17268 Milmersdorf,039886 348604,false,BB-112203,53.109722,13.63852,Grundschule Clara Zetkin ,112203,039886 240,Grundschule,,BB
Heidereutherweg 1 14552 Michendorf/OT Wilhelmshorst,033205 62339,false,BB-112008,52.33192,13.06181,Grund- und Oberschule Wilhelmshorst  ,112008,033205 62295,Oberschule mit Grundschule,,BB
Potsdamer Allee 11 14552 Michendorf/OT Wildenbruch,033205 49057,false,BB-105983,52.289423,13.064593,"""Grundschule am Kiefernwald""  ",105983,033205 46534,Grundschule,,BB
Am Wolkenberg 14 14552 Michendorf,033205 46502,false,BB-120571,52.314692,13.040112,Wolkenberg-Gymnasium  ,120571,033205 46508,Gymnasium,,BB
Meisenweg 1 14552 Michendorf,033205 73626,false,BB-103524,52.313554,13.021962,Grundschule Michendorf  ,103524,033205 7360,Grundschule,,BB
Gartenstraße 8 16945 Meyenburg,033968 50905,false,BB-111697,53.311886,12.241053,"Grundschule ""Geschwister Scholl"" Meyenburg ",111697,033968 80293,Grundschule,,BB
Finsterwalder Straße 11 03238 Massen-Niederlausitz,03531 709699,false,BB-130606,51.640652,13.730774,Grund- und Oberschule Massen  ,130606,03531 709698,Oberschule mit Grundschule,,BB
Schulstraße 29 15913 Märkische Heide/OT Gröditsch,035476 18038,false,BB-102039,52.053633,13.989327,Grundschule Gröditsch  ,102039,035476 457,Grundschule,,BB
Zerpenschleuser Straße 42 16348 Marienwerder,03335 325880,false,BB-102362,52.8418,13.597119,Grundschule Marienwerder  ,102362,03335 7171,Grundschule,,BB
Pannwitzallee 1 17279 Lychen,039888 43817,false,BB-103779,53.204775,13.321264,Pannwitz-Grundschule Lychen  ,103779,039888 2327,Grundschule,,BB
Zossener Straße 8 14974 Ludwigsfelde/OT Groß Schulzendorf,03378 209971,false,BB-400117,52.269514,13.357838,"Schule am Wald Schule mit dem sonderpädagogischen Förderschwerpunkt ""geistige Entwicklung""",400117,03378 801388,Schule mit dem sonderpäd. Förderschwerpunkt geistige Entwicklung,,BB
Theodor-Fontane-Straße 2 a 14974 Ludwigsfelde,03378 510776,false,BB-100493,52.303399,13.265052,Theodor-Fontane-Grundschule Ludwigsfelde ,100493,03378 512503,Grundschule,,BB
Salvador-Allende-Straße 20 14974 Ludwigsfelde,03378 5100375,false,BB-400129,52.306075,13.245633,"Schule mit dem sonderpädagogischen Förderschwerpunkt ""Lernen"" ",400129,03378 514612,Schule mit dem sonderpäd. Schwerpunkt Lernen,,BB
Ernst-Thälmann-Straße 17 14974 Ludwigsfelde,03378 5187829,false,BB-120080,52.298654,13.256655,Marie-Curie-Gymnasium Ludwigsfelde Landkreis Teltow-Fläming ,120080,03378 518780,Gymnasium,,BB
Anton-Saefkow-Ring 20 14974 Ludwigsfelde,03378 510525,false,BB-100511,52.309524,13.250921,Kleeblatt-Grundschule Ludwigsfelde ,100511,03378 514217,Grundschule,,BB
Karl-Liebknecht-Straße 2c 14974 Ludwigsfelde,03378 879684,false,BB-110358,52.302681,13.246205,Gottlieb-Daimler-Schule Ludwigsfelde ,110358,03378 801973,Oberschule,,BB
