[{"name":"Schule an der Admiralstraße","id":"HB-002","address":"Winterstr. 20, 28215 Bremen","school_type":"Grundschule","fax":"0421/361-8177","phone":"0421/361-8110","email":"002@bildung.bremen.de","headmaster":"Jantje Mehlhop","state":"HB","programs":{"programs":[]},"full_time_school":true,"lon":8.807364,"lat":53.090258},{"name":"Schule am Alten Postweg","id":"HB-003","address":"Alter Postweg 302, 28207 Bremen","school_type":"Grundschule","fax":"0421/361-81258","phone":"0421/361-3376","email":"003@bildung.bremen.de","headmaster":"Sebastian Gerber","state":"HB","programs":{"programs":[]},"full_time_school":false,"lon":8.868684,"lat":53.065585},{"name":"Schule Am Mönchshof","id":"HB-005","address":"Hindenburgstr. 33 A, 28717 Bremen","school_type":"Grundschule","fax":"0421/361-79 587","phone":"0421/361-7165","email":"005@bildung.bremen.de","headmaster":"Marita Benteler","state":"HB","programs":{"programs":[]},"full_time_school":false,"lon":8.694167,"lat":53.168787},{"name":"Schule An der Gete","id":"HB-006","address":"An der Gete 103, 28211 Bremen","school_type":"Grundschule","fax":"0421/361-96016","phone":"0421/361-3158","email":"006@bildung.bremen.de","headmaster":"Tido Hokema","state":"HB","programs":{"programs":[]},"full_time_school":true,"lon":8.851296,"lat":53.079216},{"name":"Schule an der Alfred-Faust-Straße","id":"HB-007","address":"Alfred-Faust-Str. 34, 28277 Bremen","school_type":"Grundschule","fax":"0421/361-18239","phone":"0421/361-3511","email":"007@bildung.bremen.de","headmaster":"Christiane Langer","state":"HB","programs":{"programs":[]},"full_time_school":false,"lon":8.824,"lat":53.031878},{"name":"Schule Arbergen","id":"HB-008","address":"Heisiusstr. 7, 28307 Bremen","school_type":"Grundschule","fax":"0421/4843429","phone":"0421/480548","email":"008@bildung.bremen.de","headmaster":"Ulrike Deitschun","state":"HB","programs":{"programs":[]},"full_time_school":true,"lon":8.918928,"lat":53.039492},{"name":"Schule Arsten","id":"HB-009","address":"Korbhauser Weg 1, 28279 Bremen","school_type":"Grundschule","fax":"0421/361-96001","phone":"0421/361-3130","email":"009@bildung.bremen.de","headmaster":"Antje Huse","state":"HB","programs":{"programs":[]},"full_time_school":false,"lon":8.851997,"lat":53.030326},{"name":"Schule Auf den Heuen","id":"HB-010","address":"An der Fuchtelkuhle 15, 28239 Bremen","school_type":"Grundschule","fax":"0421/361-79682","phone":"0421/361-9275","email":"010@bildung.bremen.de","headmaster":"Ute Lesniarek-Spiess","state":"HB","programs":{"programs":[]},"full_time_school":true,"lon":8.729204,"lat":53.13464},{"name":"Schule an der Andernacher Straße","id":"HB-011","address":"Andernacher Str. 6, 28325 Bremen","school_type":"Grundschule","fax":"0421/361-59054","phone":"0421/361-3364","email":"011@bildung.bremen.de","headmaster":"Isolde Mörk","state":"HB","programs":{"programs":[]},"full_time_school":true,"lon":8.959222,"lat":53.068227},{"name":"Schule an der Augsburger Straße","id":"HB-012","address":"Augsburger Str. 175, 28215 Bremen","school_type":"Grundschule","fax":"0421/361-3590","phone":"0421/361-8370","email":"012@bildung.bremen.de","headmaster":"Andrea Drewes","state":"HB","programs":{"programs":[]},"full_time_school":true,"lon":8.805143,"lat":53.09984},{"name":"Schule Alt-Aumund","id":"HB-013","address":"Ritterkamp 10, 28757 Bremen","school_type":"Grundschule","fax":"0421/361-79386","phone":"0421/361-7651","email":"013@bildung.bremen.de","headmaster":"Heike Ahrens","state":"HB","programs":{"programs":[]},"full_time_school":true,"lon":8.62667,"lat":53.175708},{"name":"Schule Am Wasser","id":"HB-014","address":"Tidemanstr. 11, 28759 Bremen","school_type":"Grundschule","fax":"0421/361-79416","phone":"0421/361-7622","email":"014@bildung.bremen.de","headmaster":"null N.N.","state":"HB","programs":{"programs":[]},"full_time_school":false,"lon":8.631885,"lat":53.165596},{"name":"Schule am Baumschulenweg","id":"HB-015","address":"Baumschulenweg 12, 28213 Bremen","school_type":"Grundschule","fax":"0421/361-89362","phone":"0421/361-3162","email":"015@bildung.bremen.de","headmaster":"Lars Beulke","state":"HB","programs":{"programs":[]},"full_time_school":true,"lon":8.8463,"lat":53.093628},{"name":"Schule an der Parsevalstraße","id":"HB-016","address":"Parsevalstr. 2, 28309 Bremen","school_type":"Grundschule","fax":"0421/361-16958","phone":"0421/361-3048","email":"016@bildung.bremen.de","headmaster":"Jutta Schmidt","state":"HB","programs":{"programs":[]},"full_time_school":true,"lon":8.885231,"lat":53.067904},{"name":"Schule Borchshöhe","id":"HB-018","address":"Auf dem Flintacker 51, 28755 Bremen","school_type":"Grundschule","fax":"0421/361-79387","phone":"0421/361-7383","email":"018@bildung.bremen.de","headmaster":"Gunda Ruge-Strudthoff","state":"HB","programs":{"programs":[]},"full_time_school":true,"lon":8.636711,"lat":53.188218},{"name":"Schule Borgfeld","id":"HB-019","address":"Katrepeler Landstr. 1, 28357 Bremen","school_type":"Grundschule","fax":"0421/361-89077","phone":"0421/361-3086","email":"019@bildung.bremen.de","headmaster":"Barbara Claussen","state":"HB","programs":{"programs":[]},"full_time_school":true,"lon":8.906411,"lat":53.125982},{"name":"Schule an der Brinkmannstraße","id":"HB-020","address":"Brinkmannstr. 40, 28309 Bremen","school_type":"Grundschule","fax":"0421/361-14087","phone":"0421/361-3091","email":"020@bildung.bremen.de","headmaster":"null N.N.","state":"HB","programs":{"programs":[]},"full_time_school":false,"lon":8.89435,"lat":53.045257},{"name":"Schule Am Weidedamm","id":"HB-021","address":"Am Weidedamm 20, 28215 Bremen","school_type":"Grundschule","fax":"0421/361-18386","phone":"0421/361-14452","email":"021@bildung.bremen.de","headmaster":"Wiebke Meyer","state":"HB","programs":{"programs":[]},"full_time_school":false,"lon":8.817049,"lat":53.093094},{"name":"Bürgermeister-Smidt-Schule","id":"HB-023","address":"Contrescarpe 26, 28203 Bremen","school_type":"Grundschule","fax":"0421/361-10131","phone":"0421/361-10711","email":"023@bildung.bremen.de","headmaster":"Cornelia Haacke","state":"HB","programs":{"programs":[]},"full_time_school":false,"lon":8.814529,"lat":53.075326},{"name":"Schule am Buntentorsteinweg","id":"HB-024","address":"Buntentorsteinweg 245, 28201 Bremen","school_type":"Grundschule","fax":"0421/361-59267","phone":"0421/361-59531","email":"024@bildung.bremen.de","headmaster":"Monika Triba","state":"HB","programs":{"programs":[]},"full_time_school":true,"lon":8.810978,"lat":53.061088},{"name":"Schule Burgdamm","id":"HB-025","address":"Stargarder Str. 11, 28717 Bremen","school_type":"Grundschule","fax":"0421/361-79846","phone":"0421/361-7131","email":"025@bildung.bremen.de","headmaster":"Christa Brokate-Golinski","state":"HB","programs":{"programs":[]},"full_time_school":true,"lon":8.709193,"lat":53.172409},{"name":"Marie-Curie-Schule","id":"HB-028","address":"Curiestr. 2 A, 28357 Bremen","school_type":"Grundschule","fax":"0421/361-89453","phone":"0421/361-3021","email":"028@bildung.bremen.de","headmaster":"Birte Huckfeldt","state":"HB","programs":{"programs":[]},"full_time_school":false,"lon":8.895636,"lat":53.108302},{"name":"Schule an der Carl-Schurz-Straße","id":"HB-029","address":"Carl-Schurz-Str. 25, 28209 Bremen","school_type":"Grundschule","fax":"0421/361-17446","phone":"0421/361-3059","email":"029@bildung.bremen.de","headmaster":"Claudia Neumann","state":"HB","programs":{"programs":[]},"full_time_school":false,"lon":8.840196,"lat":53.084826},{"name":"Schule an der Düsseldorfer Straße","id":"HB-032","address":"Düsseldorfer Str. 2 A, 28327 Bremen","school_type":"Grundschule","fax":"0421/361-59490","phone":"0421/361-3032","email":"032@bildung.bremen.de","headmaster":"Dorothea Ilsen","state":"HB","programs":{"programs":[]},"full_time_school":true,"lon":8.932037,"lat":53.075203},{"name":"Schule Fährer Flur","id":"HB-034","address":"Fährer Flur 15, 28755 Bremen","school_type":"Grundschule","fax":"0421/361-79388","phone":"0421/361-7248","email":"034@bildung.bremen.de","headmaster":"Regina Wöhltjen","state":"HB","programs":{"programs":[]},"full_time_school":false,"lon":8.611802,"lat":53.177978},{"name":"Schule am Ellenerbrokweg","id":"HB-035","address":"Ellenerbrokweg 28, 28325 Bremen","school_type":"Grundschule","fax":"0421/361-18189","phone":"0421/361-3190","email":"035@bildung.bremen.de","headmaster":"Gudrun Bleeker","state":"HB","programs":{"programs":[]},"full_time_school":false,"lon":8.94507,"lat":53.070437},{"name":"Schule Farge-Rekum","id":"HB-036","address":"Betonstr. 4, 28777 Bremen","school_type":"Grundschule","fax":"0421/361-79826","phone":"0421/361-79141","email":"036@bildung.bremen.de","headmaster":"Larssen Rothaupt","state":"HB","programs":{"programs":[]},"full_time_school":false,"lon":8.525519,"lat":53.204547},{"name":"Schule an der Freiligrathstraße","id":"HB-039","address":"Freiligrathstr. 11, 28211 Bremen","school_type":"Grundschule","fax":"0421/496-3269","phone":"0421/361-3269","email":"039@bildung.bremen.de","headmaster":"Sandra Fecht","state":"HB","programs":{"programs":[]},"full_time_school":false,"lon":8.862559,"lat":53.083607},{"name":"Schule an der Wigmodistraße","id":"HB-040","address":"Wigmodistr. 37, 28779 Bremen","school_type":"Grundschule","fax":"0421/361-7726","phone":"0421/361-7436","email":"040@bildung.bremen.de","headmaster":"Ulrike Lüddeke","state":"HB","programs":{"programs":[]},"full_time_school":false,"lon":8.574987,"lat":53.187202},{"name":"Schule an der Glockenstraße","id":"HB-043","address":"Westerholzstr. 19 A, 28309 Bremen","school_type":"Grundschule","fax":"0421/361-14747","phone":"0421/361-3290","email":"043@bildung.bremen.de","headmaster":"Sylvia Rugen","state":"HB","programs":{"programs":[]},"full_time_school":false,"lon":8.887824,"lat":53.055171},{"name":"Schule an der Grambker Heerstraße","id":"HB-045","address":"Grambker Heerstr. 121, 28719 Bremen","school_type":"Grundschule","fax":"0421/361-79037","phone":"0421/361-7147","email":"045@bildung.bremen.de","headmaster":"Kirsten Limberg-Kalka","state":"HB","programs":{"programs":[]},"full_time_school":true,"lon":8.710816,"lat":53.150016},{"name":"Schule Grolland","id":"HB-048","address":"Brakkämpe 4, 28259 Bremen","school_type":"Grundschule","fax":"0421/361-13286","phone":"0421/361-19610","email":"048@bildung.bremen.de","headmaster":"Judith Wismach","state":"HB","programs":{"programs":[]},"full_time_school":false,"lon":8.764249,"lat":53.059602},{"name":"Schule Am Borgfelder Saatland","id":"HB-049","address":"Am Borgfelder Saatland 1-3, 28357 Bremen","school_type":"Grundschule","fax":"0421/361-82897","phone":"0421/361-14885","email":"049@bildung.bremen.de","headmaster":"Kerstin Kinner","state":"HB","programs":{"programs":[]},"full_time_school":true,"lon":8.896003,"lat":53.12726},{"name":"Schule am Bunnsackerweg","id":"HB-050","address":"Bunnsackerweg 4, 28279 Bremen","school_type":"Grundschule","fax":"0421/361-15265","phone":"0421/361-3310","email":"050@bildung.bremen.de","headmaster":"Ingrid Neumann","state":"HB","programs":{"programs":[]},"full_time_school":false,"lon":8.861112,"lat":53.044868},{"name":"Schule am Halmerweg","id":"HB-051","address":"Halmerweg 71, 28237 Bremen","school_type":"Grundschule","fax":"0421/361-16819","phone":"0421/361-9174","email":"051@bildung.bremen.de","headmaster":"Jürgen Riechardt-Ochner","state":"HB","programs":{"programs":[]},"full_time_school":false,"lon":8.763879,"lat":53.122323},{"name":"Schule Hammersbeck","id":"HB-052","address":"Fährer Str. 4, 28755 Bremen","school_type":"Grundschule","fax":"0421/361-79449","phone":"0421/361-7245","email":"052@bildung.bremen.de","headmaster":"Doris Semkat","state":"HB","programs":{"programs":[]},"full_time_school":false,"lon":8.613005,"lat":53.185676},{"name":"Schule Rönnebeck","id":"HB-053","address":"Helgenstr. 10-12, 28777 Bremen","school_type":"Grundschule","fax":"0421/361-79090","phone":"0421/361-7284","email":"053@bildung.bremen.de","headmaster":"Christoph Beckendorf","state":"HB","programs":{"programs":[]},"full_time_school":false,"lon":8.552078,"lat":53.185953},{"name":"Schule an der Horner Heerstraße","id":"HB-060","address":"Horner Heerstr. 17, 28359 Bremen","school_type":"Grundschule","fax":"0421/361-16556","phone":"0421/361-3368","email":"060@bildung.bremen.de","headmaster":"Gabriele Maul-Krummrich","state":"HB","programs":{"programs":[]},"full_time_school":true,"lon":8.870631,"lat":53.094617},{"name":"Schule In der Vahr","id":"HB-062","address":"In der Vahr 75, 28329 Bremen","school_type":"Grundschule","fax":"0421/361-10848","phone":"0421/361-3343","email":"062@bildung.bremen.de","headmaster":"Kirsten Ehrhorn","state":"HB","programs":{"programs":[]},"full_time_school":true,"lon":8.877339,"lat":53.078252},{"name":"Schule an der Kantstraße","id":"HB-064","address":"Kantstr. 63, 28201 Bremen","school_type":"Grundschule","fax":"0421/361-16961","phone":"0421/361-59541","email":"064@bildung.bremen.de","headmaster":"Insa Gildemeister","state":"HB","programs":{"programs":[]},"full_time_school":false,"lon":8.795234,"lat":53.066289},{"name":"Schule an der Karl-Lerbs-Straße","id":"HB-065","address":"Karl-Lerbs-Str. 70 A, 28201 Bremen","school_type":"Grundschule","fax":"0421/361-59571","phone":"0421/361-59561","email":"065@bildung.bremen.de","headmaster":"Manfred Fuhrmann","state":"HB","programs":{"programs":[]},"full_time_school":true,"lon":8.797311,"lat":53.058418},{"name":"Schule am Pastorenweg","id":"HB-069","address":"Pastorenweg 91-93, 28237 Bremen","school_type":"Grundschule","fax":"0421/361-17288","phone":"0421/361-9297","email":"069@bildung.bremen.de","headmaster":"Karl-Holger Meyer","state":"HB","programs":{"programs":[]},"full_time_school":true,"lon":8.765801,"lat":53.110419},{"name":"Kinderschule","id":"HB-070","address":"Auf der Hohwisch 61-63, 28207 Bremen","school_type":"Grundschule","fax":"0421/361-16816","phone":"0421/361-16887","email":"070@bildung.bremen.de","headmaster":"Philine Schubert","state":"HB","programs":{"programs":[]},"full_time_school":false,"lon":8.859884,"lat":53.066112},{"name":"Schule Kirchhuchting","id":"HB-071","address":"Kirchhuchtinger Landstr. 28, 28259 Bremen","school_type":"Grundschule","fax":"0421/361-83888","phone":"0421/361-15955","email":"071@bildung.bremen.de","headmaster":"Ruth Rauer","state":"HB","programs":{"programs":[]},"full_time_school":false,"lon":8.740756,"lat":53.050967},{"name":"Schule an der Lessingstraße","id":"HB-076","address":"Lessingstr. 30, 28203 Bremen","school_type":"Grundschule","fax":"0421/361-82899","phone":"0421/361-3225","email":"076@bildung.bremen.de","headmaster":"Kornelia Martens","state":"HB","programs":{"programs":[]},"full_time_school":true,"lon":8.833948,"lat":53.072885},{"name":"Tami-Oelfken-Schule","id":"HB-077","address":"Lüssumer Ring 55, 28777 Bremen","school_type":"Grundschule","fax":"0421/361-79494","phone":"0421/361-7755","email":"077@bildung.bremen.de","headmaster":"null N.N.","state":"HB","programs":{"programs":[]},"full_time_school":true,"lon":8.561188,"lat":53.198157},{"name":"Schule Mahndorf","id":"HB-081","address":"Mahndorfer Heerstr. 55, 28307 Bremen","school_type":"Grundschule","fax":"0421/4842161","phone":"0421/480063","email":"081@bildung.bremen.de","headmaster":"Stefanie Mleczek","state":"HB","programs":{"programs":["Schule ohne Rassismus - Schule mit Courage"]},"full_time_school":true,"lon":8.943854,"lat":53.037499},{"name":"Schule an der Melanchthonstraße","id":"HB-082","address":"Melanchthonstr. 150, 28217 Bremen","school_type":"Grundschule","fax":"0421/361-16869","phone":"0421/361-8292","email":"082@bildung.bremen.de","headmaster":"Sabine Göricke","state":"HB","programs":{"programs":[]},"full_time_school":false,"lon":8.789538,"lat":53.095164},{"name":"Schule an der Landskronastraße","id":"HB-083","address":"Landskronastr. 46, 28719 Bremen","school_type":"Grundschule","fax":"0421/361-79390","phone":"0421/361-7191","email":"083@bildung.bremen.de","headmaster":"Andrea Addicks-Friedrich","state":"HB","programs":{"programs":[]},"full_time_school":false,"lon":8.722453,"lat":53.176667},{"name":"Schule an der Nordstraße","id":"HB-085","address":"Nordstr. 349, 28217 Bremen","school_type":"Grundschule","fax":"0421/361-88921","phone":"0421/361-8282","email":"085@bildung.bremen.de","headmaster":"Peter Lehmann","state":"HB","programs":{"programs":[]},"full_time_school":false,"lon":8.777011,"lat":53.096961},{"name":"Schule Oberneuland","id":"HB-087","address":"Oberneulander Landstr. 36, 28355 Bremen","school_type":"Grundschule","fax":"0421/2575297","phone":"0421/259465","email":"087@bildung.bremen.de","headmaster":"Dagmar Sense","state":"HB","programs":{"programs":[]},"full_time_school":false,"lon":8.936998,"lat":53.090393},{"name":"Schule an der Oderstraße","id":"HB-088","address":"Oderstr. 75, 28199 Bremen","school_type":"Grundschule","fax":"0421/361-17063","phone":"0421/361-8228","email":"088@bildung.bremen.de","headmaster":"Silke Zimmermann","state":"HB","programs":{"programs":[]},"full_time_school":true,"lon":8.783943,"lat":53.068623},{"name":"Schule an der Oslebshauser Heerstr.","id":"HB-089","address":"Oslebshauser Heerstr. 115, 28239 Bremen","school_type":"Grundschule","fax":"0421/361-17175","phone":"0421/361-9280","email":"089@bildung.bremen.de","headmaster":"Magdalena Bossaller-Meyhoefer","state":"HB","programs":{"programs":[]},"full_time_school":true,"lon":8.73834,"lat":53.133271},{"name":"Schule Osterholz","id":"HB-090","address":"Osterholzer Heerstr. 160, 28325 Bremen","school_type":"Grundschule","fax":"0421/361-59046","phone":"0421/361-3003","email":"090@bildung.bremen.de","headmaster":"Margharethe Cimiotti","state":"HB","programs":{"programs":[]},"full_time_school":true,"lon":8.947153,"lat":53.058336},{"name":"Schule am Pfälzer Weg","id":"HB-091","address":"Koblenzer Str. 10, 28325 Bremen","school_type":"Grundschule","fax":"0421/361-15298","phone":"0421/361-3244","email":"091@bildung.bremen.de","headmaster":"Beatrix Harnisch-Soller","state":"HB","programs":{"programs":[]},"full_time_school":true,"lon":8.959569,"lat":53.06108},{"name":"Schule an der Paul-Singer-Straße","id":"HB-094","address":"Paul-Singer-Str. 160, 28329 Bremen","school_type":"Grundschule","fax":"0421/361-19828","phone":"0421/361-3356","email":"094@bildung.bremen.de","headmaster":"Frank Dahlenberg","state":"HB","programs":{"programs":[]},"full_time_school":true,"lon":8.897571,"lat":53.086168},{"name":"Schule an der Philipp-Reis-Straße","id":"HB-096","address":"Werner-von-Siemens-Str. 57, 28357 Bremen","school_type":"Grundschule","fax":"0421/361-17494","phone":"0421/361-3322","email":"096@bildung.bremen.de","headmaster":"Gudrun Stuck","state":"HB","programs":{"programs":[]},"full_time_school":false,"lon":8.889999,"lat":53.103624},{"name":"Schule am Pürschweg","id":"HB-097","address":"Pürschweg 5, 28779 Bremen","school_type":"Grundschule","fax":"0421/361-7279","phone":"0421/361-7816","email":"097@bildung.bremen.de","headmaster":"Karin Hoormann","state":"HB","programs":{"programs":[]},"full_time_school":false,"lon":8.574494,"lat":53.202913},{"name":"Schule am Pulverberg","id":"HB-099","address":"Schleswiger Str. 10, 28219 Bremen","school_type":"Grundschule","fax":"0421/361-5691","phone":"0421/361-5690","email":"099@bildung.bremen.de","headmaster":"Benita Buchheim","state":"HB","programs":{"programs":[]},"full_time_school":true,"lon":8.793105,"lat":53.09974},{"name":"Schule Rablinghausen","id":"HB-100","address":"Dorfkampsweg 50, 28197 Bremen","school_type":"Grundschule","fax":"0421/361-8385","phone":"0421/361-8268","email":"100@bildung.bremen.de","headmaster":"Ulrike Weiß","state":"HB","programs":{"programs":[]},"full_time_school":false,"lon":8.749434,"lat":53.089575},{"name":"Schule an der Rechtenflether Str.","id":"HB-101","address":"Rechtenflether Str. 24, 28197 Bremen","school_type":"Grundschule","fax":"0421/361-96770","phone":"0421/361-8223","email":"101@bildung.bremen.de","headmaster":"Katharina Midasch","state":"HB","programs":{"programs":[]},"full_time_school":true,"lon":8.76497,"lat":53.083309},{"name":"Schule an der Robinsbalje","id":"HB-105","address":"Robinsbalje 10, 28259 Bremen","school_type":"Grundschule","fax":"0421/361-59137","phone":"0421/361-15950","email":"105@bildung.bremen.de","headmaster":"Gebke Bode-Kirchhoff","state":"HB","programs":{"programs":[]},"full_time_school":true,"lon":8.730362,"lat":53.056841},{"name":"Schule an der Fischerhuder Straße","id":"HB-106","address":"Fischerhuder Str. 20, 28237 Bremen","school_type":"Grundschule","fax":"0421/361-18013","phone":"0421/361-9139","email":"106@bildung.bremen.de","headmaster":"Gerald Dolejs","state":"HB","programs":{"programs":[]},"full_time_school":true,"lon":8.763237,"lat":53.115325},{"name":"Schule an der Schmidtstraße","id":"HB-110","address":"Schmidtstr. 9, 28203 Bremen","school_type":"Grundschule","fax":"0421/361-59017","phone":"0421/361-3131","email":"110@bildung.bremen.de","headmaster":"Gabriele Voßler-Nickel","state":"HB","programs":{"programs":[]},"full_time_school":false,"lon":8.825604,"lat":53.072077},{"name":"Schule Schönebeck","id":"HB-111","address":"Herbartstr. 25, 28757 Bremen","school_type":"Grundschule","fax":"0421/664290","phone":"0421/662886","email":"111@bildung.bremen.de","headmaster":"Britta Riethmöller","state":"HB","programs":{"programs":[]},"full_time_school":false,"lon":8.645845,"lat":53.187237},{"name":"Schule an der Stichnathstraße","id":"HB-112","address":"Max-Jahn-Weg 13, 28277 Bremen","school_type":"Grundschule","fax":"0421/361-16422","phone":"0421/361-3584","email":"112@bildung.bremen.de","headmaster":"Carsten Dohrmann","state":"HB","programs":{"programs":[]},"full_time_school":true,"lon":8.828468,"lat":53.037934},{"name":"Schule Seehausen","id":"HB-113","address":"Seehauser Landstr. 141, 28197 Bremen","school_type":"Grundschule","fax":"0421/541500","phone":"0421/541500","email":"113@bildung.bremen.de","headmaster":"Martina Kruse","state":"HB","programs":{"programs":[]},"full_time_school":false,"lon":8.708292,"lat":53.111312},{"name":"Schule am Osterhop","id":"HB-114","address":"Osterhop 88, 28309 Bremen","school_type":"Grundschule","fax":"0421/361-14587","phone":"0421/361-3101","email":"114@bildung.bremen.de","headmaster":"null N.N.","state":"HB","programs":{"programs":[]},"full_time_school":true,"lon":8.90587,"lat":53.04574},{"name":"Schule an der Stader Straße","id":"HB-115","address":"Stader Str. 150, 28205 Bremen","school_type":"Grundschule","fax":"0421/361-16331","phone":"0421/361-3288","email":"115@bildung.bremen.de","headmaster":"Birgit Möller-Helken","state":"HB","programs":{"programs":[]},"full_time_school":true,"lon":8.850111,"lat":53.071786},{"name":"Schule St. Magnus","id":"HB-116","address":"Richthofenstr. 37, 28759 Bremen","school_type":"Grundschule","fax":"0421/361-79842","phone":"0421/361-7314","email":"116@bildung.bremen.de","headmaster":"Andrea Frantzen","state":"HB","programs":{"programs":[]},"full_time_school":false,"lon":8.661845,"lat":53.169017},{"name":"Schule Strom","id":"HB-117","address":"Stromer Landstr. 26 A, 28197 Bremen","school_type":"Grundschule","fax":"0421/541214","phone":"0421/541214","email":"117@bildung.bremen.de","headmaster":"Margret Genieser","state":"HB","programs":{"programs":[]},"full_time_school":false,"lon":8.70197,"lat":53.08272},{"name":"Schule an der Uphuser Straße","id":"HB-118","address":"Uphuser Str. 9, 28327 Bremen","school_type":"Grundschule","fax":"0421/361-5441","phone":"0421/361-3247","email":"118@bildung.bremen.de","headmaster":"Ingrid Moke","state":"HB","programs":{"programs":[]},"full_time_school":true,"lon":8.929475,"lat":53.063193},{"name":"Schule an der Witzlebenstraße","id":"HB-127","address":"Witzlebenstr. 3, 28327 Bremen","school_type":"Grundschule","fax":"0421/361-59661","phone":"0421/361-3373","email":"127@bildung.bremen.de","headmaster":"Klara Bernau","state":"HB","programs":{"programs":[]},"full_time_school":true,"lon":8.903988,"lat":53.075898},{"name":"Schule an der Delfter Straße","id":"HB-129","address":"Delfter Str. 10, 28259 Bremen","school_type":"Grundschule","fax":"0421/361-15969","phone":"0421/361-15990","email":"129@bildung.bremen.de","headmaster":"Frauke Brandt","state":"HB","programs":{"programs":[]},"full_time_school":true,"lon":8.726084,"lat":53.047134},{"name":"Amerikanische Schule","id":"HB-150","address":"Kleiner Blink 8, 27580 Bremerhaven","school_type":"Grundschule","fax":"0471/391-3689","phone":"0471/391-3680","email":"amerikanische@schule.bremerhaven.de","headmaster":"Günter Griesch","state":"HB","programs":{"programs":[]},"full_time_school":true,"lon":8.595378,"lat":53.574054},{"name":"Altwulsdorfer Schule","id":"HB-151","address":"Sandbredenstr. 11, 27572 Bremerhaven","school_type":"Grundschule","fax":"0471/3080383","phone":"0471/3080382","email":"altwulsdorfer@schule.bremerhaven.de","headmaster":"null N.N.","state":"HB","programs":{"programs":[]},"full_time_school":false,"lon":8.60061,"lat":53.504161},{"name":"Fichteschule","id":"HB-152","address":"Heidacker 13, 27572 Bremerhaven","school_type":"Grundschule","fax":"0471/391-3721","phone":"0471/391-3720","email":"fichte@schule.bremerhaven.de","headmaster":"Astrid Carstens","state":"HB","programs":{"programs":[]},"full_time_school":false,"lon":8.593772,"lat":53.516719},{"name":"Fritz-Reuter-Schule","id":"HB-153","address":"Braunstr. 5, 27574 Bremerhaven","school_type":"Grundschule","fax":"0471/391-3745","phone":"0471/391-3740","email":"f.reuter@schule.bremerhaven.de","headmaster":"Madeleine Kern","state":"HB","programs":{"programs":[]},"full_time_school":true,"lon":8.610881,"lat":53.519135},{"name":"Surheider Schule","id":"HB-154","address":"Isarstr. 58, 27574 Bremerhaven","school_type":"Grundschule","fax":"0471/391-3909","phone":"0471/391-3902","email":"surheider@schule.bremerhaven.de","headmaster":"Thorsten Maaß","state":"HB","programs":{"programs":[]},"full_time_school":false,"lon":8.639592,"lat":53.518845},{"name":"Veernschule","id":"HB-155","address":"Schiffdorfer Chaussee 193, 27574 Bremerhaven","school_type":"Grundschule","fax":"0471/391-3959","phone":"0471/391-3950","email":"veern@schule.bremerhaven.de","headmaster":"Regina Thoben","state":"HB","programs":{"programs":[]},"full_time_school":false,"lon":8.62794,"lat":53.53006},{"name":"Allmersschule","id":"HB-156","address":"Allmersstr. 2, 27570 Bremerhaven","school_type":"Grundschule","fax":"0471/391-3679","phone":"0471/391-3670","email":"allmers@schule.bremerhaven.de","headmaster":"Doris Hüls","state":"HB","programs":{"programs":[]},"full_time_school":false,"lon":8.593852,"lat":53.529132},{"name":"Gorch-Fock-Schule","id":"HB-157","address":"Klußmannstr. 10-11, 27570 Bremerhaven","school_type":"Grundschule","fax":"0471/95845213","phone":"0471/9584520","email":"g.fock@schule.bremerhaven.de","headmaster":"Stefanie Polzer-Pupel","state":"HB","programs":{"programs":[]},"full_time_school":true,"lon":8.586619,"lat":53.53055},{"name":"Goetheschule","id":"HB-159","address":"Deichstr. 39, 27568 Bremerhaven","school_type":"Grundschule","fax":"0471/391-3667","phone":"0471/391-3666","email":"goethe@schule.bremerhaven.de","headmaster":"Vanessa Ostendorf","state":"HB","programs":{"programs":[]},"full_time_school":false,"lon":8.583124,"lat":53.544238},{"name":"Pestalozzischule","id":"HB-160","address":"Am Leher Tor 21, 27568 Bremerhaven","school_type":"Grundschule","fax":"0471/3000149","phone":"0471/3000141","email":"pestalozzi@schule.bremerhaven.de","headmaster":"Rebekka Schlütter","state":"HB","programs":{"programs":[]},"full_time_school":true,"lon":8.578417,"lat":53.551596},{"name":"Lutherschule","id":"HB-163","address":"Dionysiusstr. 52, 27576 Bremerhaven","school_type":"Grundschule","fax":"0471/309-47319","phone":"0471/309-47311","email":"luther@schule.bremerhaven.de","headmaster":"Rainer Hüls","state":"HB","programs":{"programs":[]},"full_time_school":true,"lon":8.591488,"lat":53.55999},{"name":"Marktschule","id":"HB-164","address":"Brookstr. 3, 27580 Bremerhaven","school_type":"Grundschule","fax":"0471/391-39617","phone":"0471/391-3960","email":"markt@schule.bremerhaven.de","headmaster":"Ute Mittrowann","state":"HB","programs":{"programs":[]},"full_time_school":true,"lon":8.586547,"lat":53.566442},{"name":"Astrid-Lindgren-Schule","id":"HB-165","address":"Frenssenstr. 49, 27576 Bremerhaven","school_type":"Grundschule","fax":"0471/391-55926","phone":"0471/391-5590","email":"a.lindgren@schule.bremerhaven.de","headmaster":"Anja von Häfen","state":"HB","programs":{"programs":[]},"full_time_school":true,"lon":8.57778,"lat":53.558311},{"name":"Gaußschule I","id":"HB-166","address":"Gaußstr. 107, 27580 Bremerhaven","school_type":"Grundschule","fax":"0471/3082412","phone":"0471/3082410","email":"gauss1@schule.bremerhaven.de","headmaster":"Janett Köster","state":"HB","programs":{"programs":[]},"full_time_school":false,"lon":8.587594,"lat":53.579315},{"name":"Fritz-Husmann-Schule","id":"HB-167","address":"Debstedter Weg 84, 27578 Bremerhaven","school_type":"Grundschule","fax":"0471/391-3739","phone":"0471/391-3730","email":"f.husmann@schule.bremerhaven.de","headmaster":"Doris Wollenberg","state":"HB","programs":{"programs":[]},"full_time_school":false,"lon":8.607444,"lat":53.59404},{"name":"Karl-Marx-Schule","id":"HB-168","address":"Ferdinand-Lassalle-Str. 68, 27578 Bremerhaven","school_type":"Grundschule","fax":"0471/391-3999","phone":"0471/391-3990","email":"k.marx@schule.bremerhaven.de","headmaster":"Susanne Jung","state":"HB","programs":{"programs":[]},"full_time_school":true,"lon":8.6217,"lat":53.58749},{"name":"Friedrich-Ebert-Schule","id":"HB-169","address":"Mecklenburger Weg 174, 27578 Bremerhaven","school_type":"Grundschule","fax":"0471/391-3659","phone":"0471/391-3650","email":"f.ebert@schule.bremerhaven.de","headmaster":"Andrea Damrath","state":"HB","programs":{"programs":[]},"full_time_school":false,"lon":8.624206,"lat":53.595276},{"name":"Immanuel-Kant-Schule","id":"HB-172","address":"Flensburger Str. 10, 27570 Bremerhaven","school_type":"Oberschule","fax":"0471/309 555 49","phone":"0471/309 5550","email":"i.kant@schule.bremerhaven.de","headmaster":"null N.N.","state":"HB","programs":{"programs":[]},"full_time_school":true,"lon":8.595368,"lat":53.52374},{"name":"Gaußschule II","id":"HB-174","address":"Gaußstr. 107, 27580 Bremerhaven","school_type":"Oberschule","fax":"0471/3082422","phone":"0471/3082420","email":"gauss2@schule.bremerhaven.de","headmaster":"Sabine Martens","state":"HB","programs":{"programs":["Be smart - don't Start"]},"full_time_school":false,"lon":8.587594,"lat":53.579315},{"name":"Schule Am Leher Markt","id":"HB-176","address":"Brookstr. 7, 27580 Bremerhaven","school_type":"Oberschule","fax":"0471/391-3899","phone":"0471/391-3880","email":"salm@schule.bremerhaven.de","headmaster":"Eike Susanne Hoffmann","state":"HB","programs":{"programs":["Be smart - don't Start"]},"full_time_school":true,"lon":8.588232,"lat":53.566792},{"name":"Schule an der Dudweilerstraße","id":"HB-206","address":"Dudweilerstr. 2, 28309 Bremen","school_type":"Förderzentrum Lernen-Sprache-Verhalten","fax":"0421/361-59037","phone":"0421/361-3188","email":"206@bildung.bremen.de","headmaster":"null N.N.","state":"HB","programs":{"programs":[]},"full_time_school":false,"lon":8.911278,"lat":53.05786},{"name":"Schule an der Kerschensteinerstr.","id":"HB-209","address":"Kerschensteinerstr. 4, 28757 Bremen","school_type":"Förderzentrum Lernen-Sprache-Verhalten","fax":"0421/361-79584","phone":"0421/361-7301","email":"209@bildung.bremen.de","headmaster":"null N.N.","state":"HB","programs":{"programs":[]},"full_time_school":false,"lon":8.621463,"lat":53.174794},{"name":"Schule an der Mainstraße","id":"HB-210","address":"Mainstr. 18, 28199 Bremen","school_type":"Förderzentrum Lernen-Sprache-Verhalten","fax":"0421/361-59501","phone":"0421/361-59491","email":"210@bildung.bremen.de","headmaster":"null N.N.","state":"HB","programs":{"programs":[]},"full_time_school":false,"lon":8.794551,"lat":53.068927},{"name":"Schule an der Züricher Straße","id":"HB-216","address":"Züricher Str. 40, 28325 Bremen","school_type":"Förderzentrum sonstige","fax":"0421/03212-1023528","phone":"0421/408-1621","email":"216@bildung.bremen.de","headmaster":"Joerg Behrmann","state":"HB","programs":{"programs":[]},"full_time_school":false,"lon":8.940238,"lat":53.06446},{"name":"Schule an der Fritz-Gansberg-Straße","id":"HB-223","address":"Fritz-Gansberg-Str. 22, 28213 Bremen","school_type":"Förderzentrum sonstige","fax":"0421/361-96021","phone":"0421/361-96022","email":"223@bildung.bremen.de","headmaster":"Thomas Schipfer","state":"HB","programs":{"programs":[]},"full_time_school":false,"lon":8.8514,"lat":53.090997},{"name":"Georg-Droste-Schule","id":"HB-225","address":"An der Gete 103, 28211 Bremen","school_type":"Förderzentrum sonstige","fax":"0421/361-3149","phone":"0421/361-3001","email":"225@bildung.bremen.de","headmaster":"Birgit Wiechmann-Doil","state":"HB","programs":{"programs":[]},"full_time_school":false,"lon":8.851296,"lat":53.079216},{"name":"Paul-Goldschmidt-Schule","id":"HB-226","address":"Louis-Seegelken-Str. 130, 28717 Bremen","school_type":"Förderzentrum sonstige","fax":"0421/361-7156","phone":"0421/361-7150","email":"226@bildung.bremen.de","headmaster":"Martina Brueckner","state":"HB","programs":{"programs":[]},"full_time_school":false,"lon":8.680497,"lat":53.177942},{"name":"Schule an der Marcusallee","id":"HB-227","address":"Marcusallee 31, 28359 Bremen","school_type":"Förderzentrum sonstige","fax":"0421/361-3383","phone":"0421/361-14360","email":"227@bildung.bremen.de","headmaster":"Thomas Hohenhinnebusch","state":"HB","programs":{"programs":[]},"full_time_school":false,"lon":8.880244,"lat":53.090221},{"name":"Anne-Frank-Schule","id":"HB-253","address":"Wurster Str. 387, 27580 Bremerhaven","school_type":"Förderzentrum sonstige","fax":"0471/391-3694","phone":"0471/391-3690","email":"a.frank@schule.bremerhaven.de","headmaster":"Susann Haupt","state":"HB","programs":{"programs":[]},"full_time_school":false,"lon":8.535101,"lat":53.602602},{"name":"Erwachsenenschule","id":"HB-301","address":"Doventorscontrescarpe (Block A) 172, 28195 Bremen","school_type":"Abendschule/Erwachsenen Schule","fax":"0421/361-17080","phone":"0421/361-10759","email":"301@bildung.bremen.de","headmaster":"Peter Mueller","state":"HB","programs":{"programs":[]},"full_time_school":false,"lon":8.804322,"lat":53.080426},{"name":"Altes Gymnasium","id":"HB-302","address":"Kleine Helle 7, 28195 Bremen","school_type":"Durchgängiges Gymnasium","fax":"0421/361-16995","phone":"0421/361-16990","email":"302@bildung.bremen.de","headmaster":"Angela Köhler","state":"HB","programs":{"programs":["Be smart - don't Start","Schule ohne Rassismus - Schule mit Courage"]},"full_time_school":true,"lon":8.801944,"lat":53.083611},{"name":"Gymnasium Vegesack","id":"HB-305","address":"Kerschensteinerstr. 2, 28757 Bremen","school_type":"Durchgängiges Gymnasium","fax":"0421/361-79508","phone":"0421/361-7305","email":"305@bildung.bremen.de","headmaster":"Peter Haase","state":"HB","programs":{"programs":[]},"full_time_school":false,"lon":8.621404,"lat":53.176465},{"name":"Gymnasium an der Hamburger Straße","id":"HB-306","address":"Hamburger Str. 12, 28205 Bremen","school_type":"Durchgängiges Gymnasium","fax":"0421/361-96944","phone":"0421/361-96930","email":"306@bildung.bremen.de","headmaster":"Claudia Dreyer","state":"HB","programs":{"programs":["Schule ohne Rassismus - Schule mit Courage"]},"full_time_school":false,"lon":8.835162,"lat":53.070429},{"name":"Alexander-von-Humboldt-Gymnasium","id":"HB-307","address":"Delfter Str. 16, 28259 Bremen","school_type":"Durchgängiges Gymnasium","fax":"0421/361-16709","phone":"0421/361-16470","email":"307@bildung.bremen.de","headmaster":"Peggy Mascher","state":"HB","programs":{"programs":[]},"full_time_school":false,"lon":8.727874,"lat":53.046753},{"name":"Hermann-Böse-Gymnasium","id":"HB-308","address":"Hermann-Böse-Str. 1-9, 28209 Bremen","school_type":"Durchgängiges Gymnasium","fax":"0421/361-6285","phone":"0421/361-6272","email":"308@bildung.bremen.de","headmaster":"Sibylle Müller","state":"HB","programs":{"programs":["Schule ohne Rassismus - Schule mit Courage"]},"full_time_school":false,"lon":8.819868,"lat":53.083872},{"name":"Gymnasium Horn","id":"HB-309","address":"Vorkampsweg 97, 28359 Bremen","school_type":"Durchgängiges Gymnasium","fax":"0421/361-14265","phone":"0421/361-14260","email":"309@bildung.bremen.de","headmaster":"Christel Kelm","state":"HB","programs":{"programs":[]},"full_time_school":false,"lon":8.872612,"lat":53.10581},{"name":"Kippenberg-Gymnasium","id":"HB-312","address":"Schwachhauser Heerstr. 62, 28209 Bremen","school_type":"Durchgängiges Gymnasium","fax":"0421/361-59093","phone":"0421/361-3640","email":"312@bildung.bremen.de","headmaster":"Hermann Pribbernow","state":"HB","programs":{"programs":["Schule ohne Rassismus - Schule mit Courage"]},"full_time_school":false,"lon":8.839288,"lat":53.082878},{"name":"Gymnasium Links der Weser","id":"HB-324","address":"Alfred-Faust-Str. 6, 28277 Bremen","school_type":"Durchgängiges Gymnasium","fax":"0421/361-16618","phone":"0421/361-16360","email":"324@bildung.bremen.de","headmaster":"Uwe Sudmann","state":"HB","programs":{"programs":["Schule ohne Rassismus - Schule mit Courage","Schule ohne Rassismus - Schule mit Courage"]},"full_time_school":true,"lon":8.83045,"lat":53.033271},{"name":"Schulzentrum Carl von Ossietzky","id":"HB-331","address":"Schiffdorfer Chaussee 97, 27574 Bremerhaven","school_type":"Schulzentrum des Sekundarbereich  II (Gymnasiale Oberstufe)","fax":"0471/391-39139","phone":"0471/391-39130","email":"cvo.gyo@schule.bremerhaven.de","headmaster":"Ingo Beck","state":"HB","programs":{"programs":["Schule ohne Rassismus - Schule mit Courage"]},"full_time_school":false,"lon":8.613309,"lat":53.529971},{"name":"Schulzentrum Geschwister Scholl","id":"HB-333","address":"Walter-Kolb-Weg 2, 27568 Bremerhaven","school_type":"Schulzentrum des Sekundarbereich  II (Gymnasiale Oberstufe)","fax":"0471/3000113","phone":"0471/3000110","email":"scholl.gyo@schule.bremerhaven.de","headmaster":"York grüninger","state":"HB","programs":{"programs":["Schule ohne Rassismus - Schule mit Courage"]},"full_time_school":false,"lon":8.572632,"lat":53.557323},{"name":"Lloyd Gymnasium Bremerhaven","id":"HB-334","address":"Grazer Str. 61, 27568 Bremerhaven","school_type":"Durchgängiges Gymnasium","fax":"0471/3000159","phone":"0471/3000100","email":"lloyd.gy@schule.bremerhaven.de","headmaster":"Lars Hierath","state":"HB","programs":{"programs":["Be smart - don't Start"]},"full_time_school":false,"lon":8.574126,"lat":53.550026},{"name":"Abendschule Bremerhaven","id":"HB-349","address":"Sonnenstr. 22, 27568 Bremerhaven","school_type":"Abendschule/Erwachsenen Schule","fax":"0471/391-3603","phone":"0471/391-3601","email":"abend@schule.bremerhaven.de","headmaster":"Axel Rahn","state":"HB","programs":{"programs":[]},"full_time_school":false,"lon":8.575879,"lat":53.549114},{"name":"Allgemeine Berufsbildende Schule","id":"HB-351","address":"Steffensweg 171, 28217 Bremen","school_type":"Berufsbildende Schule","fax":"0421/361-59667","phone":"0421/361-19639","email":"351@bildung.bremen.de","headmaster":"Frank Grönegreß","state":"HB","programs":{"programs":[]},"full_time_school":false,"lon":8.781803,"lat":53.097225},{"name":"Berufsbildende Schule für Metalltechnik","id":"HB-352","address":"Reiherstr. 80, 28239 Bremen","school_type":"Berufsbildende Schule","fax":"0421/361-59533","phone":"0421/361-18042","email":"352@bildung.bremen.de","headmaster":"Gerhard Martini","state":"HB","programs":{"programs":["Schule ohne Rassismus - Schule mit Courage"]},"full_time_school":false,"lon":8.722589,"lat":53.139732},{"name":"Wilhelm Wagenfeld Schule","id":"HB-355","address":"Delfter Str. 16, 28259 Bremen","school_type":"Berufsbildende Schule","fax":"0421/361-59040","phone":"0421/361-16620","email":"355@bildung.bremen.de","headmaster":"Hans-Jürgen Strauch","state":"HB","programs":{"programs":[]},"full_time_school":false,"lon":8.727874,"lat":53.046753},{"name":"Schulzentrum des Sekundarbereichs II","id":"HB-358","address":"Kerschensteinerstr. 5, 28757 Bremen","school_type":"Berufsbildende Schule","fax":"0421/361-79574","phone":"0421/361-79550","email":"358@bildung.bremen.de","headmaster":"Peter Kaus","state":"HB","programs":{"programs":[]},"full_time_school":false,"lon":8.620554,"lat":53.17542},{"name":"Berufsbildende Schule für Einzelhandel und Logistik","id":"HB-359","address":"Carl-Goerdeler-Str. 27, 28327 Bremen","school_type":"Berufsbildende Schule","fax":"0421/361-14297","phone":"0421/361-14280","email":"359@bildung.bremen.de","headmaster":"Robbin Hagen","state":"HB","programs":{"programs":[]},"full_time_school":false,"lon":8.896204,"lat":53.076167},{"name":"Berufsschule für den Großhandel,","id":"HB-360","address":"Ellmersstr. 24, 28217 Bremen","school_type":"Berufsbildende Schule","fax":"0421/361-16621","phone":"0421/361-8647","email":"360@bildung.bremen.de","headmaster":"Katja Ollmann","state":"HB","programs":{"programs":[]},"full_time_school":false,"lon":8.790696,"lat":53.089327},{"name":"Schulzentrum Grenzstraße","id":"HB-361","address":"Grenzstr. 90, 28217 Bremen","school_type":"Berufsbildende Schule","fax":"0421/361-59640","phone":"0421/361-5637/8/9","email":"361@bildung.bremen.de","headmaster":"Peter Hons","state":"HB","programs":{"programs":[]},"full_time_school":false,"lon":8.785338,"lat":53.094528},{"name":"Schulzentrum des Sekundarbereichs II","id":"HB-364","address":"Delmestr. 141 B, 28199 Bremen","school_type":"Berufsbildende Schule","fax":"0421/361-18351","phone":"0421/361-18340","email":"364@bildung.bremen.de","headmaster":"Wolfram Grams","state":"HB","programs":{"programs":["Schule ohne Rassismus - Schule mit Courage"]},"full_time_school":false,"lon":8.787636,"lat":53.065876},{"name":"Schulzentrum des Sekundarbereichs II","id":"HB-368","address":"Meta-Sattler-Str. 33, 28217 Bremen","school_type":"Berufsbildende Schule","fax":"0421/361-16019","phone":"0421/361-59688 oder 89","email":"368@bildung.bremen.de","headmaster":"Tobias Weigelt","state":"HB","programs":{"programs":["Schule ohne Rassismus - Schule mit Courage"]},"full_time_school":false,"lon":8.794887,"lat":53.088871},{"name":"Technisches Bildungszentrum Mitte","id":"HB-369","address":"An der Weserbahn 4, 28195 Bremen","school_type":"Berufsbildende Schule","fax":"0421/361-3077","phone":"0421/361-16770","email":"369@bildung.bremen.de","headmaster":"Jörg Metag","state":"HB","programs":{"programs":[]},"full_time_school":false,"lon":8.796239,"lat":53.085334},{"name":"Kaufmännische Lehranstalten","id":"HB-382","address":"Max-Eyth-Platz 3-4, 27568 Bremerhaven","school_type":"Berufsbildende Schule","fax":"0471/391-3559","phone":"0471/391-3530","email":"smidt.kla@schule.bremerhaven.de","headmaster":"Peter Reckemeyer","state":"HB","programs":{"programs":["UNESCO Projektschulen"]},"full_time_school":false,"lon":8.576784,"lat":53.548575},{"name":"Schulzentrum Geschwister Scholl","id":"HB-383","address":"Walter-Kolb-Weg 2, 27568 Bremerhaven","school_type":"Berufsbildende Schule","fax":"0471/3000123","phone":"0471/3000120","email":"BS.SophieScholl@schule.bremerhaven.de","headmaster":"Ingrid Müller","state":"HB","programs":{"programs":[]},"full_time_school":false,"lon":8.572632,"lat":53.557323},{"name":"Werkstattschule Bremerhaven","id":"HB-384","address":"Hinrich-Schmalfeldt-Str. 26, 27576 Bremerhaven","school_type":"Berufsbildende Schule","fax":"0471/501-0557","phone":"0471/958-4430","email":"werkstattschule@nord-com.net","headmaster":"Heiko Schnackenberg","state":"HB","programs":{"programs":[]},"full_time_school":false,"lon":8.589526,"lat":53.558712},{"name":"Schulzentrum Carl von Ossietzky","id":"HB-385","address":"Georg-Büchner-Str. 7, 27574 Bremerhaven","school_type":"Berufsbildende Schule","fax":"0471/39198-256","phone":"0471/39198-101","email":"SZCvO.BS.Technik@schule.bremerhaven.de","headmaster":"Arno Thölken","state":"HB","programs":{"programs":[]},"full_time_school":false,"lon":8.612887,"lat":53.531824},{"name":"Schulzentrum Carl von Ossietzky","id":"HB-386","address":"Georg-Büchner-Str. 13, 27574 Bremerhaven","school_type":"Berufsbildende Schule","fax":"0471/309-44522","phone":"0471/309-46510","email":"SZCvO.BS.Dienstleistung@schule.bremerhaven.de","headmaster":"Bodo Jentsch","state":"HB","programs":{"programs":[]},"full_time_school":false,"lon":8.612722,"lat":53.533424},{"name":"Oberschule an der Helsinkistraße","id":"HB-403","address":"Helsinkistr. 10, 28719 Bremen","school_type":"Oberschule","fax":"0421/361-79071","phone":"0421/361-79070","email":"403@bildung.bremen.de","headmaster":"Barbara Bugiel","state":"HB","programs":{"programs":[]},"full_time_school":true,"lon":8.722547,"lat":53.173002},{"name":"Wilhelm-Olbers-Oberschule","id":"HB-404","address":"Drebberstr. 10, 28309 Bremen","school_type":"Oberschule","fax":"0421/361-59548","phone":"0421/361-59539","email":"404@bildung.bremen.de","headmaster":"Anke Braunschweiger","state":"HB","programs":{"programs":["Be smart - don't Start","Schule ohne Rassismus - Schule mit Courage"]},"full_time_school":true,"lon":8.898694,"lat":53.040673},{"name":"Oberschule an der Koblenzer Straße","id":"HB-409","address":"Koblenzer Str. 15, 28325 Bremen","school_type":"Oberschule","fax":"0421/361-15463","phone":"0421/361-3029","email":"409@bildung.bremen.de","headmaster":"Marcus Schreyer","state":"HB","programs":{"programs":["Schule ohne Rassismus - Schule mit Courage"]},"full_time_school":true,"lon":8.960328,"lat":53.062291},{"name":"Oberschule an der Lerchenstraße","id":"HB-410","address":"Lerchenstr. 86, 28755 Bremen","school_type":"Oberschule","fax":"0421/361-79262","phone":"0421/361-79263","email":"410@bildung.bremen.de","headmaster":"Kirsten Addicks-Fitschen","state":"HB","programs":{"programs":["UNESCO Projektschulen"]},"full_time_school":false,"lon":8.6279,"lat":53.191413},{"name":"Oberschule Roter Sand","id":"HB-412","address":"Butjadinger Str. 21, 28197 Bremen","school_type":"Oberschule","fax":"0421/361-96812","phone":"0421/361-96800","email":"412@bildung.bremen.de","headmaster":"Holger Otto Steen","state":"HB","programs":{"programs":[]},"full_time_school":true,"lon":8.759567,"lat":53.081083},{"name":"Oberschule an der Lehmhorster Straße","id":"HB-414","address":"Lehmhorster Str. 5, 28779 Bremen","school_type":"Oberschule","fax":"0421/361-79362","phone":"0421/361-79352","email":"414@bildung.bremen.de","headmaster":"Horst Stolze","state":"HB","programs":{"programs":[]},"full_time_school":true,"lon":8.5701,"lat":53.196906},{"name":"Oberschule Rockwinkel","id":"HB-416","address":"Uppe Angst 31, 28355 Bremen","school_type":"Oberschule","fax":"0421/361-16637","phone":"0421/361-16627","email":"416@bildung.bremen.de","headmaster":"Irene Kogel","state":"HB","programs":{"programs":["Be smart - don't Start","Schule ohne Rassismus - Schule mit Courage"]},"full_time_school":false,"lon":8.899798,"lat":53.097098},{"name":"Oberschule an der Schaumburger Straße","id":"HB-417","address":"Schaumburger Str. 49 A, 28205 Bremen","school_type":"Oberschule","fax":"0421/361-96886","phone":"0421/361-96880","email":"417@bildung.bremen.de","headmaster":"Annette Mc Callum","state":"HB","programs":{"programs":["Be smart - don't Start"]},"full_time_school":false,"lon":8.846135,"lat":53.073476},{"name":"Oberschule an der Ronzelenstraße","id":"HB-418","address":"Ronzelenstr. 51, 28359 Bremen","school_type":"Oberschule","fax":"0421/361-15161","phone":"0421/361-3144","email":"418@bildung.bremen.de","headmaster":"Jürgen Koopmann","state":"HB","programs":{"programs":["Be smart - don't Start"]},"full_time_school":true,"lon":8.875806,"lat":53.095236},{"name":"Oberschule Habenhausen","id":"HB-423","address":"Bunnsackerweg 2, 28279 Bremen","school_type":"Oberschule","fax":"0421/361-15226","phone":"0421/361-3454","email":"423@bildung.bremen.de","headmaster":"Ursula Hennig-Naß","state":"HB","programs":{"programs":["Schule ohne Rassismus - Schule mit Courage"]},"full_time_school":false,"lon":8.860104,"lat":53.045442},{"name":"Oberschule an der Helgolander Straße","id":"HB-424","address":"Helgolander Str. 67, 28217 Bremen","school_type":"Oberschule","fax":"0421/361-17036","phone":"0421/361-17030","email":"424@bildung.bremen.de","headmaster":"Ingrid Brücker-Götz","state":"HB","programs":{"programs":[]},"full_time_school":true,"lon":8.784648,"lat":53.098944},{"name":"Oberschule an der Julius-Brecht-Allee","id":"HB-425","address":"Konrad-Adenauer-Allee 86, 28329 Bremen","school_type":"Oberschule","fax":"0421/361-16037","phone":"0421/361-16027","email":"425@bildung.bremen.de","headmaster":"Jörn Peter Borges","state":"HB","programs":{"programs":["Be smart - don't Start"]},"full_time_school":true,"lon":8.86729,"lat":53.076147},{"name":"Oberschule Findorff","id":"HB-428","address":"Gothaer Str. 60, 28215 Bremen","school_type":"Oberschule","fax":"0421/361-96923","phone":"0421/361-96910","email":"428@bildung.bremen.de","headmaster":"Uwe Lütjen","state":"HB","programs":{"programs":["Schule ohne Rassismus - Schule mit Courage"]},"full_time_school":true,"lon":8.803964,"lat":53.097532},{"name":"Oberschule Sebaldsbrück","id":"HB-429","address":"Parsevalstr. 1, 28309 Bremen","school_type":"Oberschule","fax":"0421/361-59205","phone":"0421/361-3394","email":"429@bildung.bremen.de","headmaster":"Claudia Bundesmann","state":"HB","programs":{"programs":["Be smart - don't Start"]},"full_time_school":true,"lon":8.885846,"lat":53.067796},{"name":"Oberschule am Waller Ring","id":"HB-430","address":"Bremerhavener Str. 83, 28219 Bremen","school_type":"Oberschule","fax":"0421/361-59610","phone":"0421/361-5630","email":"430@bildung.bremen.de","headmaster":"Renate Riebeling","state":"HB","programs":{"programs":["Be smart - don't Start","Schule ohne Rassismus - Schule mit Courage"]},"full_time_school":false,"lon":8.778756,"lat":53.099159},{"name":"Roland zu Bremen Oberschule","id":"HB-431","address":"Flämische Str. 9, 28259 Bremen","school_type":"Oberschule","fax":"0421/361-15132","phone":"0421/361-15971","email":"431@bildung.bremen.de","headmaster":"Ayten Sariyildiz","state":"HB","programs":{"programs":[]},"full_time_school":true,"lon":8.713438,"lat":53.052977},{"name":"Wilhelm-Kaisen-Oberschule","id":"HB-436","address":"Valckenburghstr. 1-3, 28201 Bremen","school_type":"Oberschule","fax":"0421/361-59333","phone":"0421/361-59330","email":"436@bildung.bremen.de","headmaster":"Oliver Seipke","state":"HB","programs":{"programs":["Schule ohne Rassismus - Schule mit Courage","UNESCO Projektschulen"]},"full_time_school":true,"lon":8.815193,"lat":53.051605},{"name":"Albert-Einstein-Oberschule","id":"HB-438","address":"Kolk 2, 28327 Bremen","school_type":"Oberschule","fax":"0421/null","phone":"0421/361-18395","email":"438@bildung.bremen.de","headmaster":"Ursula Pörtner","state":"HB","programs":{"programs":["Be smart - don't Start"]},"full_time_school":true,"lon":8.928456,"lat":53.061103},{"name":"Oberschule im Park","id":"HB-440","address":"Am Oslebshauser Park 1-3, 28239 Bremen","school_type":"Oberschule","fax":"0421/361-9131","phone":"0421/361-9265","email":"440@bildung.bremen.de","headmaster":"Monika Maria Steinhauer","state":"HB","programs":{"programs":[]},"full_time_school":true,"lon":8.739102,"lat":53.130886},{"name":"Oberschule Am Barkhof","id":"HB-441","address":"Parkallee 39, 28209 Bremen","school_type":"Oberschule","fax":"0421/496-15587","phone":"0421/361-15587","email":"441@bildung.bremen.de","headmaster":"Nicola Roggendorf","state":"HB","programs":{"programs":[]},"full_time_school":false,"lon":8.822714,"lat":53.082508},{"name":"Oberschule Ohlenhof","id":"HB-442","address":"Halmerweg 71, 28237 Bremen","school_type":"Oberschule","fax":"0421/361-94232","phone":"0421/361-94246","email":"442@bildung.bremen.de","headmaster":"null N.N.","state":"HB","programs":{"programs":[]},"full_time_school":false,"lon":8.763879,"lat":53.122323},{"name":"Oberschule an der Egge","id":"HB-443","address":"Eggestedter Str. 20, 28779 Bremen","school_type":"Oberschule","fax":"0421/361-79150","phone":"0421/361-79154","email":"443@bildung.bremen.de","headmaster":"Andreas Kraatz-Röper","state":"HB","programs":{"programs":["Be smart - don't Start"]},"full_time_school":false,"lon":8.566084,"lat":53.190144},{"name":"Neue Oberschule Gröpelingen","id":"HB-444","address":"Ernst-Waldau-Str. 1 A, 28239 Bremen","school_type":"Oberschule","fax":"0421/361-18434","phone":"0421/361-18319","email":"444@bildung.bremen.de","headmaster":"Sabine Jacobsen","state":"HB","programs":{"programs":[]},"full_time_school":true,"lon":8.753226,"lat":53.128145},{"name":"Oberschule an der Kurt-Schumacher-Allee","id":"HB-445","address":"Kurt-Schumacher-Allee 65, 28327 Bremen","school_type":"Oberschule","fax":"0421/361-59856","phone":"0421/361-5650","email":"445@bildung.bremen.de","headmaster":"Christian Sauter-Schmidt","state":"HB","programs":{"programs":[]},"full_time_school":true,"lon":8.893096,"lat":53.078857},{"name":"Humboldtschule","id":"HB-451","address":"Schillerstr. 87, 27570 Bremerhaven","school_type":"Oberschule","fax":"0471/391-3799","phone":"0471/391-3770","email":"humboldt@schule.bremerhaven.de","headmaster":"Thomas Tjarks","state":"HB","programs":{"programs":["Seniorpartner in School"]},"full_time_school":false,"lon":8.597035,"lat":53.527616},{"name":"Wilhelm-Raabe-Schule","id":"HB-452","address":"Friedrich-Ebert-Str. 10, 27570 Bremerhaven","school_type":"Oberschule","fax":"0471/391-3849","phone":"0471/391-3830","email":"w.raabe@schule.bremerhaven.de","headmaster":"null N.N.","state":"HB","programs":{"programs":[]},"full_time_school":false,"lon":8.592109,"lat":53.539161},{"name":"Schulzentrum Carl von Ossietzky, Oberschule","id":"HB-456","address":"Georg-Büchner-Str. 5, 27574 Bremerhaven","school_type":"Oberschule","fax":"0471/391-39129","phone":"0471/391-39120","email":"CvO.Ober@schule.bremerhaven.de","headmaster":"Rainer Steinfeldt","state":"HB","programs":{"programs":["Schule ohne Rassismus - Schule mit Courage"]},"full_time_school":true,"lon":8.613503,"lat":53.530746},{"name":"Paula-Modersohn-Schule","id":"HB-457","address":"Dreibergen 21, 27572 Bremerhaven","school_type":"Oberschule","fax":"0471/3001030","phone":"0471/3001013","email":"p.modersohn@schule.bremerhaven.de","headmaster":"Joachim Wolff","state":"HB","programs":{"programs":["Be smart - don't Start"]},"full_time_school":true,"lon":8.601971,"lat":53.507238},{"name":"Johann-Gutenberg-Schule","id":"HB-458","address":"Fuhrenweg 3-19, 27578 Bremerhaven","school_type":"Oberschule","fax":"0471/391-38026","phone":"0471/391-3800","email":"j.gutenberg@schule.bremerhaven.de","headmaster":"Stephan Rademacher","state":"HB","programs":{"programs":["Be smart - don't Start"]},"full_time_school":false,"lon":8.615493,"lat":53.595541},{"name":"Gesamtschule Bremen-West","id":"HB-501","address":"Lissaer Str. 7, 28237 Bremen","school_type":"Oberschule","fax":"0421/49614620","phone":"0421/361-14611","email":"501@bildung.bremen.de","headmaster":"Matthias Schmuhl","state":"HB","programs":{"programs":[]},"full_time_school":true,"lon":8.774221,"lat":53.113966},{"name":"Gesamtschule Bremen-Ost","id":"HB-502","address":"Walliser Str. 125, 28325 Bremen","school_type":"Oberschule","fax":"0421/361-59831","phone":"0421/361-59802","email":"502@bildung.bremen.de","headmaster":"Hans-Martin Utz","state":"HB","programs":{"programs":["Schule ohne Rassismus - Schule mit Courage"]},"full_time_school":true,"lon":8.952859,"lat":53.070873},{"name":"Oberschule Lesum","id":"HB-503","address":"Steinkamp 6, 28717 Bremen","school_type":"Oberschule","fax":"0421/361-7021","phone":"0421/361-7185","email":"503@bildung.bremen.de","headmaster":"Waltraud Struß-Bembenek","state":"HB","programs":{"programs":["Schule ohne Rassismus - Schule mit Courage"]},"full_time_school":false,"lon":8.693797,"lat":53.178193},{"name":"Gesamtschule Bremen-Mitte","id":"HB-504","address":"Hemelinger Str. 11, 28205 Bremen","school_type":"Oberschule","fax":"0421/361-18180","phone":"0421/361-3135","email":"504@bildung.bremen.de","headmaster":"Jutta Fernholz","state":"HB","programs":{"programs":["Schule ohne Rassismus - Schule mit Courage","UNESCO Projektschulen"]},"full_time_school":true,"lon":8.839586,"lat":53.071214},{"name":"Oberschule an der Hermannsburg","id":"HB-505","address":"Hermannsburg 32 F, 28259 Bremen","school_type":"Oberschule","fax":"0421/361-15964","phone":"0421/361-15960","email":"505@bildung.bremen.de","headmaster":"null N.N.","state":"HB","programs":{"programs":[]},"full_time_school":true,"lon":8.736376,"lat":53.042129},{"name":"Oberschule am Leibnizplatz","id":"HB-506","address":"Schulstr. 24, 28199 Bremen","school_type":"Oberschule","fax":"0421/361-59193","phone":"0421/361-5785","email":"506@bildung.bremen.de","headmaster":"Hamid Frizi","state":"HB","programs":{"programs":[]},"full_time_school":true,"lon":8.7984,"lat":53.070236},{"name":"Oberschule In den Sandwehen","id":"HB-509","address":"Neuenkirchener Weg 119, 28779 Bremen","school_type":"Oberschule","fax":"0421/361-79025","phone":"0421/361-79043","email":"509@bildung.bremen.de","headmaster":"Friedrich-Karl Jostes","state":"HB","programs":{"programs":["Be smart - don't Start"]},"full_time_school":true,"lon":8.559242,"lat":53.202226},{"name":"Wilhelm-Focke-Oberschule","id":"HB-511","address":"Bergiusstr. 125, 28357 Bremen","school_type":"Oberschule","fax":"0421/361-16395","phone":"0421/361-16084","email":"511@bildung.bremen.de","headmaster":"Beata-Alicja Warszewik-König","state":"HB","programs":{"programs":["Be smart - don't Start"]},"full_time_school":true,"lon":8.897261,"lat":53.109939},{"name":"Gerhard-Rohlfs-Oberschule","id":"HB-512","address":"Kirchheide 9, 28757 Bremen","school_type":"Oberschule","fax":"0421/361-79515","phone":"0421/361-79513","email":"512@bildung.bremen.de","headmaster":"Kathrin Borges-Postulka","state":"HB","programs":{"programs":[]},"full_time_school":true,"lon":8.620902,"lat":53.172983},{"name":"Heinrich-Heine-Schule","id":"HB-551","address":"Hans-Böckler-Str. 30, 27578 Bremerhaven","school_type":"Oberschule","fax":"0471/391-35010","phone":"0471/391-35013","email":"h.heine@schule.bremerhaven.de","headmaster":"Vera Mangels","state":"HB","programs":{"programs":["Be smart - don't Start"]},"full_time_school":true,"lon":8.615071,"lat":53.587959},{"name":"Schule am Ernst-Reuter-Platz","id":"HB-552","address":"Hafenstr. 122, 27576 Bremerhaven","school_type":"Oberschule","fax":"0471/309493-19","phone":"0471/309493-10","email":"Ernst@schule.bremerhaven.de","headmaster":"Nicole Wind","state":"HB","programs":{"programs":["Be smart - don't Start","Schule ohne Rassismus - Schule mit Courage"]},"full_time_school":true,"lon":8.586674,"lat":53.557631},{"name":"Oberschule Geestemünde","id":"HB-553","address":"Flensburger Str. 10, 27570 Bremerhaven","school_type":"Oberschule","fax":"0471/309-55549","phone":"0471/309-55540","email":"OBS.Geestemuende@schule.bremerhaven.de","headmaster":"Ana Isabel Hüller","state":"HB","programs":{"programs":[]},"full_time_school":true,"lon":8.595368,"lat":53.52374},{"name":"Schulzentrum des Sekundarbereichs II","id":"HB-601","address":"Alwin-Lonke-Str. 71, 28719 Bremen","school_type":"Berufsbildende Schule","fax":"0421/361-16609","phone":"0421/361-16560","email":"601@bildung.bremen.de","headmaster":"Wolfgang Stutzinger","state":"HB","programs":{"programs":[]},"full_time_school":false,"lon":8.716446,"lat":53.153143},{"name":"Schulzentrum des Sekundarbereichs II","id":"HB-602","address":"Bördestr. 10, 28717 Bremen","school_type":"Berufsbildende Schule","fax":"0421/361-7182","phone":"0421/361-7180","email":"602@bildung.bremen.de","headmaster":"Markus Zschüntzsch","state":"HB","programs":{"programs":[]},"full_time_school":false,"lon":8.691515,"lat":53.172909},{"name":"Schulzentrum des Sekundarbereichs II","id":"HB-603","address":"Eggestedter Str. 20, 28779 Bremen","school_type":"Berufsbildende Schule","fax":"0421/361-79150","phone":"0421/361-79155","email":"603@bildung.bremen.de","headmaster":"Rita Haurenherm","state":"HB","programs":{"programs":["Schule ohne Rassismus - Schule mit Courage"]},"full_time_school":false,"lon":8.566084,"lat":53.190144},{"name":"Schulzentrum des Sekundarbereichs II","id":"HB-618","address":"Lange Reihe 81, 28219 Bremen","school_type":"Berufsbildende Schule","fax":"0421/361-8527","phone":"0421/361-8516","email":"618@bildung.bremen.de","headmaster":"Matthias Möller","state":"HB","programs":{"programs":["Schule ohne Rassismus - Schule mit Courage"]},"full_time_school":false,"lon":8.776595,"lat":53.104501},{"name":"Helmut Schmidt Schule","id":"HB-698","address":"Walliser Str. 125, 28325 Bremen","school_type":"Berufsbildende Schule","fax":"0421/361-16726","phone":"0421/361-18250","email":"698@bildung.bremen.de","headmaster":"Werner Eisenach","state":"HB","programs":{"programs":["Schule ohne Rassismus - Schule mit Courage"]},"full_time_school":false,"lon":8.952859,"lat":53.070873},{"name":"Schulzentrum des Sekundarbereichs II","id":"HB-699","address":"Rübekamp 37-39, 28219 Bremen","school_type":"Berufsbildende Schule","fax":"0421/361-14703","phone":"0421/361-14700","email":"699@bildung.bremen.de","headmaster":"Börje Horn","state":"HB","programs":{"programs":["Schule ohne Rassismus - Schule mit Courage"]},"full_time_school":false,"lon":8.777963,"lat":53.109674},{"name":"St.-Johannis-Schule","id":"HB-801","address":"Tiefer 12, 28195 Bremen","school_type":"Private Grundschule","fax":"0421/3694-214","phone":"0421/3694-171","email":"st.-johannis-schule-gs@kshb.de","headmaster":"Holger Florian","state":"HB","programs":{"programs":[]},"full_time_school":true,"lon":8.807241,"lat":53.073202},{"name":"St.-Marien-Schule","id":"HB-803","address":"Hauffstr. 2, 28217 Bremen","school_type":"Private Grundschule","fax":"0421/3989019","phone":"0421/3809370","email":"gs-st.marien@kshb.de","headmaster":"Elsbeth Korte","state":"HB","programs":{"programs":[]},"full_time_school":true,"lon":8.786098,"lat":53.093806},{"name":"Freie Evangelische Bekenntnisschule","id":"HB-805","address":"Habenhauser Brückenstr. 1, 28279 Bremen","school_type":"Private weiterführende Schule (GS oder IHR mit Gy)","fax":"0421/83936-119","phone":"0421/83936-100","email":"wshabenhausen@febb.de","headmaster":"Dirk Balters","state":"HB","programs":{"programs":[]},"full_time_school":false,"lon":8.847751,"lat":53.051127},{"name":"Freie Waldorfschule Bremen","id":"HB-806","address":"Touler Str. 3, 28211 Bremen","school_type":"Private Waldorfschule","fax":"0421/4914343","phone":"0421/491430","email":"kontakt@freie-waldorfschule-bremen.de","headmaster":"Roland Freytag","state":"HB","programs":{"programs":[]},"full_time_school":false,"lon":8.844277,"lat":53.082567},{"name":"Privatschule Mentor gGmbH","id":"HB-807","address":"Schwarzer Weg 96, 28239 Bremen","school_type":"Private weiterführende Schule (GS oder IHR mit Gy)","fax":"0421/6190-123","phone":"0421/6190-121","email":"info@privatschule-mentor.de","headmaster":"Dorothea Conzelmann","state":"HB","programs":{"programs":[]},"full_time_school":true,"lon":8.7563,"lat":53.127314},{"name":"Tobias-Schule Bremen","id":"HB-809","address":"Rockwinkeler Landstr. 41-43, 28355 Bremen","school_type":"Private Sonderschule Lernen-Sprache-Verhalten","fax":"0421/250627","phone":"0421/259884","email":"kontakt@tobias-schule.de","headmaster":"Dieter von Glahn","state":"HB","programs":{"programs":[]},"full_time_school":true,"lon":8.934888,"lat":53.083723},{"name":"St.-Johannis-Schule","id":"HB-810","address":"Dechanatstr. 9, 28195 Bremen","school_type":"Private weiterführende Schule (GS oder IHR mit Gy)","fax":"0421/3694-186","phone":"0421/3694-180","email":"sjs-bremen@kshb.de","headmaster":"Anette Kieslich","state":"HB","programs":{"programs":["Schule ohne Rassismus - Schule mit Courage"]},"full_time_school":false,"lon":8.808928,"lat":53.073999},{"name":"Ökumenisches Gymnasium zu Bremen","id":"HB-811","address":"Oberneulander Landstr. 143 A, 28355 Bremen","school_type":"Privates Durchgängiges Gymnasium","fax":"0421/223129-10","phone":"0421/223129-0","email":"office@oegym.de","headmaster":"Jan Andrees Dönch","state":"HB","programs":{"programs":["Schule ohne Rassismus - Schule mit Courage"]},"full_time_school":true,"lon":8.923963,"lat":53.102133},{"name":"Technikerschule Bremen","id":"HB-812","address":"Schongauer Str. 2, 28219 Bremen","school_type":"Private berufsbildende Schule","fax":"0421/3965608","phone":"0421/393089","email":"info@technikerschule-bremen.de","headmaster":"Jörg Meiler","state":"HB","programs":{"programs":[]},"full_time_school":false,"lon":8.798714,"lat":53.108133},{"name":"Berufsbildungswerk Bremen GmbH","id":"HB-813","address":"Universitätsallee 20, 28359 Bremen","school_type":"Private berufsbildende Schule","fax":"0421/2383-237","phone":"0421/2383-221","email":"leitung@bbw-bremen.de","headmaster":"Gerd Meyer-Rockstedt","state":"HB","programs":{"programs":[]},"full_time_school":false,"lon":8.860383,"lat":53.101984},{"name":"International School of Bremen","id":"HB-815","address":"Badgasteiner Str. 11, 28359 Bremen","school_type":"Private weiterführende Schule (GS oder IHR mit Gy)","fax":"0421/515779-55","phone":"0421/515779-0","email":"office@isbremen.de","headmaster":"Malcolm Davis","state":"HB","programs":{"programs":[]},"full_time_school":true,"lon":8.8581,"lat":53.108846},{"name":"Freie Waldorfschule","id":"HB-816","address":"Graubündener Str. 4, 28325 Bremen","school_type":"Private Waldorfschule","fax":"0421/411421","phone":"0421/411441","email":"info@waldorfschule-bremen-osterholz.de","headmaster":"Sabine Filzen","state":"HB","programs":{"programs":[]},"full_time_school":true,"lon":8.943102,"lat":53.067867},{"name":"Freie Evangelische Bekenntnisschule","id":"HB-817","address":"Steinsetzerstr. 6-8, 28279 Bremen","school_type":"Private Grundschule","fax":"0421/83936-311","phone":"0421/83936-300","email":"gshabenhausen@febb.de;gsvahr@febb.de","headmaster":"Hartwig Seggermann","state":"HB","programs":{"programs":[]},"full_time_school":true,"lon":8.852438,"lat":53.047652},{"name":"Freie Waldorfschule","id":"HB-818","address":"Fresenbergstr. 26, 28779 Bremen","school_type":"Private Waldorfschule","fax":"0421/4605211","phone":"0421/4605210","email":"office@fws-bremen-nord.de","headmaster":"Rafael Griebel","state":"HB","programs":{"programs":[]},"full_time_school":false,"lon":8.574732,"lat":53.183949},{"name":"EUMAC-European Musical Academy","id":"HB-819","address":"Waller Heerstr. 165, 28219 Bremen","school_type":"Private berufsbildende Schule","fax":"0421/377-5010","phone":"0421/377-5018","email":"mail@eumac.info","headmaster":"Thomas Blaeschke","state":"HB","programs":{"programs":[]},"full_time_school":false,"lon":8.784701,"lat":53.103576},{"name":"Eduard-Nebelthau-Gymnasium","id":"HB-820","address":"Lesumer Heerstr. 36, 28717 Bremen","school_type":"Privates Durchgängiges Gymnasium","fax":"0421/63819988","phone":"0421/63819902","email":"sekretariat@nebelthau-gymnasium.de","headmaster":"Karsten Lüpke","state":"HB","programs":{"programs":["Schule ohne Rassismus - Schule mit Courage"]},"full_time_school":true,"lon":8.677933,"lat":53.173646},{"name":"St.-Pius-Schule","id":"HB-821","address":"Willakedamm 6, 28259 Bremen","school_type":"Private Grundschule","fax":"0421/583877","phone":"0421/583877","email":"st.pius.schule@gmx.de","headmaster":"Graciela Kahle","state":"HB","programs":{"programs":[]},"full_time_school":false,"lon":8.736706,"lat":53.047101},{"name":"St.-Antonius-Schule","id":"HB-822","address":"Oewerweg 40 A, 28325 Bremen","school_type":"Private Grundschule","fax":"0421/null","phone":"0421/424299","email":"st.-antonius-schule@kshb.de","headmaster":"Annette Prevot","state":"HB","programs":{"programs":[]},"full_time_school":true,"lon":8.944771,"lat":53.059891},{"name":"Kunstschule Wandsbek","id":"HB-824","address":"Außer der Schleifmühle 4, 28203 Bremen","school_type":"Private berufsbildende Schule","fax":"0421/null","phone":"0421/336-59125","email":"u.janssen@kunstschule-wandsbek.de","headmaster":"Uli Janssen","state":"HB","programs":{"programs":[]},"full_time_school":false,"lon":8.820319,"lat":53.080335},{"name":"Freie Gemeinschaftsschule Bremen","id":"HB-825","address":"Zum Sebaldsbrücker Bahnhof 59, 28309 Bremen","school_type":"Private weiterführende Schule (GS oder IHR mit Gy)","fax":"0421/699 99 96","phone":"0421/699 99 96","email":"info@fgs-bremen.de","headmaster":"Gabrielle Kumm","state":"HB","programs":{"programs":[]},"full_time_school":false,"lon":8.885844,"lat":53.061757},{"name":"Edith-Stein-Schule","id":"HB-851","address":"Grazer Str. 15 A, 27568 Bremerhaven","school_type":"Private weiterführende Schule (GS oder IHR mit Gy)","fax":"0471/30859-49","phone":"0471/30859-40","email":"edith-stein-schule@katholische-schule-bremerhaven.de","headmaster":"Detlef Suermann","state":"HB","programs":{"programs":["Be smart - don't Start"]},"full_time_school":false,"lon":8.577641,"lat":53.546487},{"name":"Grundschule Stella Maris","id":"HB-855","address":"Grazer Str. 15 B, 27568 Bremerhaven","school_type":"Private Grundschule","fax":"0471/30859-29","phone":"0471/30859-20","email":"grundschule-stella-maris@katholische-schule-bremerhaven.de","headmaster":"Detlef Suermann","state":"HB","programs":{"programs":[]},"full_time_school":true,"lon":8.577641,"lat":53.546487},{"name":"Wirtschaft-und Sozialakademie der","id":"HB-881","address":"Hafenstr.128, 27576 Bremerhaven","school_type":"Private berufsbildende Schule","fax":"0471/595-30","phone":"0471/595-43/-22","email":"d.schott@wisoak.de","headmaster":"Cornelia Kébreau","state":"HB","programs":{"programs":[]},"full_time_school":false,"lon":8.5933,"lat":53.5545},{"name":"Integratives Bildungszentrum (IBZ)","id":"HB-900","address":"Züricher Str. 40, 28325 Bremen","school_type":"Schule für Gesundheitsfachberufe (Klinikum)","fax":"0421/408-1985","phone":"0421/408-1734","email":"ibz@klinikum-bremen-ost.de","headmaster":"Michael Krol","state":"HB","programs":{"programs":[]},"full_time_school":false,"lon":8.940238,"lat":53.06446},{"name":"Integratives Bildungszentrum (IBZ)","id":"HB-902","address":"St.-Jürgen-Str. 1, 28205 Bremen","school_type":"Schule für Gesundheitsfachberufe (Klinikum)","fax":"0421/497-3343","phone":"0421/497-5296","email":"ibz@klinikum-bremen-mitte.de","headmaster":"Renate Stellfeld-Ostendorf","state":"HB","programs":{"programs":[]},"full_time_school":false,"lon":8.837428,"lat":53.075099},{"name":"Schule für technische Assistenten in der Medizin","id":"HB-908","address":"St.-Jürgen-Str. 1, 28205 Bremen","school_type":"Schule für Gesundheitsfachberufe (Klinikum)","fax":"0421/497-4463","phone":"0421/497-3472","email":"angela.freund@klinikum-bremen-mitte.de","headmaster":"Peter C. Finke","state":"HB","programs":{"programs":[]},"full_time_school":false,"lon":8.837428,"lat":53.075099},{"name":"Bremer Heimstiftung","id":"HB-909","address":"Fedelhören 78, 28203 Bremen","school_type":"Private berufsbildende Schule","fax":"0421/2434-419","phone":"0421/2434-410","email":"bhs-altenpflege@bremer-heimstiftung.de","headmaster":"Angela Dühring","state":"HB","programs":{"programs":[]},"full_time_school":false,"lon":8.819148,"lat":53.07821},{"name":"Friedehorst - Vereinigte Anstalten","id":"HB-910","address":"Rotdornallee 64, 28717 Bremen","school_type":"Private berufsbildende Schule","fax":"0421/6381-436","phone":"0421/6381-414","email":"bfw.bremen-lesum@friedehorst.de","headmaster":"Heinz Cremer","state":"HB","programs":{"programs":[]},"full_time_school":false,"lon":8.685082,"lat":53.17678},{"name":"Deutsche Außenhandels- und","id":"HB-912","address":"Universitätsallee 18, 28359 Bremen","school_type":"Private berufsbildende Schule","fax":"0421/325456","phone":"0421/9499-1022","email":"thomas.zink@dav-akademie.de","headmaster":"Thomas Zink","state":"HB","programs":{"programs":[]},"full_time_school":false,"lon":8.857939,"lat":53.102903},{"name":"Joli Visage","id":"HB-913","address":"Norderoog 2, 28259 Bremen","school_type":"Private berufsbildende Schule","fax":"0421/7202439","phone":"0421/720240","email":"info@joli-visage.de","headmaster":"Michael Hannemann","state":"HB","programs":{"programs":[]},"full_time_school":false,"lon":8.742194,"lat":53.053882},{"name":"Wirtschafts- und Sozialakademie der","id":"HB-914","address":"Bertha-von-Suttner-Str. 17, 28207 Bremen","school_type":"Private berufsbildende Schule","fax":"0421/4499651","phone":"0421/4499639","email":"h.fleischer@wisoak.de","headmaster":"Helga Fleischer","state":"HB","programs":{"programs":[]},"full_time_school":false,"lon":8.863466,"lat":53.069684},{"name":"Institut für Berufs- und","id":"HB-919","address":"An der Silberpräge 5, 28309 Bremen","school_type":"Private berufsbildende Schule","fax":"0421/39001-22","phone":"0421/39001-25","email":"m.voigts@ibs-bremen.de","headmaster":"Maike Voigts","state":"HB","programs":{"programs":[]},"full_time_school":false,"lon":8.886262,"lat":53.059222},{"name":"Parität. Bildungswerk Bremen e.V.","id":"HB-922","address":"Faulenstr. 31, 28195 Bremen","school_type":"Private berufsbildende Schule","fax":"0421/17472-30","phone":"0421/17472-0","email":"info@pbwbremen.de","headmaster":"Frauke Felix","state":"HB","programs":{"programs":[]},"full_time_school":false,"lon":8.797992,"lat":53.080436},{"name":"impuls e.V.","id":"HB-923","address":"Fleetrade 78, 28207 Bremen","school_type":"Private berufsbildende Schule","fax":"0421/4986048","phone":"0421/441999","email":"schule@impuls-bremen.de","headmaster":"Inge Deppert","state":"HB","programs":{"programs":[]},"full_time_school":false,"lon":8.865509,"lat":53.064309},{"name":"Wirtschafts- und Sozialakademie der","id":"HB-924","address":"Dölvesstr. 8, 28207 Bremen","school_type":"Private berufsbildende Schule","fax":"0421/4499930","phone":"0421/4499621","email":"m.schnaepp@wisoak.de","headmaster":"Matthias Schnäpp","state":"HB","programs":{"programs":[]},"full_time_school":false,"lon":8.859384,"lat":53.070167},{"name":"Bremer Krankenpflegeschule der","id":"HB-927","address":"St.-Pauli-Deich 25, 28199 Bremen","school_type":"Schule für Gesundheitsfachberufe","fax":"0421/5599-445","phone":"0421/5599-441","email":"info@bremer-krankenpflegeschule.de","headmaster":"Barbara Venhaus-Schreiber","state":"HB","programs":{"programs":[]},"full_time_school":false,"lon":8.804042,"lat":53.068795},{"name":"Fachschule für Ergotherapie","id":"HB-928","address":"Rotdornallee 64, 28717 Bremen","school_type":"Schule für Gesundheitsfachberufe","fax":"0421/696 685 06","phone":"0421/696 685 02","email":"bhs-ergotherapie@bremen-heimstiftung.de","headmaster":"Heike Bruns","state":"HB","programs":{"programs":[]},"full_time_school":false,"lon":8.685082,"lat":53.17678},{"name":"Verwaltungsschule der","id":"HB-949","address":"Doventorscontrescarpe 172, 28195 Bremen","school_type":"Verwaltungsschule","fax":"0421/361-5173","phone":"0421/361-5335","email":"holger-andreas.wendel@afz.bremen.de","headmaster":"Holger Wendel","state":"HB","programs":{"programs":["Schule ohne Rassismus - Schule mit Courage"]},"full_time_school":false,"lon":8.797686,"lat":53.084162},{"name":"Krankenpflegeschule am","id":"HB-950","address":"Postbrookstr. 91 A, 27574 Bremerhaven","school_type":"Schule für Gesundheitsfachberufe (Klinikum)","fax":"0471/299-3554","phone":"0471/299-3550","email":"krankenpflegeschule@klinikum-bremerhaven.de","headmaster":"Bettina Flach","state":"HB","programs":{"programs":[]},"full_time_school":false,"lon":8.637051,"lat":53.53486},{"name":"Krankenpflegeschule","id":"HB-951","address":"Wiener Str. 1, 27568 Bremerhaven","school_type":"Schule für Gesundheitsfachberufe","fax":"0471/4805-113","phone":"0471/4805-644","email":"krankenpflegeschule@josephhospital.de","headmaster":"Thomas Schruth","state":"HB","programs":{"programs":[]},"full_time_school":false,"lon":8.575928,"lat":53.552553},{"name":"Hansa Pflegeschulen GmbH","id":"HB-955","address":"Hartwigstr. 8, 27574 Bremerhaven","school_type":"Private berufsbildende Schule","fax":"0471/9212372","phone":"0471/9212370","email":"fachschule1.bhv@seniorenheime-hansa.de","headmaster":"Doris Timmermann","state":"HB","programs":{"programs":[]},"full_time_school":false,"lon":8.601181,"lat":53.533075},{"name":"AWO Pflegedienst GmbH -Ursula Kaltenstein Akademie für Gesundheit und Pflege","id":"HB-957","address":"Surfeldstr. 29, 27576 Bremerhaven","school_type":"Private berufsbildende Schule","fax":"0471/309467-19","phone":"0471/9547-0","email":"info@awo-bremerhaven.de","headmaster":"Liane Ulrich","state":"HB","programs":{"programs":[]},"full_time_school":false,"lon":8.597506,"lat":53.561813}]
