[{"address":"Winterstr. 20, 28215 Bremen","fax":"0421/361-8177","full_time_school":true,"id":"HB-002","lat":53.090258,"lon":8.807364,"name":"Schule an der Admiralstraße","official_id":"002","phone":"0421/361-8110","school_type":"Grundschule","school_type_entity":"Grundschule","state":"HB"},{"address":"Alter Postweg 302, 28207 Bremen","fax":"0421/361-81258","full_time_school":false,"id":"HB-003","lat":53.065585,"lon":8.868684,"name":"Schule am Alten Postweg","official_id":"003","phone":"0421/361-3376","school_type":"Grundschule","school_type_entity":"Grundschule","state":"HB"},{"address":"Hindenburgstr. 33 A, 28717 Bremen","fax":"0421/361-79 587","full_time_school":false,"id":"HB-005","lat":53.168787,"lon":8.694167,"name":"Schule Am Mönchshof","official_id":"005","phone":"0421/361-7165","school_type":"Grundschule","school_type_entity":"Grundschule","state":"HB"},{"address":"An der Gete 103, 28211 Bremen","fax":"0421/361-96016","full_time_school":true,"id":"HB-006","lat":53.079216,"lon":8.851296,"name":"Schule An der Gete","official_id":"006","phone":"0421/361-3158","school_type":"Grundschule","school_type_entity":"Grundschule","state":"HB"},{"address":"Alfred-Faust-Str. 34, 28277 Bremen","fax":"0421/361-18239","full_time_school":false,"id":"HB-007","lat":53.031878,"lon":8.824,"name":"Schule an der Alfred-Faust-Straße","official_id":"007","phone":"0421/361-3511","school_type":"Grundschule","school_type_entity":"Grundschule","state":"HB"},{"address":"Heisiusstr. 7, 28307 Bremen","fax":"0421/4843429","full_time_school":true,"id":"HB-008","lat":53.039492,"lon":8.918928,"name":"Schule Arbergen","official_id":"008","phone":"0421/480548","school_type":"Grundschule","school_type_entity":"Grundschule","state":"HB"},{"address":"Korbhauser Weg 1, 28279 Bremen","fax":"0421/361-96001","full_time_school":false,"id":"HB-009","lat":53.030326,"lon":8.851997,"name":"Schule Arsten","official_id":"009","phone":"0421/361-3130","school_type":"Grundschule","school_type_entity":"Grundschule","state":"HB"},{"address":"An der Fuchtelkuhle 15, 28239 Bremen","fax":"0421/361-79682","full_time_school":true,"id":"HB-010","lat":53.13464,"lon":8.729204,"name":"Schule Auf den Heuen","official_id":"010","phone":"0421/361-9275","school_type":"Grundschule","school_type_entity":"Grundschule","state":"HB"},{"address":"Andernacher Str. 6, 28325 Bremen","fax":"0421/361-59054","full_time_school":true,"id":"HB-011","lat":53.068227,"lon":8.959222,"name":"Schule an der Andernacher Straße","official_id":"011","phone":"0421/361-3364","school_type":"Grundschule","school_type_entity":"Grundschule","state":"HB"},{"address":"Augsburger Str. 175, 28215 Bremen","fax":"0421/361-3590","full_time_school":true,"id":"HB-012","lat":53.09984,"lon":8.805143,"name":"Schule an der Augsburger Straße","official_id":"012","phone":"0421/361-8370","school_type":"Grundschule","school_type_entity":"Grundschule","state":"HB"},{"address":"Ritterkamp 10, 28757 Bremen","fax":"0421/361-79386","full_time_school":true,"id":"HB-013","lat":53.175708,"lon":8.62667,"name":"Schule Alt-Aumund","official_id":"013","phone":"0421/361-7651","school_type":"Grundschule","school_type_entity":"Grundschule","state":"HB"},{"address":"Tidemanstr. 11, 28759 Bremen","fax":"0421/361-79416","full_time_school":false,"id":"HB-014","lat":53.165596,"lon":8.631885,"name":"Schule Am Wasser","official_id":"014","phone":"0421/361-7622","school_type":"Grundschule","school_type_entity":"Grundschule","state":"HB"},{"address":"Baumschulenweg 12, 28213 Bremen","fax":"0421/361-89362","full_time_school":true,"id":"HB-015","lat":53.093628,"lon":8.8463,"name":"Schule am Baumschulenweg","official_id":"015","phone":"0421/361-3162","school_type":"Grundschule","school_type_entity":"Grundschule","state":"HB"},{"address":"Parsevalstr. 2, 28309 Bremen","fax":"0421/361-16958","full_time_school":true,"id":"HB-016","lat":53.067904,"lon":8.885231,"name":"Schule an der Parsevalstraße","official_id":"016","phone":"0421/361-3048","school_type":"Grundschule","school_type_entity":"Grundschule","state":"HB"},{"address":"Auf dem Flintacker 51, 28755 Bremen","fax":"0421/361-79387","full_time_school":true,"id":"HB-018","lat":53.188218,"lon":8.636711,"name":"Schule Borchshöhe","official_id":"018","phone":"0421/361-7383","school_type":"Grundschule","school_type_entity":"Grundschule","state":"HB"},{"address":"Katrepeler Landstr. 1, 28357 Bremen","fax":"0421/361-89077","full_time_school":true,"id":"HB-019","lat":53.125982,"lon":8.906411,"name":"Schule Borgfeld","official_id":"019","phone":"0421/361-3086","school_type":"Grundschule","school_type_entity":"Grundschule","state":"HB"},{"address":"Brinkmannstr. 40, 28309 Bremen","fax":"0421/361-14087","full_time_school":false,"id":"HB-020","lat":53.045257,"lon":8.89435,"name":"Schule an der Brinkmannstraße","official_id":"020","phone":"0421/361-3091","school_type":"Grundschule","school_type_entity":"Grundschule","state":"HB"},{"address":"Am Weidedamm 20, 28215 Bremen","fax":"0421/361-18386","full_time_school":false,"id":"HB-021","lat":53.093094,"lon":8.817049,"name":"Schule Am Weidedamm","official_id":"021","phone":"0421/361-14452","school_type":"Grundschule","school_type_entity":"Grundschule","state":"HB"},{"address":"Contrescarpe 26, 28203 Bremen","fax":"0421/361-10131","full_time_school":false,"id":"HB-023","lat":53.075326,"lon":8.814529,"name":"Bürgermeister-Smidt-Schule","official_id":"023","phone":"0421/361-10711","school_type":"Grundschule","school_type_entity":"Grundschule","state":"HB"},{"address":"Buntentorsteinweg 245, 28201 Bremen","fax":"0421/361-59267","full_time_school":true,"id":"HB-024","lat":53.061088,"lon":8.810978,"name":"Schule am Buntentorsteinweg","official_id":"024","phone":"0421/361-59531","school_type":"Grundschule","school_type_entity":"Grundschule","state":"HB"},{"address":"Stargarder Str. 11, 28717 Bremen","fax":"0421/361-79846","full_time_school":true,"id":"HB-025","lat":53.172409,"lon":8.709193,"name":"Schule Burgdamm","official_id":"025","phone":"0421/361-7131","school_type":"Grundschule","school_type_entity":"Grundschule","state":"HB"},{"address":"Curiestr. 2 A, 28357 Bremen","fax":"0421/361-89453","full_time_school":false,"id":"HB-028","lat":53.108302,"lon":8.895636,"name":"Marie-Curie-Schule","official_id":"028","phone":"0421/361-3021","school_type":"Grundschule","school_type_entity":"Grundschule","state":"HB"},{"address":"Carl-Schurz-Str. 25, 28209 Bremen","fax":"0421/361-17446","full_time_school":false,"id":"HB-029","lat":53.084826,"lon":8.840196,"name":"Schule an der Carl-Schurz-Straße","official_id":"029","phone":"0421/361-3059","school_type":"Grundschule","school_type_entity":"Grundschule","state":"HB"},{"address":"Düsseldorfer Str. 2 A, 28327 Bremen","fax":"0421/361-59490","full_time_school":true,"id":"HB-032","lat":53.075203,"lon":8.932037,"name":"Schule an der Düsseldorfer Straße","official_id":"032","phone":"0421/361-3032","school_type":"Grundschule","school_type_entity":"Grundschule","state":"HB"},{"address":"Fährer Flur 15, 28755 Bremen","fax":"0421/361-79388","full_time_school":false,"id":"HB-034","lat":53.177978,"lon":8.611802,"name":"Schule Fährer Flur","official_id":"034","phone":"0421/361-7248","school_type":"Grundschule","school_type_entity":"Grundschule","state":"HB"},{"address":"Ellenerbrokweg 28, 28325 Bremen","fax":"0421/361-18189","full_time_school":false,"id":"HB-035","lat":53.070437,"lon":8.94507,"name":"Schule am Ellenerbrokweg","official_id":"035","phone":"0421/361-3190","school_type":"Grundschule","school_type_entity":"Grundschule","state":"HB"},{"address":"Betonstr. 4, 28777 Bremen","fax":"0421/361-79826","full_time_school":false,"id":"HB-036","lat":53.204547,"lon":8.525519,"name":"Schule Farge-Rekum","official_id":"036","phone":"0421/361-79141","school_type":"Grundschule","school_type_entity":"Grundschule","state":"HB"},{"address":"Freiligrathstr. 11, 28211 Bremen","fax":"0421/496-3269","full_time_school":false,"id":"HB-039","lat":53.083607,"lon":8.862559,"name":"Schule an der Freiligrathstraße","official_id":"039","phone":"0421/361-3269","school_type":"Grundschule","school_type_entity":"Grundschule","state":"HB"},{"address":"Wigmodistr. 37, 28779 Bremen","fax":"0421/361-7726","full_time_school":false,"id":"HB-040","lat":53.187202,"lon":8.574987,"name":"Schule an der Wigmodistraße","official_id":"040","phone":"0421/361-7436","school_type":"Grundschule","school_type_entity":"Grundschule","state":"HB"},{"address":"Westerholzstr. 19 A, 28309 Bremen","fax":"0421/361-14747","full_time_school":false,"id":"HB-043","lat":53.055171,"lon":8.887824,"name":"Schule an der Glockenstraße","official_id":"043","phone":"0421/361-3290","school_type":"Grundschule","school_type_entity":"Grundschule","state":"HB"},{"address":"Grambker Heerstr. 121, 28719 Bremen","fax":"0421/361-79037","full_time_school":true,"id":"HB-045","lat":53.150016,"lon":8.710816,"name":"Schule an der Grambker Heerstraße","official_id":"045","phone":"0421/361-7147","school_type":"Grundschule","school_type_entity":"Grundschule","state":"HB"},{"address":"Brakkämpe 4, 28259 Bremen","fax":"0421/361-13286","full_time_school":false,"id":"HB-048","lat":53.059602,"lon":8.764249,"name":"Schule Grolland","official_id":"048","phone":"0421/361-19610","school_type":"Grundschule","school_type_entity":"Grundschule","state":"HB"},{"address":"Am Borgfelder Saatland 1-3, 28357 Bremen","fax":"0421/361-82897","full_time_school":true,"id":"HB-049","lat":53.12726,"lon":8.896003,"name":"Schule Am Borgfelder Saatland","official_id":"049","phone":"0421/361-14885","school_type":"Grundschule","school_type_entity":"Grundschule","state":"HB"},{"address":"Bunnsackerweg 4, 28279 Bremen","fax":"0421/361-15265","full_time_school":false,"id":"HB-050","lat":53.044868,"lon":8.861112,"name":"Schule am Bunnsackerweg","official_id":"050","phone":"0421/361-3310","school_type":"Grundschule","school_type_entity":"Grundschule","state":"HB"},{"address":"Halmerweg 71, 28237 Bremen","fax":"0421/361-16819","full_time_school":false,"id":"HB-051","lat":53.122323,"lon":8.763879,"name":"Schule am Halmerweg","official_id":"051","phone":"0421/361-9174","school_type":"Grundschule","school_type_entity":"Grundschule","state":"HB"},{"address":"Fährer Str. 4, 28755 Bremen","fax":"0421/361-79449","full_time_school":false,"id":"HB-052","lat":53.185676,"lon":8.613005,"name":"Schule Hammersbeck","official_id":"052","phone":"0421/361-7245","school_type":"Grundschule","school_type_entity":"Grundschule","state":"HB"},{"address":"Helgenstr. 10-12, 28777 Bremen","fax":"0421/361-79090","full_time_school":false,"id":"HB-053","lat":53.185953,"lon":8.552078,"name":"Schule Rönnebeck","official_id":"053","phone":"0421/361-7284","school_type":"Grundschule","school_type_entity":"Grundschule","state":"HB"},{"address":"Horner Heerstr. 17, 28359 Bremen","fax":"0421/361-16556","full_time_school":true,"id":"HB-060","lat":53.094617,"lon":8.870631,"name":"Schule an der Horner Heerstraße","official_id":"060","phone":"0421/361-3368","school_type":"Grundschule","school_type_entity":"Grundschule","state":"HB"},{"address":"In der Vahr 75, 28329 Bremen","fax":"0421/361-10848","full_time_school":true,"id":"HB-062","lat":53.078252,"lon":8.877339,"name":"Schule In der Vahr","official_id":"062","phone":"0421/361-3343","school_type":"Grundschule","school_type_entity":"Grundschule","state":"HB"},{"address":"Kantstr. 63, 28201 Bremen","fax":"0421/361-16961","full_time_school":false,"id":"HB-064","lat":53.066289,"lon":8.795234,"name":"Schule an der Kantstraße","official_id":"064","phone":"0421/361-59541","school_type":"Grundschule","school_type_entity":"Grundschule","state":"HB"},{"address":"Karl-Lerbs-Str. 70 A, 28201 Bremen","fax":"0421/361-59571","full_time_school":true,"id":"HB-065","lat":53.058418,"lon":8.797311,"name":"Schule an der Karl-Lerbs-Straße","official_id":"065","phone":"0421/361-59561","school_type":"Grundschule","school_type_entity":"Grundschule","state":"HB"},{"address":"Pastorenweg 91-93, 28237 Bremen","fax":"0421/361-17288","full_time_school":true,"id":"HB-069","lat":53.110419,"lon":8.765801,"name":"Schule am Pastorenweg","official_id":"069","phone":"0421/361-9297","school_type":"Grundschule","school_type_entity":"Grundschule","state":"HB"},{"address":"Auf der Hohwisch 61-63, 28207 Bremen","fax":"0421/361-16816","full_time_school":false,"id":"HB-070","lat":53.066112,"lon":8.859884,"name":"Kinderschule","official_id":"070","phone":"0421/361-16887","school_type":"Grundschule","school_type_entity":"Grundschule","state":"HB"},{"address":"Kirchhuchtinger Landstr. 28, 28259 Bremen","fax":"0421/361-83888","full_time_school":false,"id":"HB-071","lat":53.050967,"lon":8.740756,"name":"Schule Kirchhuchting","official_id":"071","phone":"0421/361-15955","school_type":"Grundschule","school_type_entity":"Grundschule","state":"HB"},{"address":"Lessingstr. 30, 28203 Bremen","fax":"0421/361-82899","full_time_school":true,"id":"HB-076","lat":53.072885,"lon":8.833948,"name":"Schule an der Lessingstraße","official_id":"076","phone":"0421/361-3225","school_type":"Grundschule","school_type_entity":"Grundschule","state":"HB"},{"address":"Lüssumer Ring 55, 28777 Bremen","fax":"0421/361-79494","full_time_school":true,"id":"HB-077","lat":53.198157,"lon":8.561188,"name":"Tami-Oelfken-Schule","official_id":"077","phone":"0421/361-7755","school_type":"Grundschule","school_type_entity":"Grundschule","state":"HB"},{"address":"Mahndorfer Heerstr. 55, 28307 Bremen","fax":"0421/4842161","full_time_school":true,"id":"HB-081","lat":53.037499,"lon":8.943854,"name":"Schule Mahndorf","official_id":"081","phone":"0421/480063","school_type":"Grundschule","school_type_entity":"Grundschule","state":"HB"},{"address":"Melanchthonstr. 150, 28217 Bremen","fax":"0421/361-16869","full_time_school":false,"id":"HB-082","lat":53.095164,"lon":8.789538,"name":"Schule an der Melanchthonstraße","official_id":"082","phone":"0421/361-8292","school_type":"Grundschule","school_type_entity":"Grundschule","state":"HB"},{"address":"Landskronastr. 46, 28719 Bremen","fax":"0421/361-79390","full_time_school":false,"id":"HB-083","lat":53.176667,"lon":8.722453,"name":"Schule an der Landskronastraße","official_id":"083","phone":"0421/361-7191","school_type":"Grundschule","school_type_entity":"Grundschule","state":"HB"},{"address":"Nordstr. 349, 28217 Bremen","fax":"0421/361-88921","full_time_school":false,"id":"HB-085","lat":53.096961,"lon":8.777011,"name":"Schule an der Nordstraße","official_id":"085","phone":"0421/361-8282","school_type":"Grundschule","school_type_entity":"Grundschule","state":"HB"},{"address":"Oberneulander Landstr. 36, 28355 Bremen","fax":"0421/2575297","full_time_school":false,"id":"HB-087","lat":53.090393,"lon":8.936998,"name":"Schule Oberneuland","official_id":"087","phone":"0421/259465","school_type":"Grundschule","school_type_entity":"Grundschule","state":"HB"},{"address":"Oderstr. 75, 28199 Bremen","fax":"0421/361-17063","full_time_school":true,"id":"HB-088","lat":53.068623,"lon":8.783943,"name":"Schule an der Oderstraße","official_id":"088","phone":"0421/361-8228","school_type":"Grundschule","school_type_entity":"Grundschule","state":"HB"},{"address":"Oslebshauser Heerstr. 115, 28239 Bremen","fax":"0421/361-17175","full_time_school":true,"id":"HB-089","lat":53.133271,"lon":8.73834,"name":"Schule an der Oslebshauser Heerstr.","official_id":"089","phone":"0421/361-9280","school_type":"Grundschule","school_type_entity":"Grundschule","state":"HB"},{"address":"Osterholzer Heerstr. 160, 28325 Bremen","fax":"0421/361-59046","full_time_school":true,"id":"HB-090","lat":53.058336,"lon":8.947153,"name":"Schule Osterholz","official_id":"090","phone":"0421/361-3003","school_type":"Grundschule","school_type_entity":"Grundschule","state":"HB"},{"address":"Koblenzer Str. 10, 28325 Bremen","fax":"0421/361-15298","full_time_school":true,"id":"HB-091","lat":53.06108,"lon":8.959569,"name":"Schule am Pfälzer Weg","official_id":"091","phone":"0421/361-3244","school_type":"Grundschule","school_type_entity":"Grundschule","state":"HB"},{"address":"Paul-Singer-Str. 160, 28329 Bremen","fax":"0421/361-19828","full_time_school":true,"id":"HB-094","lat":53.086168,"lon":8.897571,"name":"Schule an der Paul-Singer-Straße","official_id":"094","phone":"0421/361-3356","school_type":"Grundschule","school_type_entity":"Grundschule","state":"HB"},{"address":"Werner-von-Siemens-Str. 57, 28357 Bremen","fax":"0421/361-17494","full_time_school":false,"id":"HB-096","lat":53.103624,"lon":8.889999,"name":"Schule an der Philipp-Reis-Straße","official_id":"096","phone":"0421/361-3322","school_type":"Grundschule","school_type_entity":"Grundschule","state":"HB"},{"address":"Pürschweg 5, 28779 Bremen","fax":"0421/361-7279","full_time_school":false,"id":"HB-097","lat":53.202913,"lon":8.574494,"name":"Schule am Pürschweg","official_id":"097","phone":"0421/361-7816","school_type":"Grundschule","school_type_entity":"Grundschule","state":"HB"},{"address":"Schleswiger Str. 10, 28219 Bremen","fax":"0421/361-5691","full_time_school":true,"id":"HB-099","lat":53.09974,"lon":8.793105,"name":"Schule am Pulverberg","official_id":"099","phone":"0421/361-5690","school_type":"Grundschule","school_type_entity":"Grundschule","state":"HB"},{"address":"Dorfkampsweg 50, 28197 Bremen","fax":"0421/361-8385","full_time_school":false,"id":"HB-100","lat":53.089575,"lon":8.749434,"name":"Schule Rablinghausen","official_id":"100","phone":"0421/361-8268","school_type":"Grundschule","school_type_entity":"Grundschule","state":"HB"},{"address":"Rechtenflether Str. 24, 28197 Bremen","fax":"0421/361-96770","full_time_school":true,"id":"HB-101","lat":53.083309,"lon":8.76497,"name":"Schule an der Rechtenflether Str.","official_id":"101","phone":"0421/361-8223","school_type":"Grundschule","school_type_entity":"Grundschule","state":"HB"},{"address":"Robinsbalje 10, 28259 Bremen","fax":"0421/361-59137","full_time_school":true,"id":"HB-105","lat":53.056841,"lon":8.730362,"name":"Schule an der Robinsbalje","official_id":"105","phone":"0421/361-15950","school_type":"Grundschule","school_type_entity":"Grundschule","state":"HB"},{"address":"Fischerhuder Str. 20, 28237 Bremen","fax":"0421/361-18013","full_time_school":true,"id":"HB-106","lat":53.115325,"lon":8.763237,"name":"Schule an der Fischerhuder Straße","official_id":"106","phone":"0421/361-9139","school_type":"Grundschule","school_type_entity":"Grundschule","state":"HB"},{"address":"Schmidtstr. 9, 28203 Bremen","fax":"0421/361-59017","full_time_school":false,"id":"HB-110","lat":53.072077,"lon":8.825604,"name":"Schule an der Schmidtstraße","official_id":"110","phone":"0421/361-3131","school_type":"Grundschule","school_type_entity":"Grundschule","state":"HB"},{"address":"Herbartstr. 25, 28757 Bremen","fax":"0421/664290","full_time_school":false,"id":"HB-111","lat":53.187237,"lon":8.645845,"name":"Schule Schönebeck","official_id":"111","phone":"0421/662886","school_type":"Grundschule","school_type_entity":"Grundschule","state":"HB"},{"address":"Max-Jahn-Weg 13, 28277 Bremen","fax":"0421/361-16422","full_time_school":true,"id":"HB-112","lat":53.037934,"lon":8.828468,"name":"Schule an der Stichnathstraße","official_id":"112","phone":"0421/361-3584","school_type":"Grundschule","school_type_entity":"Grundschule","state":"HB"},{"address":"Seehauser Landstr. 141, 28197 Bremen","fax":"0421/541500","full_time_school":false,"id":"HB-113","lat":53.111312,"lon":8.708292,"name":"Schule Seehausen","official_id":"113","phone":"0421/541500","school_type":"Grundschule","school_type_entity":"Grundschule","state":"HB"},{"address":"Osterhop 88, 28309 Bremen","fax":"0421/361-14587","full_time_school":true,"id":"HB-114","lat":53.04574,"lon":8.90587,"name":"Schule am Osterhop","official_id":"114","phone":"0421/361-3101","school_type":"Grundschule","school_type_entity":"Grundschule","state":"HB"},{"address":"Stader Str. 150, 28205 Bremen","fax":"0421/361-16331","full_time_school":true,"id":"HB-115","lat":53.071786,"lon":8.850111,"name":"Schule an der Stader Straße","official_id":"115","phone":"0421/361-3288","school_type":"Grundschule","school_type_entity":"Grundschule","state":"HB"},{"address":"Richthofenstr. 37, 28759 Bremen","fax":"0421/361-79842","full_time_school":false,"id":"HB-116","lat":53.169017,"lon":8.661845,"name":"Schule St. Magnus","official_id":"116","phone":"0421/361-7314","school_type":"Grundschule","school_type_entity":"Grundschule","state":"HB"},{"address":"Stromer Landstr. 26 A, 28197 Bremen","fax":"0421/541214","full_time_school":false,"id":"HB-117","lat":53.08272,"lon":8.70197,"name":"Schule Strom","official_id":"117","phone":"0421/541214","school_type":"Grundschule","school_type_entity":"Grundschule","state":"HB"},{"address":"Uphuser Str. 9, 28327 Bremen","fax":"0421/361-5441","full_time_school":true,"id":"HB-118","lat":53.063193,"lon":8.929475,"name":"Schule an der Uphuser Straße","official_id":"118","phone":"0421/361-3247","school_type":"Grundschule","school_type_entity":"Grundschule","state":"HB"},{"address":"Witzlebenstr. 3, 28327 Bremen","fax":"0421/361-59661","full_time_school":true,"id":"HB-127","lat":53.075898,"lon":8.903988,"name":"Schule an der Witzlebenstraße","official_id":"127","phone":"0421/361-3373","school_type":"Grundschule","school_type_entity":"Grundschule","state":"HB"},{"address":"Delfter Str. 10, 28259 Bremen","fax":"0421/361-15969","full_time_school":true,"id":"HB-129","lat":53.047134,"lon":8.726084,"name":"Schule an der Delfter Straße","official_id":"129","phone":"0421/361-15990","school_type":"Grundschule","school_type_entity":"Grundschule","state":"HB"},{"address":"Kleiner Blink 8, 27580 Bremerhaven","fax":"0471/391-3689","full_time_school":true,"id":"HB-150","lat":53.574054,"lon":8.595378,"name":"Amerikanische Schule","official_id":"150","phone":"0471/391-3680","school_type":"Grundschule","school_type_entity":"Grundschule","state":"HB"},{"address":"Sandbredenstr. 11, 27572 Bremerhaven","fax":"0471/3080383","full_time_school":false,"id":"HB-151","lat":53.504161,"lon":8.60061,"name":"Altwulsdorfer Schule","official_id":"151","phone":"0471/3080382","school_type":"Grundschule","school_type_entity":"Grundschule","state":"HB"},{"address":"Heidacker 13, 27572 Bremerhaven","fax":"0471/391-3721","full_time_school":false,"id":"HB-152","lat":53.516719,"lon":8.593772,"name":"Fichteschule","official_id":"152","phone":"0471/391-3720","school_type":"Grundschule","school_type_entity":"Grundschule","state":"HB"},{"address":"Braunstr. 5, 27574 Bremerhaven","fax":"0471/391-3745","full_time_school":true,"id":"HB-153","lat":53.519135,"lon":8.610881,"name":"Fritz-Reuter-Schule","official_id":"153","phone":"0471/391-3740","school_type":"Grundschule","school_type_entity":"Grundschule","state":"HB"},{"address":"Isarstr. 58, 27574 Bremerhaven","fax":"0471/391-3909","full_time_school":false,"id":"HB-154","lat":53.518845,"lon":8.639592,"name":"Surheider Schule","official_id":"154","phone":"0471/391-3902","school_type":"Grundschule","school_type_entity":"Grundschule","state":"HB"},{"address":"Schiffdorfer Chaussee 193, 27574 Bremerhaven","fax":"0471/391-3959","full_time_school":false,"id":"HB-155","lat":53.53006,"lon":8.62794,"name":"Veernschule","official_id":"155","phone":"0471/391-3950","school_type":"Grundschule","school_type_entity":"Grundschule","state":"HB"},{"address":"Allmersstr. 2, 27570 Bremerhaven","fax":"0471/391-3679","full_time_school":false,"id":"HB-156","lat":53.529132,"lon":8.593852,"name":"Allmersschule","official_id":"156","phone":"0471/391-3670","school_type":"Grundschule","school_type_entity":"Grundschule","state":"HB"},{"address":"Klußmannstr. 10-11, 27570 Bremerhaven","fax":"0471/95845213","full_time_school":true,"id":"HB-157","lat":53.53055,"lon":8.586619,"name":"Gorch-Fock-Schule","official_id":"157","phone":"0471/9584520","school_type":"Grundschule","school_type_entity":"Grundschule","state":"HB"},{"address":"Deichstr. 39, 27568 Bremerhaven","fax":"0471/391-3667","full_time_school":false,"id":"HB-159","lat":53.544238,"lon":8.583124,"name":"Goetheschule","official_id":"159","phone":"0471/391-3666","school_type":"Grundschule","school_type_entity":"Grundschule","state":"HB"},{"address":"Am Leher Tor 21, 27568 Bremerhaven","fax":"0471/3000149","full_time_school":true,"id":"HB-160","lat":53.551596,"lon":8.578417,"name":"Pestalozzischule","official_id":"160","phone":"0471/3000141","school_type":"Grundschule","school_type_entity":"Grundschule","state":"HB"},{"address":"Dionysiusstr. 52, 27576 Bremerhaven","fax":"0471/309-47319","full_time_school":true,"id":"HB-163","lat":53.55999,"lon":8.591488,"name":"Lutherschule","official_id":"163","phone":"0471/309-47311","school_type":"Grundschule","school_type_entity":"Grundschule","state":"HB"},{"address":"Brookstr. 3, 27580 Bremerhaven","fax":"0471/391-39617","full_time_school":true,"id":"HB-164","lat":53.566442,"lon":8.586547,"name":"Marktschule","official_id":"164","phone":"0471/391-3960","school_type":"Grundschule","school_type_entity":"Grundschule","state":"HB"},{"address":"Frenssenstr. 49, 27576 Bremerhaven","fax":"0471/391-55926","full_time_school":true,"id":"HB-165","lat":53.558311,"lon":8.57778,"name":"Astrid-Lindgren-Schule","official_id":"165","phone":"0471/391-5590","school_type":"Grundschule","school_type_entity":"Grundschule","state":"HB"},{"address":"Gaußstr. 107, 27580 Bremerhaven","fax":"0471/3082412","full_time_school":false,"id":"HB-166","lat":53.579315,"lon":8.587594,"name":"Gaußschule I","official_id":"166","phone":"0471/3082410","school_type":"Grundschule","school_type_entity":"Grundschule","state":"HB"},{"address":"Debstedter Weg 84, 27578 Bremerhaven","fax":"0471/391-3739","full_time_school":false,"id":"HB-167","lat":53.59404,"lon":8.607444,"name":"Fritz-Husmann-Schule","official_id":"167","phone":"0471/391-3730","school_type":"Grundschule","school_type_entity":"Grundschule","state":"HB"},{"address":"Ferdinand-Lassalle-Str. 68, 27578 Bremerhaven","fax":"0471/391-3999","full_time_school":true,"id":"HB-168","lat":53.58749,"lon":8.6217,"name":"Karl-Marx-Schule","official_id":"168","phone":"0471/391-3990","school_type":"Grundschule","school_type_entity":"Grundschule","state":"HB"},{"address":"Mecklenburger Weg 174, 27578 Bremerhaven","fax":"0471/391-3659","full_time_school":false,"id":"HB-169","lat":53.595276,"lon":8.624206,"name":"Friedrich-Ebert-Schule","official_id":"169","phone":"0471/391-3650","school_type":"Grundschule","school_type_entity":"Grundschule","state":"HB"},{"address":"Flensburger Str. 10, 27570 Bremerhaven","fax":"0471/309 555 49","full_time_school":true,"id":"HB-172","lat":53.52374,"lon":8.595368,"name":"Immanuel-Kant-Schule","official_id":"172","phone":"0471/309 5550","school_type":"Oberschule","school_type_entity":"Oberschule","state":"HB"},{"address":"Gaußstr. 107, 27580 Bremerhaven","fax":"0471/3082422","full_time_school":false,"id":"HB-174","lat":53.579315,"lon":8.587594,"name":"Gaußschule II","official_id":"174","phone":"0471/3082420","school_type":"Oberschule","school_type_entity":"Oberschule","state":"HB"},{"address":"Brookstr. 7, 27580 Bremerhaven","fax":"0471/391-3899","full_time_school":true,"id":"HB-176","lat":53.566792,"lon":8.588232,"name":"Schule Am Leher Markt","official_id":"176","phone":"0471/391-3880","school_type":"Oberschule","school_type_entity":"Oberschule","state":"HB"},{"address":"Dudweilerstr. 2, 28309 Bremen","fax":"0421/361-59037","full_time_school":false,"id":"HB-206","lat":53.05786,"lon":8.911278,"name":"Schule an der Dudweilerstraße","official_id":"206","phone":"0421/361-3188","school_type":"Förderzentrum Lernen-Sprache-Verhalten","school_type_entity":"Förderzentrum","state":"HB"},{"address":"Kerschensteinerstr. 4, 28757 Bremen","fax":"0421/361-79584","full_time_school":false,"id":"HB-209","lat":53.174794,"lon":8.621463,"name":"Schule an der Kerschensteinerstr.","official_id":"209","phone":"0421/361-7301","school_type":"Förderzentrum Lernen-Sprache-Verhalten","school_type_entity":"Förderzentrum","state":"HB"},{"address":"Mainstr. 18, 28199 Bremen","fax":"0421/361-59501","full_time_school":false,"id":"HB-210","lat":53.068927,"lon":8.794551,"name":"Schule an der Mainstraße","official_id":"210","phone":"0421/361-59491","school_type":"Förderzentrum Lernen-Sprache-Verhalten","school_type_entity":"Förderzentrum","state":"HB"},{"address":"Züricher Str. 40, 28325 Bremen","fax":"0421/03212-1023528","full_time_school":false,"id":"HB-216","lat":53.06446,"lon":8.940238,"name":"Schule an der Züricher Straße","official_id":"216","phone":"0421/408-1621","school_type":"Förderzentrum sonstige","school_type_entity":"Förderzentrum","state":"HB"},{"address":"Fritz-Gansberg-Str. 22, 28213 Bremen","fax":"0421/361-96021","full_time_school":false,"id":"HB-223","lat":53.090997,"lon":8.8514,"name":"Schule an der Fritz-Gansberg-Straße","official_id":"223","phone":"0421/361-96022","school_type":"Förderzentrum sonstige","school_type_entity":"Förderzentrum","state":"HB"},{"address":"An der Gete 103, 28211 Bremen","fax":"0421/361-3149","full_time_school":false,"id":"HB-225","lat":53.079216,"lon":8.851296,"name":"Georg-Droste-Schule","official_id":"225","phone":"0421/361-3001","school_type":"Förderzentrum sonstige","school_type_entity":"Förderzentrum","state":"HB"},{"address":"Louis-Seegelken-Str. 130, 28717 Bremen","fax":"0421/361-7156","full_time_school":false,"id":"HB-226","lat":53.177942,"lon":8.680497,"name":"Paul-Goldschmidt-Schule","official_id":"226","phone":"0421/361-7150","school_type":"Förderzentrum sonstige","school_type_entity":"Förderzentrum","state":"HB"},{"address":"Marcusallee 31, 28359 Bremen","fax":"0421/361-3383","full_time_school":false,"id":"HB-227","lat":53.090221,"lon":8.880244,"name":"Schule an der Marcusallee","official_id":"227","phone":"0421/361-14360","school_type":"Förderzentrum sonstige","school_type_entity":"Förderzentrum","state":"HB"},{"address":"Wurster Str. 387, 27580 Bremerhaven","fax":"0471/391-3694","full_time_school":false,"id":"HB-253","lat":53.602602,"lon":8.535101,"name":"Anne-Frank-Schule","official_id":"253","phone":"0471/391-3690","school_type":"Förderzentrum sonstige","school_type_entity":"Förderzentrum","state":"HB"},{"address":"Doventorscontrescarpe (Block A) 172, 28195 Bremen","fax":"0421/361-17080","full_time_school":false,"id":"HB-301","lat":53.080426,"lon":8.804322,"name":"Erwachsenenschule","official_id":"301","phone":"0421/361-10759","school_type":"Abendschule/Erwachsenen Schule","school_type_entity":"Abendschule/ Erwachsenen Schule","state":"HB"},{"address":"Kleine Helle 7, 28195 Bremen","fax":"0421/361-16995","full_time_school":true,"id":"HB-302","lat":53.083611,"lon":8.801944,"name":"Altes Gymnasium","official_id":"302","phone":"0421/361-16990","school_type":"Durchgängiges Gymnasium","school_type_entity":"Durchgängiges Gymnasium","state":"HB"},{"address":"Kerschensteinerstr. 2, 28757 Bremen","fax":"0421/361-79508","full_time_school":false,"id":"HB-305","lat":53.176465,"lon":8.621404,"name":"Gymnasium Vegesack","official_id":"305","phone":"0421/361-7305","school_type":"Durchgängiges Gymnasium","school_type_entity":"Durchgängiges Gymnasium","state":"HB"},{"address":"Hamburger Str. 12, 28205 Bremen","fax":"0421/361-96944","full_time_school":false,"id":"HB-306","lat":53.070429,"lon":8.835162,"name":"Gymnasium an der Hamburger Straße","official_id":"306","phone":"0421/361-96930","school_type":"Durchgängiges Gymnasium","school_type_entity":"Durchgängiges Gymnasium","state":"HB"},{"address":"Delfter Str. 16, 28259 Bremen","fax":"0421/361-16709","full_time_school":false,"id":"HB-307","lat":53.046753,"lon":8.727874,"name":"Alexander-von-Humboldt-Gymnasium","official_id":"307","phone":"0421/361-16470","school_type":"Durchgängiges Gymnasium","school_type_entity":"Durchgängiges Gymnasium","state":"HB"},{"address":"Hermann-Böse-Str. 1-9, 28209 Bremen","fax":"0421/361-6285","full_time_school":false,"id":"HB-308","lat":53.083872,"lon":8.819868,"name":"Hermann-Böse-Gymnasium","official_id":"308","phone":"0421/361-6272","school_type":"Durchgängiges Gymnasium","school_type_entity":"Durchgängiges Gymnasium","state":"HB"},{"address":"Vorkampsweg 97, 28359 Bremen","fax":"0421/361-14265","full_time_school":false,"id":"HB-309","lat":53.10581,"lon":8.872612,"name":"Gymnasium Horn","official_id":"309","phone":"0421/361-14260","school_type":"Durchgängiges Gymnasium","school_type_entity":"Durchgängiges Gymnasium","state":"HB"},{"address":"Schwachhauser Heerstr. 62, 28209 Bremen","fax":"0421/361-59093","full_time_school":false,"id":"HB-312","lat":53.082878,"lon":8.839288,"name":"Kippenberg-Gymnasium","official_id":"312","phone":"0421/361-3640","school_type":"Durchgängiges Gymnasium","school_type_entity":"Durchgängiges Gymnasium","state":"HB"},{"address":"Alfred-Faust-Str. 6, 28277 Bremen","fax":"0421/361-16618","full_time_school":true,"id":"HB-324","lat":53.033271,"lon":8.83045,"name":"Gymnasium Links der Weser","official_id":"324","phone":"0421/361-16360","school_type":"Durchgängiges Gymnasium","school_type_entity":"Durchgängiges Gymnasium","state":"HB"},{"address":"Schiffdorfer Chaussee 97, 27574 Bremerhaven","fax":"0471/391-39139","full_time_school":false,"id":"HB-331","lat":53.529971,"lon":8.613309,"name":"Schulzentrum Carl von Ossietzky","official_id":"331","phone":"0471/391-39130","school_type":"Schulzentrum des Sekundarbereich  II (Gymnasiale Oberstufe)","school_type_entity":"Schulzentrum des Sekundarbereich","state":"HB"},{"address":"Walter-Kolb-Weg 2, 27568 Bremerhaven","fax":"0471/3000113","full_time_school":false,"id":"HB-333","lat":53.557323,"lon":8.572632,"name":"Schulzentrum Geschwister Scholl","official_id":"333","phone":"0471/3000110","school_type":"Schulzentrum des Sekundarbereich  II (Gymnasiale Oberstufe)","school_type_entity":"Schulzentrum des Sekundarbereich","state":"HB"},{"address":"Grazer Str. 61, 27568 Bremerhaven","fax":"0471/3000159","full_time_school":false,"id":"HB-334","lat":53.550026,"lon":8.574126,"name":"Lloyd Gymnasium Bremerhaven","official_id":"334","phone":"0471/3000100","school_type":"Durchgängiges Gymnasium","school_type_entity":"Durchgängiges Gymnasium","state":"HB"},{"address":"Sonnenstr. 22, 27568 Bremerhaven","fax":"0471/391-3603","full_time_school":false,"id":"HB-349","lat":53.549114,"lon":8.575879,"name":"Abendschule Bremerhaven","official_id":"349","phone":"0471/391-3601","school_type":"Abendschule/Erwachsenen Schule","school_type_entity":"Abendschule/ Erwachsenen Schule","state":"HB"},{"address":"Steffensweg 171, 28217 Bremen","fax":"0421/361-59667","full_time_school":false,"id":"HB-351","lat":53.097225,"lon":8.781803,"name":"Allgemeine Berufsbildende Schule","official_id":"351","phone":"0421/361-19639","school_type":"Berufsbildende Schule","school_type_entity":"Berufsbildende Schule","state":"HB"},{"address":"Reiherstr. 80, 28239 Bremen","fax":"0421/361-59533","full_time_school":false,"id":"HB-352","lat":53.139732,"lon":8.722589,"name":"Berufsbildende Schule für Metalltechnik","official_id":"352","phone":"0421/361-18042","school_type":"Berufsbildende Schule","school_type_entity":"Berufsbildende Schule","state":"HB"},{"address":"Delfter Str. 16, 28259 Bremen","fax":"0421/361-59040","full_time_school":false,"id":"HB-355","lat":53.046753,"lon":8.727874,"name":"Wilhelm Wagenfeld Schule","official_id":"355","phone":"0421/361-16620","school_type":"Berufsbildende Schule","school_type_entity":"Berufsbildende Schule","state":"HB"},{"address":"Kerschensteinerstr. 5, 28757 Bremen","fax":"0421/361-79574","full_time_school":false,"id":"HB-358","lat":53.17542,"lon":8.620554,"name":"Schulzentrum des Sekundarbereichs II","official_id":"358","phone":"0421/361-79550","school_type":"Berufsbildende Schule","school_type_entity":"Berufsbildende Schule","state":"HB"},{"address":"Carl-Goerdeler-Str. 27, 28327 Bremen","fax":"0421/361-14297","full_time_school":false,"id":"HB-359","lat":53.076167,"lon":8.896204,"name":"Berufsbildende Schule für Einzelhandel und Logistik","official_id":"359","phone":"0421/361-14280","school_type":"Berufsbildende Schule","school_type_entity":"Berufsbildende Schule","state":"HB"},{"address":"Ellmersstr. 24, 28217 Bremen","fax":"0421/361-16621","full_time_school":false,"id":"HB-360","lat":53.089327,"lon":8.790696,"name":"Berufsschule für den Großhandel,","official_id":"360","phone":"0421/361-8647","school_type":"Berufsbildende Schule","school_type_entity":"Berufsbildende Schule","state":"HB"},{"address":"Grenzstr. 90, 28217 Bremen","fax":"0421/361-59640","full_time_school":false,"id":"HB-361","lat":53.094528,"lon":8.785338,"name":"Schulzentrum Grenzstraße","official_id":"361","phone":"0421/361-5637/8/9","school_type":"Berufsbildende Schule","school_type_entity":"Berufsbildende Schule","state":"HB"},{"address":"Delmestr. 141 B, 28199 Bremen","fax":"0421/361-18351","full_time_school":false,"id":"HB-364","lat":53.065876,"lon":8.787636,"name":"Schulzentrum des Sekundarbereichs II","official_id":"364","phone":"0421/361-18340","school_type":"Berufsbildende Schule","school_type_entity":"Berufsbildende Schule","state":"HB"},{"address":"Meta-Sattler-Str. 33, 28217 Bremen","fax":"0421/361-16019","full_time_school":false,"id":"HB-368","lat":53.088871,"lon":8.794887,"name":"Schulzentrum des Sekundarbereichs II","official_id":"368","phone":"0421/361-59688 oder 89","school_type":"Berufsbildende Schule","school_type_entity":"Berufsbildende Schule","state":"HB"},{"address":"An der Weserbahn 4, 28195 Bremen","fax":"0421/361-3077","full_time_school":false,"id":"HB-369","lat":53.085334,"lon":8.796239,"name":"Technisches Bildungszentrum Mitte","official_id":"369","phone":"0421/361-16770","school_type":"Berufsbildende Schule","school_type_entity":"Berufsbildende Schule","state":"HB"},{"address":"Max-Eyth-Platz 3-4, 27568 Bremerhaven","fax":"0471/391-3559","full_time_school":false,"id":"HB-382","lat":53.548575,"lon":8.576784,"name":"Kaufmännische Lehranstalten","official_id":"382","phone":"0471/391-3530","school_type":"Berufsbildende Schule","school_type_entity":"Berufsbildende Schule","state":"HB"},{"address":"Walter-Kolb-Weg 2, 27568 Bremerhaven","fax":"0471/3000123","full_time_school":false,"id":"HB-383","lat":53.557323,"lon":8.572632,"name":"Schulzentrum Geschwister Scholl","official_id":"383","phone":"0471/3000120","school_type":"Berufsbildende Schule","school_type_entity":"Berufsbildende Schule","state":"HB"},{"address":"Hinrich-Schmalfeldt-Str. 26, 27576 Bremerhaven","fax":"0471/501-0557","full_time_school":false,"id":"HB-384","lat":53.558712,"lon":8.589526,"name":"Werkstattschule Bremerhaven","official_id":"384","phone":"0471/958-4430","school_type":"Berufsbildende Schule","school_type_entity":"Berufsbildende Schule","state":"HB"},{"address":"Georg-Büchner-Str. 7, 27574 Bremerhaven","fax":"0471/39198-256","full_time_school":false,"id":"HB-385","lat":53.531824,"lon":8.612887,"name":"Schulzentrum Carl von Ossietzky","official_id":"385","phone":"0471/39198-101","school_type":"Berufsbildende Schule","school_type_entity":"Berufsbildende Schule","state":"HB"},{"address":"Georg-Büchner-Str. 13, 27574 Bremerhaven","fax":"0471/309-44522","full_time_school":false,"id":"HB-386","lat":53.533424,"lon":8.612722,"name":"Schulzentrum Carl von Ossietzky","official_id":"386","phone":"0471/309-46510","school_type":"Berufsbildende Schule","school_type_entity":"Berufsbildende Schule","state":"HB"},{"address":"Helsinkistr. 10, 28719 Bremen","fax":"0421/361-79071","full_time_school":true,"id":"HB-403","lat":53.173002,"lon":8.722547,"name":"Oberschule an der Helsinkistraße","official_id":"403","phone":"0421/361-79070","school_type":"Oberschule","school_type_entity":"Oberschule","state":"HB"},{"address":"Drebberstr. 10, 28309 Bremen","fax":"0421/361-59548","full_time_school":true,"id":"HB-404","lat":53.040673,"lon":8.898694,"name":"Wilhelm-Olbers-Oberschule","official_id":"404","phone":"0421/361-59539","school_type":"Oberschule","school_type_entity":"Oberschule","state":"HB"},{"address":"Koblenzer Str. 15, 28325 Bremen","fax":"0421/361-15463","full_time_school":true,"id":"HB-409","lat":53.062291,"lon":8.960328,"name":"Oberschule an der Koblenzer Straße","official_id":"409","phone":"0421/361-3029","school_type":"Oberschule","school_type_entity":"Oberschule","state":"HB"},{"address":"Lerchenstr. 86, 28755 Bremen","fax":"0421/361-79262","full_time_school":false,"id":"HB-410","lat":53.191413,"lon":8.6279,"name":"Oberschule an der Lerchenstraße","official_id":"410","phone":"0421/361-79263","school_type":"Oberschule","school_type_entity":"Oberschule","state":"HB"},{"address":"Butjadinger Str. 21, 28197 Bremen","fax":"0421/361-96812","full_time_school":true,"id":"HB-412","lat":53.081083,"lon":8.759567,"name":"Oberschule Roter Sand","official_id":"412","phone":"0421/361-96800","school_type":"Oberschule","school_type_entity":"Oberschule","state":"HB"},{"address":"Lehmhorster Str. 5, 28779 Bremen","fax":"0421/361-79362","full_time_school":true,"id":"HB-414","lat":53.196906,"lon":8.5701,"name":"Oberschule an der Lehmhorster Straße","official_id":"414","phone":"0421/361-79352","school_type":"Oberschule","school_type_entity":"Oberschule","state":"HB"},{"address":"Uppe Angst 31, 28355 Bremen","fax":"0421/361-16637","full_time_school":false,"id":"HB-416","lat":53.097098,"lon":8.899798,"name":"Oberschule Rockwinkel","official_id":"416","phone":"0421/361-16627","school_type":"Oberschule","school_type_entity":"Oberschule","state":"HB"},{"address":"Schaumburger Str. 49 A, 28205 Bremen","fax":"0421/361-96886","full_time_school":false,"id":"HB-417","lat":53.073476,"lon":8.846135,"name":"Oberschule an der Schaumburger Straße","official_id":"417","phone":"0421/361-96880","school_type":"Oberschule","school_type_entity":"Oberschule","state":"HB"},{"address":"Ronzelenstr. 51, 28359 Bremen","fax":"0421/361-15161","full_time_school":true,"id":"HB-418","lat":53.095236,"lon":8.875806,"name":"Oberschule an der Ronzelenstraße","official_id":"418","phone":"0421/361-3144","school_type":"Oberschule","school_type_entity":"Oberschule","state":"HB"},{"address":"Bunnsackerweg 2, 28279 Bremen","fax":"0421/361-15226","full_time_school":false,"id":"HB-423","lat":53.045442,"lon":8.860104,"name":"Oberschule Habenhausen","official_id":"423","phone":"0421/361-3454","school_type":"Oberschule","school_type_entity":"Oberschule","state":"HB"},{"address":"Helgolander Str. 67, 28217 Bremen","fax":"0421/361-17036","full_time_school":true,"id":"HB-424","lat":53.098944,"lon":8.784648,"name":"Oberschule an der Helgolander Straße","official_id":"424","phone":"0421/361-17030","school_type":"Oberschule","school_type_entity":"Oberschule","state":"HB"},{"address":"Konrad-Adenauer-Allee 86, 28329 Bremen","fax":"0421/361-16037","full_time_school":true,"id":"HB-425","lat":53.076147,"lon":8.86729,"name":"Oberschule an der Julius-Brecht-Allee","official_id":"425","phone":"0421/361-16027","school_type":"Oberschule","school_type_entity":"Oberschule","state":"HB"},{"address":"Gothaer Str. 60, 28215 Bremen","fax":"0421/361-96923","full_time_school":true,"id":"HB-428","lat":53.097532,"lon":8.803964,"name":"Oberschule Findorff","official_id":"428","phone":"0421/361-96910","school_type":"Oberschule","school_type_entity":"Oberschule","state":"HB"},{"address":"Parsevalstr. 1, 28309 Bremen","fax":"0421/361-59205","full_time_school":true,"id":"HB-429","lat":53.067796,"lon":8.885846,"name":"Oberschule Sebaldsbrück","official_id":"429","phone":"0421/361-3394","school_type":"Oberschule","school_type_entity":"Oberschule","state":"HB"},{"address":"Bremerhavener Str. 83, 28219 Bremen","fax":"0421/361-59610","full_time_school":false,"id":"HB-430","lat":53.099159,"lon":8.778756,"name":"Oberschule am Waller Ring","official_id":"430","phone":"0421/361-5630","school_type":"Oberschule","school_type_entity":"Oberschule","state":"HB"},{"address":"Flämische Str. 9, 28259 Bremen","fax":"0421/361-15132","full_time_school":true,"id":"HB-431","lat":53.052977,"lon":8.713438,"name":"Roland zu Bremen Oberschule","official_id":"431","phone":"0421/361-15971","school_type":"Oberschule","school_type_entity":"Oberschule","state":"HB"},{"address":"Valckenburghstr. 1-3, 28201 Bremen","fax":"0421/361-59333","full_time_school":true,"id":"HB-436","lat":53.051605,"lon":8.815193,"name":"Wilhelm-Kaisen-Oberschule","official_id":"436","phone":"0421/361-59330","school_type":"Oberschule","school_type_entity":"Oberschule","state":"HB"},{"address":"Kolk 2, 28327 Bremen","fax":"0421/null","full_time_school":true,"id":"HB-438","lat":53.061103,"lon":8.928456,"name":"Albert-Einstein-Oberschule","official_id":"438","phone":"0421/361-18395","school_type":"Oberschule","school_type_entity":"Oberschule","state":"HB"},{"address":"Am Oslebshauser Park 1-3, 28239 Bremen","fax":"0421/361-9131","full_time_school":true,"id":"HB-440","lat":53.130886,"lon":8.739102,"name":"Oberschule im Park","official_id":"440","phone":"0421/361-9265","school_type":"Oberschule","school_type_entity":"Oberschule","state":"HB"},{"address":"Parkallee 39, 28209 Bremen","fax":"0421/496-15587","full_time_school":false,"id":"HB-441","lat":53.082508,"lon":8.822714,"name":"Oberschule Am Barkhof","official_id":"441","phone":"0421/361-15587","school_type":"Oberschule","school_type_entity":"Oberschule","state":"HB"},{"address":"Halmerweg 71, 28237 Bremen","fax":"0421/361-94232","full_time_school":false,"id":"HB-442","lat":53.122323,"lon":8.763879,"name":"Oberschule Ohlenhof","official_id":"442","phone":"0421/361-94246","school_type":"Oberschule","school_type_entity":"Oberschule","state":"HB"},{"address":"Eggestedter Str. 20, 28779 Bremen","fax":"0421/361-79150","full_time_school":false,"id":"HB-443","lat":53.190144,"lon":8.566084,"name":"Oberschule an der Egge","official_id":"443","phone":"0421/361-79154","school_type":"Oberschule","school_type_entity":"Oberschule","state":"HB"},{"address":"Ernst-Waldau-Str. 1 A, 28239 Bremen","fax":"0421/361-18434","full_time_school":true,"id":"HB-444","lat":53.128145,"lon":8.753226,"name":"Neue Oberschule Gröpelingen","official_id":"444","phone":"0421/361-18319","school_type":"Oberschule","school_type_entity":"Oberschule","state":"HB"},{"address":"Kurt-Schumacher-Allee 65, 28327 Bremen","fax":"0421/361-59856","full_time_school":true,"id":"HB-445","lat":53.078857,"lon":8.893096,"name":"Oberschule an der Kurt-Schumacher-Allee","official_id":"445","phone":"0421/361-5650","school_type":"Oberschule","school_type_entity":"Oberschule","state":"HB"},{"address":"Schillerstr. 87, 27570 Bremerhaven","fax":"0471/391-3799","full_time_school":false,"id":"HB-451","lat":53.527616,"lon":8.597035,"name":"Humboldtschule","official_id":"451","phone":"0471/391-3770","school_type":"Oberschule","school_type_entity":"Oberschule","state":"HB"},{"address":"Friedrich-Ebert-Str. 10, 27570 Bremerhaven","fax":"0471/391-3849","full_time_school":false,"id":"HB-452","lat":53.539161,"lon":8.592109,"name":"Wilhelm-Raabe-Schule","official_id":"452","phone":"0471/391-3830","school_type":"Oberschule","school_type_entity":"Oberschule","state":"HB"},{"address":"Georg-Büchner-Str. 5, 27574 Bremerhaven","fax":"0471/391-39129","full_time_school":true,"id":"HB-456","lat":53.530746,"lon":8.613503,"name":"Schulzentrum Carl von Ossietzky, Oberschule","official_id":"456","phone":"0471/391-39120","school_type":"Oberschule","school_type_entity":"Oberschule","state":"HB"},{"address":"Dreibergen 21, 27572 Bremerhaven","fax":"0471/3001030","full_time_school":true,"id":"HB-457","lat":53.507238,"lon":8.601971,"name":"Paula-Modersohn-Schule","official_id":"457","phone":"0471/3001013","school_type":"Oberschule","school_type_entity":"Oberschule","state":"HB"},{"address":"Fuhrenweg 3-19, 27578 Bremerhaven","fax":"0471/391-38026","full_time_school":false,"id":"HB-458","lat":53.595541,"lon":8.615493,"name":"Johann-Gutenberg-Schule","official_id":"458","phone":"0471/391-3800","school_type":"Oberschule","school_type_entity":"Oberschule","state":"HB"},{"address":"Lissaer Str. 7, 28237 Bremen","fax":"0421/49614620","full_time_school":true,"id":"HB-501","lat":53.113966,"lon":8.774221,"name":"Gesamtschule Bremen-West","official_id":"501","phone":"0421/361-14611","school_type":"Oberschule","school_type_entity":"Oberschule","state":"HB"},{"address":"Walliser Str. 125, 28325 Bremen","fax":"0421/361-59831","full_time_school":true,"id":"HB-502","lat":53.070873,"lon":8.952859,"name":"Gesamtschule Bremen-Ost","official_id":"502","phone":"0421/361-59802","school_type":"Oberschule","school_type_entity":"Oberschule","state":"HB"},{"address":"Steinkamp 6, 28717 Bremen","fax":"0421/361-7021","full_time_school":false,"id":"HB-503","lat":53.178193,"lon":8.693797,"name":"Oberschule Lesum","official_id":"503","phone":"0421/361-7185","school_type":"Oberschule","school_type_entity":"Oberschule","state":"HB"},{"address":"Hemelinger Str. 11, 28205 Bremen","fax":"0421/361-18180","full_time_school":true,"id":"HB-504","lat":53.071214,"lon":8.839586,"name":"Gesamtschule Bremen-Mitte","official_id":"504","phone":"0421/361-3135","school_type":"Oberschule","school_type_entity":"Oberschule","state":"HB"},{"address":"Hermannsburg 32 F, 28259 Bremen","fax":"0421/361-15964","full_time_school":true,"id":"HB-505","lat":53.042129,"lon":8.736376,"name":"Oberschule an der Hermannsburg","official_id":"505","phone":"0421/361-15960","school_type":"Oberschule","school_type_entity":"Oberschule","state":"HB"},{"address":"Schulstr. 24, 28199 Bremen","fax":"0421/361-59193","full_time_school":true,"id":"HB-506","lat":53.070236,"lon":8.7984,"name":"Oberschule am Leibnizplatz","official_id":"506","phone":"0421/361-5785","school_type":"Oberschule","school_type_entity":"Oberschule","state":"HB"},{"address":"Neuenkirchener Weg 119, 28779 Bremen","fax":"0421/361-79025","full_time_school":true,"id":"HB-509","lat":53.202226,"lon":8.559242,"name":"Oberschule In den Sandwehen","official_id":"509","phone":"0421/361-79043","school_type":"Oberschule","school_type_entity":"Oberschule","state":"HB"},{"address":"Bergiusstr. 125, 28357 Bremen","fax":"0421/361-16395","full_time_school":true,"id":"HB-511","lat":53.109939,"lon":8.897261,"name":"Wilhelm-Focke-Oberschule","official_id":"511","phone":"0421/361-16084","school_type":"Oberschule","school_type_entity":"Oberschule","state":"HB"},{"address":"Kirchheide 9, 28757 Bremen","fax":"0421/361-79515","full_time_school":true,"id":"HB-512","lat":53.172983,"lon":8.620902,"name":"Gerhard-Rohlfs-Oberschule","official_id":"512","phone":"0421/361-79513","school_type":"Oberschule","school_type_entity":"Oberschule","state":"HB"},{"address":"Hans-Böckler-Str. 30, 27578 Bremerhaven","fax":"0471/391-35010","full_time_school":true,"id":"HB-551","lat":53.587959,"lon":8.615071,"name":"Heinrich-Heine-Schule","official_id":"551","phone":"0471/391-35013","school_type":"Oberschule","school_type_entity":"Oberschule","state":"HB"},{"address":"Hafenstr. 122, 27576 Bremerhaven","fax":"0471/309493-19","full_time_school":true,"id":"HB-552","lat":53.557631,"lon":8.586674,"name":"Schule am Ernst-Reuter-Platz","official_id":"552","phone":"0471/309493-10","school_type":"Oberschule","school_type_entity":"Oberschule","state":"HB"},{"address":"Flensburger Str. 10, 27570 Bremerhaven","fax":"0471/309-55549","full_time_school":true,"id":"HB-553","lat":53.52374,"lon":8.595368,"name":"Oberschule Geestemünde","official_id":"553","phone":"0471/309-55540","school_type":"Oberschule","school_type_entity":"Oberschule","state":"HB"},{"address":"Alwin-Lonke-Str. 71, 28719 Bremen","fax":"0421/361-16609","full_time_school":false,"id":"HB-601","lat":53.153143,"lon":8.716446,"name":"Schulzentrum des Sekundarbereichs II","official_id":"601","phone":"0421/361-16560","school_type":"Berufsbildende Schule","school_type_entity":"Berufsbildende Schule","state":"HB"},{"address":"Bördestr. 10, 28717 Bremen","fax":"0421/361-7182","full_time_school":false,"id":"HB-602","lat":53.172909,"lon":8.691515,"name":"Schulzentrum des Sekundarbereichs II","official_id":"602","phone":"0421/361-7180","school_type":"Berufsbildende Schule","school_type_entity":"Berufsbildende Schule","state":"HB"},{"address":"Eggestedter Str. 20, 28779 Bremen","fax":"0421/361-79150","full_time_school":false,"id":"HB-603","lat":53.190144,"lon":8.566084,"name":"Schulzentrum des Sekundarbereichs II","official_id":"603","phone":"0421/361-79155","school_type":"Berufsbildende Schule","school_type_entity":"Berufsbildende Schule","state":"HB"},{"address":"Lange Reihe 81, 28219 Bremen","fax":"0421/361-8527","full_time_school":false,"id":"HB-618","lat":53.104501,"lon":8.776595,"name":"Schulzentrum des Sekundarbereichs II","official_id":"618","phone":"0421/361-8516","school_type":"Berufsbildende Schule","school_type_entity":"Berufsbildende Schule","state":"HB"},{"address":"Walliser Str. 125, 28325 Bremen","fax":"0421/361-16726","full_time_school":false,"id":"HB-698","lat":53.070873,"lon":8.952859,"name":"Helmut Schmidt Schule","official_id":"698","phone":"0421/361-18250","school_type":"Berufsbildende Schule","school_type_entity":"Berufsbildende Schule","state":"HB"},{"address":"Rübekamp 37-39, 28219 Bremen","fax":"0421/361-14703","full_time_school":false,"id":"HB-699","lat":53.109674,"lon":8.777963,"name":"Schulzentrum des Sekundarbereichs II","official_id":"699","phone":"0421/361-14700","school_type":"Berufsbildende Schule","school_type_entity":"Berufsbildende Schule","state":"HB"},{"address":"Tiefer 12, 28195 Bremen","fax":"0421/3694-214","full_time_school":true,"id":"HB-801","lat":53.073202,"lon":8.807241,"name":"St.-Johannis-Schule","official_id":"801","phone":"0421/3694-171","school_type":"Private Grundschule","school_type_entity":"Private Grundschule","state":"HB"},{"address":"Hauffstr. 2, 28217 Bremen","fax":"0421/3989019","full_time_school":true,"id":"HB-803","lat":53.093806,"lon":8.786098,"name":"St.-Marien-Schule","official_id":"803","phone":"0421/3809370","school_type":"Private Grundschule","school_type_entity":"Private Grundschule","state":"HB"},{"address":"Habenhauser Brückenstr. 1, 28279 Bremen","fax":"0421/83936-119","full_time_school":false,"id":"HB-805","lat":53.051127,"lon":8.847751,"name":"Freie Evangelische Bekenntnisschule","official_id":"805","phone":"0421/83936-100","school_type":"Private weiterführende Schule (GS oder IHR mit Gy)","school_type_entity":"Private weiterführende Schule (GS oder IHR mit Gy)","state":"HB"},{"address":"Touler Str. 3, 28211 Bremen","fax":"0421/4914343","full_time_school":false,"id":"HB-806","lat":53.082567,"lon":8.844277,"name":"Freie Waldorfschule Bremen","official_id":"806","phone":"0421/491430","school_type":"Private Waldorfschule","school_type_entity":"Waldorfschule","state":"HB"},{"address":"Schwarzer Weg 96, 28239 Bremen","fax":"0421/6190-123","full_time_school":true,"id":"HB-807","lat":53.127314,"lon":8.7563,"name":"Privatschule Mentor gGmbH","official_id":"807","phone":"0421/6190-121","school_type":"Private weiterführende Schule (GS oder IHR mit Gy)","school_type_entity":"Private weiterführende Schule (GS oder IHR mit Gy)","state":"HB"},{"address":"Rockwinkeler Landstr. 41-43, 28355 Bremen","fax":"0421/250627","full_time_school":true,"id":"HB-809","lat":53.083723,"lon":8.934888,"name":"Tobias-Schule Bremen","official_id":"809","phone":"0421/259884","school_type":"Private Sonderschule Lernen-Sprache-Verhalten","school_type_entity":"Private Sonderschule Lernen-Sprache-Verhalten","state":"HB"},{"address":"Dechanatstr. 9, 28195 Bremen","fax":"0421/3694-186","full_time_school":false,"id":"HB-810","lat":53.073999,"lon":8.808928,"name":"St.-Johannis-Schule","official_id":"810","phone":"0421/3694-180","school_type":"Private weiterführende Schule (GS oder IHR mit Gy)","school_type_entity":"Private weiterführende Schule (GS oder IHR mit Gy)","state":"HB"},{"address":"Oberneulander Landstr. 143 A, 28355 Bremen","fax":"0421/223129-10","full_time_school":true,"id":"HB-811","lat":53.102133,"lon":8.923963,"name":"Ökumenisches Gymnasium zu Bremen","official_id":"811","phone":"0421/223129-0","school_type":"Privates Durchgängiges Gymnasium","school_type_entity":"Privates Durchgängiges Gymnasium","state":"HB"},{"address":"Schongauer Str. 2, 28219 Bremen","fax":"0421/3965608","full_time_school":false,"id":"HB-812","lat":53.108133,"lon":8.798714,"name":"Technikerschule Bremen","official_id":"812","phone":"0421/393089","school_type":"Private berufsbildende Schule","school_type_entity":"Private berufsbildende Schule","state":"HB"},{"address":"Universitätsallee 20, 28359 Bremen","fax":"0421/2383-237","full_time_school":false,"id":"HB-813","lat":53.101984,"lon":8.860383,"name":"Berufsbildungswerk Bremen GmbH","official_id":"813","phone":"0421/2383-221","school_type":"Private berufsbildende Schule","school_type_entity":"Private berufsbildende Schule","state":"HB"},{"address":"Badgasteiner Str. 11, 28359 Bremen","fax":"0421/515779-55","full_time_school":true,"id":"HB-815","lat":53.108846,"lon":8.8581,"name":"International School of Bremen","official_id":"815","phone":"0421/515779-0","school_type":"Private weiterführende Schule (GS oder IHR mit Gy)","school_type_entity":"Private weiterführende Schule (GS oder IHR mit Gy)","state":"HB"},{"address":"Graubündener Str. 4, 28325 Bremen","fax":"0421/411421","full_time_school":true,"id":"HB-816","lat":53.067867,"lon":8.943102,"name":"Freie Waldorfschule","official_id":"816","phone":"0421/411441","school_type":"Private Waldorfschule","school_type_entity":"Waldorfschule","state":"HB"},{"address":"Steinsetzerstr. 6-8, 28279 Bremen","fax":"0421/83936-311","full_time_school":true,"id":"HB-817","lat":53.047652,"lon":8.852438,"name":"Freie Evangelische Bekenntnisschule","official_id":"817","phone":"0421/83936-300","school_type":"Private Grundschule","school_type_entity":"Private Grundschule","state":"HB"},{"address":"Fresenbergstr. 26, 28779 Bremen","fax":"0421/4605211","full_time_school":false,"id":"HB-818","lat":53.183949,"lon":8.574732,"name":"Freie Waldorfschule","official_id":"818","phone":"0421/4605210","school_type":"Private Waldorfschule","school_type_entity":"Waldorfschule","state":"HB"},{"address":"Waller Heerstr. 165, 28219 Bremen","fax":"0421/377-5010","full_time_school":false,"id":"HB-819","lat":53.103576,"lon":8.784701,"name":"EUMAC-European Musical Academy","official_id":"819","phone":"0421/377-5018","school_type":"Private berufsbildende Schule","school_type_entity":"Private berufsbildende Schule","state":"HB"},{"address":"Lesumer Heerstr. 36, 28717 Bremen","fax":"0421/63819988","full_time_school":true,"id":"HB-820","lat":53.173646,"lon":8.677933,"name":"Eduard-Nebelthau-Gymnasium","official_id":"820","phone":"0421/63819902","school_type":"Privates Durchgängiges Gymnasium","school_type_entity":"Privates Durchgängiges Gymnasium","state":"HB"},{"address":"Willakedamm 6, 28259 Bremen","fax":"0421/583877","full_time_school":false,"id":"HB-821","lat":53.047101,"lon":8.736706,"name":"St.-Pius-Schule","official_id":"821","phone":"0421/583877","school_type":"Private Grundschule","school_type_entity":"Private Grundschule","state":"HB"},{"address":"Oewerweg 40 A, 28325 Bremen","fax":"0421/null","full_time_school":true,"id":"HB-822","lat":53.059891,"lon":8.944771,"name":"St.-Antonius-Schule","official_id":"822","phone":"0421/424299","school_type":"Private Grundschule","school_type_entity":"Private Grundschule","state":"HB"},{"address":"Außer der Schleifmühle 4, 28203 Bremen","fax":"0421/null","full_time_school":false,"id":"HB-824","lat":53.080335,"lon":8.820319,"name":"Kunstschule Wandsbek","official_id":"824","phone":"0421/336-59125","school_type":"Private berufsbildende Schule","school_type_entity":"Private berufsbildende Schule","state":"HB"},{"address":"Zum Sebaldsbrücker Bahnhof 59, 28309 Bremen","fax":"0421/699 99 96","full_time_school":false,"id":"HB-825","lat":53.061757,"lon":8.885844,"name":"Freie Gemeinschaftsschule Bremen","official_id":"825","phone":"0421/699 99 96","school_type":"Private weiterführende Schule (GS oder IHR mit Gy)","school_type_entity":"Private weiterführende Schule (GS oder IHR mit Gy)","state":"HB"},{"address":"Grazer Str. 15 A, 27568 Bremerhaven","fax":"0471/30859-49","full_time_school":false,"id":"HB-851","lat":53.546487,"lon":8.577641,"name":"Edith-Stein-Schule","official_id":"851","phone":"0471/30859-40","school_type":"Private weiterführende Schule (GS oder IHR mit Gy)","school_type_entity":"Private weiterführende Schule (GS oder IHR mit Gy)","state":"HB"},{"address":"Grazer Str. 15 B, 27568 Bremerhaven","fax":"0471/30859-29","full_time_school":true,"id":"HB-855","lat":53.546487,"lon":8.577641,"name":"Grundschule Stella Maris","official_id":"855","phone":"0471/30859-20","school_type":"Private Grundschule","school_type_entity":"Private Grundschule","state":"HB"},{"address":"Hafenstr.128, 27576 Bremerhaven","fax":"0471/595-30","full_time_school":false,"id":"HB-881","lat":53.5662,"lon":8.59992,"name":"Wirtschaft-und Sozialakademie der","official_id":"881","phone":"0471/595-43/-22","school_type":"Private berufsbildende Schule","school_type_entity":"Private berufsbildende Schule","state":"HB"},{"address":"Züricher Str. 40, 28325 Bremen","fax":"0421/408-1985","full_time_school":false,"id":"HB-900","lat":53.06446,"lon":8.940238,"name":"Integratives Bildungszentrum (IBZ)","official_id":"900","phone":"0421/408-1734","school_type":"Schule für Gesundheitsfachberufe (Klinikum)","school_type_entity":"Schule für Gesundheitsfachberufe","state":"HB"},{"address":"St.-Jürgen-Str. 1, 28205 Bremen","fax":"0421/497-3343","full_time_school":false,"id":"HB-902","lat":53.075099,"lon":8.837428,"name":"Integratives Bildungszentrum (IBZ)","official_id":"902","phone":"0421/497-5296","school_type":"Schule für Gesundheitsfachberufe (Klinikum)","school_type_entity":"Schule für Gesundheitsfachberufe","state":"HB"},{"address":"St.-Jürgen-Str. 1, 28205 Bremen","fax":"0421/497-4463","full_time_school":false,"id":"HB-908","lat":53.075099,"lon":8.837428,"name":"Schule für technische Assistenten in der Medizin","official_id":"908","phone":"0421/497-3472","school_type":"Schule für Gesundheitsfachberufe (Klinikum)","school_type_entity":"Schule für Gesundheitsfachberufe","state":"HB"},{"address":"Fedelhören 78, 28203 Bremen","fax":"0421/2434-419","full_time_school":false,"id":"HB-909","lat":53.07821,"lon":8.819148,"name":"Bremer Heimstiftung","official_id":"909","phone":"0421/2434-410","school_type":"Private berufsbildende Schule","school_type_entity":"Private berufsbildende Schule","state":"HB"},{"address":"Rotdornallee 64, 28717 Bremen","fax":"0421/6381-436","full_time_school":false,"id":"HB-910","lat":53.17678,"lon":8.685082,"name":"Friedehorst - Vereinigte Anstalten","official_id":"910","phone":"0421/6381-414","school_type":"Private berufsbildende Schule","school_type_entity":"Private berufsbildende Schule","state":"HB"},{"address":"Universitätsallee 18, 28359 Bremen","fax":"0421/325456","full_time_school":false,"id":"HB-912","lat":53.102903,"lon":8.857939,"name":"Deutsche Außenhandels- und","official_id":"912","phone":"0421/9499-1022","school_type":"Private berufsbildende Schule","school_type_entity":"Private berufsbildende Schule","state":"HB"},{"address":"Norderoog 2, 28259 Bremen","fax":"0421/7202439","full_time_school":false,"id":"HB-913","lat":53.053882,"lon":8.742194,"name":"Joli Visage","official_id":"913","phone":"0421/720240","school_type":"Private berufsbildende Schule","school_type_entity":"Private berufsbildende Schule","state":"HB"},{"address":"Bertha-von-Suttner-Str. 17, 28207 Bremen","fax":"0421/4499651","full_time_school":false,"id":"HB-914","lat":53.069684,"lon":8.863466,"name":"Wirtschafts- und Sozialakademie der","official_id":"914","phone":"0421/4499639","school_type":"Private berufsbildende Schule","school_type_entity":"Private berufsbildende Schule","state":"HB"},{"address":"An der Silberpräge 5, 28309 Bremen","fax":"0421/39001-22","full_time_school":false,"id":"HB-919","lat":53.059222,"lon":8.886262,"name":"Institut für Berufs- und","official_id":"919","phone":"0421/39001-25","school_type":"Private berufsbildende Schule","school_type_entity":"Private berufsbildende Schule","state":"HB"},{"address":"Faulenstr. 31, 28195 Bremen","fax":"0421/17472-30","full_time_school":false,"id":"HB-922","lat":53.080436,"lon":8.797992,"name":"Parität. Bildungswerk Bremen e.V.","official_id":"922","phone":"0421/17472-0","school_type":"Private berufsbildende Schule","school_type_entity":"Private berufsbildende Schule","state":"HB"},{"address":"Fleetrade 78, 28207 Bremen","fax":"0421/4986048","full_time_school":false,"id":"HB-923","lat":53.064309,"lon":8.865509,"name":"impuls e.V.","official_id":"923","phone":"0421/441999","school_type":"Private berufsbildende Schule","school_type_entity":"Private berufsbildende Schule","state":"HB"},{"address":"Dölvesstr. 8, 28207 Bremen","fax":"0421/4499930","full_time_school":false,"id":"HB-924","lat":53.070167,"lon":8.859384,"name":"Wirtschafts- und Sozialakademie der","official_id":"924","phone":"0421/4499621","school_type":"Private berufsbildende Schule","school_type_entity":"Private berufsbildende Schule","state":"HB"},{"address":"St.-Pauli-Deich 25, 28199 Bremen","fax":"0421/5599-445","full_time_school":false,"id":"HB-927","lat":53.068795,"lon":8.804042,"name":"Bremer Krankenpflegeschule der","official_id":"927","phone":"0421/5599-441","school_type":"Schule für Gesundheitsfachberufe","school_type_entity":"Schule für Gesundheitsfachberufe","state":"HB"},{"address":"Rotdornallee 64, 28717 Bremen","fax":"0421/696 685 06","full_time_school":false,"id":"HB-928","lat":53.17678,"lon":8.685082,"name":"Fachschule für Ergotherapie","official_id":"928","phone":"0421/696 685 02","school_type":"Schule für Gesundheitsfachberufe","school_type_entity":"Schule für Gesundheitsfachberufe","state":"HB"},{"address":"Doventorscontrescarpe 172, 28195 Bremen","fax":"0421/361-5173","full_time_school":false,"id":"HB-949","lat":53.084162,"lon":8.797686,"name":"Verwaltungsschule der","official_id":"949","phone":"0421/361-5335","school_type":"Verwaltungsschule","school_type_entity":"Verwaltungsschule","state":"HB"},{"address":"Postbrookstr. 91 A, 27574 Bremerhaven","fax":"0471/299-3554","full_time_school":false,"id":"HB-950","lat":53.53486,"lon":8.637051,"name":"Krankenpflegeschule am","official_id":"950","phone":"0471/299-3550","school_type":"Schule für Gesundheitsfachberufe (Klinikum)","school_type_entity":"Schule für Gesundheitsfachberufe","state":"HB"},{"address":"Wiener Str. 1, 27568 Bremerhaven","fax":"0471/4805-113","full_time_school":false,"id":"HB-951","lat":53.552553,"lon":8.575928,"name":"Krankenpflegeschule","official_id":"951","phone":"0471/4805-644","school_type":"Schule für Gesundheitsfachberufe","school_type_entity":"Schule für Gesundheitsfachberufe","state":"HB"},{"address":"Hartwigstr. 8, 27574 Bremerhaven","fax":"0471/9212372","full_time_school":false,"id":"HB-955","lat":53.533075,"lon":8.601181,"name":"Hansa Pflegeschulen GmbH","official_id":"955","phone":"0471/9212370","school_type":"Private berufsbildende Schule","school_type_entity":"Private berufsbildende Schule","state":"HB"},{"address":"Surfeldstr. 29, 27576 Bremerhaven","fax":"0471/309467-19","full_time_school":false,"id":"HB-957","lat":53.561813,"lon":8.597506,"name":"AWO Pflegedienst GmbH -Ursula Kaltenstein Akademie für Gesundheit und Pflege","official_id":"957","phone":"0471/9547-0","school_type":"Private berufsbildende Schule","school_type_entity":"Private berufsbildende Schule","state":"HB"}]