[{"address":"Heinrich-Heine-Straße 3, 18119 Rostock","fax":"0381/3755641","full_time_school":false,"id":"MV-75130301","lat":54.178813,"lon":12.083263,"name":"Grundschule \"Heinrich Heine\", Rostock","official_id":"75130301","phone":"0381/52607","school_type":"Grundschule","school_type_entity":"Grundschule","state":"MV"},{"address":"Turkuer Straße 59 a, 18107 Rostock","fax":"0381/1284843","full_time_school":false,"id":"MV-75130302","lat":54.145159,"lon":12.051724,"name":"Grundschule \"Lütt Matten\", Rostock","official_id":"75130302","phone":"0381/713030","school_type":"Grundschule","school_type_entity":"Grundschule","state":"MV"},{"address":"Kopenhagener Straße 3, 18107 Rostock","fax":"0381/7787404","full_time_school":false,"id":"MV-75130303","lat":54.133566,"lon":12.050251,"name":"Grundschule \"Kleine Birke\", Rostock","official_id":"75130303","phone":"0381/711123","school_type":"Grundschule","school_type_entity":"Grundschule","state":"MV"},{"address":"M.-Gorki-Straße 69, 18106 Rostock","fax":"0381/1284968","full_time_school":false,"id":"MV-75130305","lat":54.128791,"lon":12.045536,"name":"Grundschule \"Am Mühlenteich\", Rostock","official_id":"75130305","phone":"0381/7998603","school_type":"Grundschule","school_type_entity":"Grundschule","state":"MV"},{"address":"St.-Jantzen-Ring 5, 18106 Rostock","fax":"0381/1217142","full_time_school":false,"id":"MV-75130306","lat":54.133017,"lon":12.069678,"name":"Grundschule Schmarl, Rostock","official_id":"75130306","phone":"0381/1200917","school_type":"Grundschule","school_type_entity":"Grundschule","state":"MV"},{"address":"Taklerring 44, 18109 Rostock","fax":"0381/1215518","full_time_school":false,"id":"MV-75130308","lat":54.1509,"lon":12.079674,"name":"Grundschule \"Am Taklerring\", Rostock","official_id":"75130308","phone":"0381/1201063","school_type":"Grundschule","school_type_entity":"Grundschule","state":"MV"},{"address":"St.-Georg-Straße 63c, 18055 Rostock","fax":"0381/38141263","full_time_school":false,"id":"MV-75130311","lat":54.083334,"lon":12.128663,"name":"St. Georg-Grundschule, Rostock","official_id":"75130311","phone":"0381/38141260","school_type":"Grundschule","school_type_entity":"Grundschule","state":"MV"},{"address":"Barnstorfer Weg 21a, 18057 Rostock","fax":"0381/2032809","full_time_school":false,"id":"MV-75130312","lat":54.087608,"lon":12.116583,"name":"Grundschule am Margaretenplatz, Rostock","official_id":"75130312","phone":"0381/4923583","school_type":"Grundschule","school_type_entity":"Grundschule","state":"MV"},{"address":"Elisabethstraße 27, 18057 Rostock","fax":"0381/38141083","full_time_school":false,"id":"MV-75130313","lat":54.090887,"lon":12.108601,"name":"\"Werner-Lindemann-Grundschule\", Rostock","official_id":"75130313","phone":"0381/38141081","school_type":"Grundschule","school_type_entity":"Grundschule","state":"MV"},{"address":"Joseph-Herzfeld-Straße  19, 18059 Rostock","fax":"0381/4010034","full_time_school":false,"id":"MV-75130314","lat":54.074436,"lon":12.11422,"name":"Grundschule \"Juri-Gagarin\", Rostock","official_id":"75130314","phone":"0381/4010033","school_type":"Grundschule","school_type_entity":"Grundschule","state":"MV"},{"address":"W.-Butzek-Straße 23, 18146 Rostock","fax":"0381/6864879","full_time_school":false,"id":"MV-75130318","lat":54.08333,"lon":12.13333,"name":"Grundschule \"Ostseekinder\", Rostock","official_id":"75130318","phone":"0381/6864982","school_type":"Grundschule","school_type_entity":"Grundschule","state":"MV"},{"address":"P.-Picasso-Straße 44, 18147 Rostock","fax":"0381/6668062","full_time_school":false,"id":"MV-75130326","lat":54.141544,"lon":12.11541,"name":"\"Grundschule an den Weiden\",  Rostock-Toitenwinkel","official_id":"75130326","phone":"0381/697093","school_type":"Grundschule","school_type_entity":"Grundschule","state":"MV"},{"address":"Ratzeburger Straße 9, 18109 Rostock","fax":"0381/4405810","full_time_school":false,"id":"MV-75130327","lat":54.147203,"lon":12.059031,"name":"Grundschule \"Rudolf Tarnow\", Rostock","official_id":"75130327","phone":"0381/715101","school_type":"Grundschule","school_type_entity":"Grundschule","state":"MV"},{"address":"V.-Grip-Weg 10a, 18055 Rostock","fax":"0381/3643332","full_time_school":false,"id":"MV-75130342","lat":54.08333,"lon":12.13333,"name":"Grundschule \"John Brinckman\", Rostock","official_id":"75130342","phone":"0381/695425","school_type":"Grundschule","school_type_entity":"Grundschule","state":"MV"},{"address":"Pressentinstraße 82, 18147 Rostock","fax":"0381/6664522","full_time_school":false,"id":"MV-75130343","lat":54.10671,"lon":12.113741,"name":"Gehlsdorfer Grundschule, Rostock","official_id":"75130343","phone":"0381/699276","school_type":"Grundschule","school_type_entity":"Grundschule","state":"MV"},{"address":"J.-Schehr-Straße 10, 18069 Rostock","fax":"0381/1288834","full_time_school":false,"id":"MV-75130357","lat":54.12529465,"lon":12.079351500000001,"name":"\"Türmchenschule\"  Reutershagen, Grundschule","official_id":"75130357","phone":"0381/82013","school_type":"Grundschule","school_type_entity":"Grundschule","state":"MV"},{"address":"Mathias-Thesen-Straße 17, 18069 Rostock","fax":"0381/8087464","full_time_school":false,"id":"MV-75130358","lat":54.101534,"lon":12.067086,"name":"Grundschule Reutershagen \"Nordwindkinner\"","official_id":"75130358","phone":"0381/8087463","school_type":"Grundschule","school_type_entity":"Grundschule","state":"MV"},{"address":"Pablo-Picasso-Straße 45, 18147 Rostock","fax":"0381/6664967","full_time_school":false,"id":"MV-75230378","lat":54.116157,"lon":12.140338,"name":"\"Schule am Schäferteich\" - Schule mit dem Förderschwerpunkt Lernen - Regionales Förderzentrum Toitenwinkel","official_id":"75230378","phone":"0381/690283","school_type":"Förderschule","school_type_entity":"Förderschule","state":"MV"},{"address":"Kuphalstraße 78, 18069 Rostock","fax":"0381/8087337","full_time_school":false,"id":"MV-75230379","lat":54.095658,"lon":12.087374,"name":"Förderzentrum am Schwanenteich - Schule mit dem Förderschwerpunkt Lernen","official_id":"75230379","phone":"0381/82370","school_type":"Förderschule","school_type_entity":"Förderschule","state":"MV"},{"address":"Gehlsheimer Straße 20, 18147 Rostock","fax":"0381/6707152","full_time_school":false,"id":"MV-75230380","lat":54.102535,"lon":12.131545,"name":"\"Heinrich-Hoffmann-Schule\" - Schule mit dem Förderschwerpunkt Unterricht kranker Schülerinnen und Schüler","official_id":"75230380","phone":"0381/6707150","school_type":"Förderschule","school_type_entity":"Förderschule","state":"MV"},{"address":"Danziger Straße 45, 18107 Rostock","fax":"0381/7787239","full_time_school":false,"id":"MV-75230381","lat":54.143905,"lon":12.053075,"name":"Förderzentrum an der Danziger Straße - Schule mit dem Förderschwerpunkt Lernen","official_id":"75230381","phone":"0381/713045","school_type":"Förderschule","school_type_entity":"Förderschule","state":"MV"},{"address":"Alter Markt 1, 18055 Rostock","fax":"0381/38141033","full_time_school":false,"id":"MV-75230383","lat":54.089663,"lon":12.147415,"name":"\"Schule am Alten Markt\" - Schule mit dem Förderschwerpunkt Sprache","official_id":"75230383","phone":"0381/4008350","school_type":"Förderschule","school_type_entity":"Förderschule","state":"MV"},{"address":"Semmelweisstraße 3, 18059 Rostock","fax":"0381/4403422","full_time_school":false,"id":"MV-75230384","lat":54.063669,"lon":12.12413,"name":"Schulzentrum Paul-Friedrich-Scheel-Schule - Schule mit dem Förderschwerpunkt körperliche und motorische Entwicklung und Grundschulteil","official_id":"75230384","phone":"0381/440340","school_type":"Förderschule","school_type_entity":"Förderschule","state":"MV"},{"address":"Helsinkier Straße 20, 18107 Rostock","fax":"0381/2074940","full_time_school":false,"id":"MV-75230385","lat":54.135852,"lon":12.055087,"name":"\"Warnowschule Rostock\" Schule mit dem Förderschwerpunkt geistige Entwicklung\nSchule zur individuellen Lebensbewältigung Rostock","official_id":"75230385","phone":"0381/711429","school_type":"Förderschule","school_type_entity":"Förderschule","state":"MV"},{"address":"Blücherstraße 42, 18055 Rostock","fax":"0381/2079727","full_time_school":false,"id":"MV-75230388","lat":54.077974,"lon":12.142998,"name":"Förderzentrum am Wasserturm - Schule mit dem Förderschwerpunkt emotionale und soziale Entwicklung","official_id":"75230388","phone":"0381/712288","school_type":"Förderschule","school_type_entity":"Förderschule","state":"MV"},{"address":"Thomas-Morus-Straße 1-3, 18106 Rostock","fax":"0381/7998862","full_time_school":false,"id":"MV-75330361","lat":54.1245684,"lon":12.0539307,"name":"Schulcampus Evershagen, Kooperative Gesamtschule","official_id":"75330361","phone":"0381/7998861","school_type":"Kooperative Gesamtschule","school_type_entity":"Kooperative Gesamtschule","state":"MV"},{"address":"Am Kabutzenhof 8, 18057 Rostock","fax":"0381/38141041","full_time_school":false,"id":"MV-75330372","lat":54.090722,"lon":12.110788,"name":"Integrierte Gesamtschule \"Borwinschule\"","official_id":"75330372","phone":"0381/2003553","school_type":"Integrierte Gesamtschule","school_type_entity":"Integrierte Gesamtschule","state":"MV"},{"address":"Sternberger Straße 10, 18109 Rostock","fax":"0381/7691122","full_time_school":false,"id":"MV-75330374","lat":54.156198,"lon":12.058898,"name":"Hundertwasser-Gesamtschule Rostock, Integrierte Gesamtschule","official_id":"75330374","phone":"0381/711173","school_type":"Integrierte Gesamtschule","school_type_entity":"Integrierte Gesamtschule","state":"MV"},{"address":"P.-Picasso-Straße 43, 18147 Rostock","fax":"0381/6664536","full_time_school":false,"id":"MV-75330391","lat":54.141544,"lon":12.11541,"name":"\"Baltic-Schule\" Toitenwinkel\nIntegrierte Gesamtschule mit Regionaler Schule im Aufbau","official_id":"75330391","phone":"0381/697092","school_type":"Integrierte Gesamtschule mit Regionaler Schule im Aufbau","school_type_entity":"Integrierte Gesamtschule","state":"MV"},{"address":"Mendelejewstraße 12a, 18059 Rostock","fax":"0381/40480014","full_time_school":false,"id":"MV-75330392","lat":54.073195,"lon":12.127455,"name":"Gesamtschule Südstadt, Kooperative Gesamtschule","official_id":"75330392","phone":"0381/4048000","school_type":"Kooperative Gesamtschule","school_type_entity":"Kooperative Gesamtschule","state":"MV"},{"address":"Lindenstraße 3a, 18055 Rostock","fax":"0381/38141091","full_time_school":false,"id":"MV-75330393","lat":54.084472,"lon":12.14282,"name":"Jenaplanschule Rostock, Integrierte Gesamtschule mit Grundschule","official_id":"75330393","phone":"0381/2007523","school_type":"Integrierte Gesamtschule mit Grundschule","school_type_entity":"Integrierte Gesamtschule","state":"MV"},{"address":"H.-Schütz-Straße 10a, 18069 Rostock","fax":"0381/8002374","full_time_school":false,"id":"MV-75430337","lat":54.092933,"lon":12.08909,"name":"Regionale Schule \"Heinrich-Schütz\", Rostock","official_id":"75430337","phone":"0381/83910","school_type":"Regionale Schule","school_type_entity":"Regionale Schule","state":"MV"},{"address":"Taklerring 43, 18109 Rostock","fax":"0381/1215933","full_time_school":false,"id":"MV-75430348","lat":54.150888,"lon":12.078643,"name":"Regionale Schule \"Störtebeker-Schule\", Rostock","official_id":"75430348","phone":"0381/1200928","school_type":"Regionale Schule","school_type_entity":"Regionale Schule","state":"MV"},{"address":"Ratzeburger Straße 9, 18109 Rostock","fax":"0381/2074355","full_time_school":false,"id":"MV-75430353","lat":54.147203,"lon":12.059031,"name":"Regionale Schule \"Nordlicht-Schule\", Rostock","official_id":"75430353","phone":"0381/711066","school_type":"Regionale Schule","school_type_entity":"Regionale Schule","state":"MV"},{"address":"B.-von-Suttner-Ring 1 a, 18147 Rostock","fax":"0381/6095040","full_time_school":false,"id":"MV-75430355","lat":54.110939,"lon":12.140801,"name":"Regionale Schule \"Otto-Lilienthal-Schule\", Rostock","official_id":"75430355","phone":"0381/609500","school_type":"Regionale Schule","school_type_entity":"Regionale Schule","state":"MV"},{"address":"St.-Jantzen-Ring 6, 18106 Rostock","fax":"0381/1214286","full_time_school":false,"id":"MV-75430376","lat":54.132623,"lon":12.070225,"name":"Krusensternschule Rostock, Regionale Schule","official_id":"75430376","phone":"0381/1214284","school_type":"Regionale Schule","school_type_entity":"Regionale Schule","state":"MV"},{"address":"Kopenhagener Straße 3, 18107 Rostock","fax":"0381/7998754","full_time_school":false,"id":"MV-75530359","lat":54.133566,"lon":12.050251,"name":"Erasmus-Gymnasium Rostock","official_id":"75530359","phone":"0381/7998821","school_type":"Gymnasium","school_type_entity":"Gymnasium","state":"MV"},{"address":"Mathias-Thesen-Straße 17, 18069 Rostock","fax":"0381/8087473","full_time_school":false,"id":"MV-75530363","lat":54.101534,"lon":12.067086,"name":"Gymnasium Reutershagen","official_id":"75530363","phone":"0381/82060","school_type":"Gymnasium","school_type_entity":"Gymnasium","state":"MV"},{"address":"Goetheplatz 5, 18055 Rostock","fax":"0381/38141013","full_time_school":false,"id":"MV-75530365","lat":54.081372,"lon":12.128044,"name":"Innerstädtisches Gymnasium Rostock","official_id":"75530365","phone":"0381/38141010","school_type":"Gymnasium","school_type_entity":"Gymnasium","state":"MV"},{"address":"Heinrich-Tessenow-Straße 47, 18146 Rostock","fax":"0381/6095139","full_time_school":false,"id":"MV-75530369","lat":54.103579,"lon":12.162926,"name":"Käthe-Kollwitz-Gymnasium Rostock","official_id":"75530369","phone":"0381/609510","school_type":"Gymnasium","school_type_entity":"Gymnasium","state":"MV"},{"address":"Goetheplatz 5, 18055 Rostock","fax":"0381/38141023","full_time_school":false,"id":"MV-75530390","lat":54.081372,"lon":12.128044,"name":"Abendgymnasium Rostock","official_id":"75530390","phone":"0381/38141020","school_type":"Abendgymnasium","school_type_entity":"Abend-Gymnasium","state":"MV"},{"address":"Beethovenstraße 3, 18209 Bad Doberan","fax":"038203/742299","full_time_school":false,"id":"MV-75135101","lat":54.107066,"lon":11.903678,"name":"Lessing-Grundschule Bad Doberan","official_id":"75135101","phone":"038203/742290","school_type":"Grundschule","school_type_entity":"Grundschule","state":"MV"},{"address":"Stralsunder Straße 58, 18182 Bentwisch","fax":"0381/66673884","full_time_school":false,"id":"MV-75135102","lat":54.114136,"lon":12.202387,"name":"Grundschule Bentwisch","official_id":"75135102","phone":"0381/66673855","school_type":"Grundschule","school_type_entity":"Grundschule","state":"MV"},{"address":"Am Feldrain 16, 18196 Dummerstorf","fax":"038208/82548","full_time_school":false,"id":"MV-75135105","lat":54.014684,"lon":12.232728,"name":"Grundschule Dummerstorf","official_id":"75135105","phone":"038208/280","school_type":"Grundschule","school_type_entity":"Grundschule","state":"MV"},{"address":"Ostseering 24, 18181 Graal-Müritz","fax":"038206/78192","full_time_school":false,"id":"MV-75135107","lat":54.25094,"lon":12.246359,"name":"\"Ostsee-Grundschule\"  Graal-Müritz","official_id":"75135107","phone":"038206/77288","school_type":"Grundschule","school_type_entity":"Grundschule","state":"MV"},{"address":"Schulstraße 1, 18236 Kröpelin","fax":"038292/79847","full_time_school":false,"id":"MV-75135109","lat":54.067727,"lon":11.798977,"name":"Grundschule \"Am Mühlenberg\" Kröpelin","official_id":"75135109","phone":"038292/79846","school_type":"Grundschule","school_type_entity":"Grundschule","state":"MV"},{"address":"Hermannstraße 9, 18225 Kühlungsborn","fax":"038293/877295","full_time_school":false,"id":"MV-75135111","lat":54.14874,"lon":11.732012,"name":"Grundschule \"Fritz Reuter\" Kühlungsborn","official_id":"75135111","phone":"038293/7767","school_type":"Grundschule","school_type_entity":"Grundschule","state":"MV"},{"address":"Panzower Weg 23a, 18233 Neubukow","fax":"038294/16559","full_time_school":false,"id":"MV-75135113","lat":54.027075,"lon":11.670037,"name":"Grundschule \"Am Hellbach\", Neubukow","official_id":"75135113","phone":"038294/78422","school_type":"Grundschule","school_type_entity":"Grundschule","state":"MV"},{"address":"Schulstraße 6, 18182 Rövershagen","fax":"038202/44577","full_time_school":false,"id":"MV-75135114","lat":54.175945,"lon":12.243587,"name":"Grundschule \" De Likedeeler\", Rövershagen","official_id":"75135114","phone":"038202/2096","school_type":"Grundschule","school_type_entity":"Grundschule","state":"MV"},{"address":"Dorfstraße 40, 18107 Lichtenhagen","fax":"0381/7955281","full_time_school":false,"id":"MV-75135116","lat":54.141924,"lon":12.032374,"name":"Grundschule Lichtenhagen-Dorf","official_id":"75135116","phone":"0381/717125","school_type":"Grundschule","school_type_entity":"Grundschule","state":"MV"},{"address":"Groß Lüsewitzer Weg 5, 18190 Sanitz","fax":"038209/875028","full_time_school":false,"id":"MV-75135117","lat":54.07182,"lon":12.369378,"name":"Grundschule Sanitz","official_id":"75135117","phone":"038209/290","school_type":"Grundschule","school_type_entity":"Grundschule","state":"MV"},{"address":"Lange Straße 44, 18195 Tessin","fax":"038205/13204","full_time_school":false,"id":"MV-75135119","lat":54.028442,"lon":12.468008,"name":"Grundschule an der Recknitz, Tessin","official_id":"75135119","phone":"038205/13204","school_type":"Grundschule","school_type_entity":"Grundschule","state":"MV"},{"address":"Schulweg 5, 18182 Blankenhagen","fax":"038201/60649","full_time_school":false,"id":"MV-75135121","lat":54.170586,"lon":12.343432,"name":"Grundschule Blankenhagen","official_id":"75135121","phone":"038201/847","school_type":"Grundschule","school_type_entity":"Grundschule","state":"MV"},{"address":"Rostocker Straße 22, 18209 Parkentin","fax":"038203/735257","full_time_school":false,"id":"MV-75135125","lat":54.103668,"lon":11.908879,"name":"Grundschule Parkentin","official_id":"75135125","phone":"038203/63763","school_type":"Grundschule","school_type_entity":"Grundschule","state":"MV"},{"address":"An der Schule 32, 18184 Broderstorf","fax":"038204/15235","full_time_school":false,"id":"MV-75135137","lat":54.078392,"lon":12.297171,"name":"Grundschule an der Carbäk, Broderstorf","official_id":"75135137","phone":"038204/15235","school_type":"Grundschule","school_type_entity":"Grundschule","state":"MV"},{"address":"Schulweg 1d, 18198 Kritzmow","fax":"038207/769851","full_time_school":false,"id":"MV-75135138","lat":54.05683,"lon":12.051058,"name":"Regenbogenkinder Grundschule Kritzmow","official_id":"75135138","phone":"038207/769850","school_type":"Grundschule","school_type_entity":"Grundschule","state":"MV"},{"address":"Kröpeliner Straße 5, 18230 Rerik","fax":"038296/78235","full_time_school":false,"id":"MV-75135140","lat":54.105555,"lon":11.616466,"name":"Grundschule Rerik","official_id":"75135140","phone":"038296/78237","school_type":"Grundschule","school_type_entity":"Grundschule","state":"MV"},{"address":"Schlossplatz 3, 18246 Bützow","fax":"038461/911280","full_time_school":false,"id":"MV-75135304","lat":53.85,"lon":11.98333,"name":"Grundschule und Freizeithaus am Schlossplatz, Bützow","official_id":"75135304","phone":"038461/52006","school_type":"Grundschule","school_type_entity":"Grundschule","state":"MV"},{"address":"Teterower Straße 11 b, 17179 Gnoien","fax":"039971/30610","full_time_school":false,"id":"MV-75135306","lat":53.969108,"lon":12.707836,"name":"Grundschule \"Johann Wolfgang von Goethe\", Gnoien","official_id":"75135306","phone":"039971/12239","school_type":"Grundschule","school_type_entity":"Grundschule","state":"MV"},{"address":"Wendenstraße 14, 18273 Güstrow","fax":"03843/218666","full_time_school":false,"id":"MV-75135309","lat":53.804596,"lon":12.190816,"name":"2. GS \"Fritz Reuter\", Güstrow","official_id":"75135309","phone":"03843/213015","school_type":"Grundschule","school_type_entity":"Grundschule","state":"MV"},{"address":"Heiligengeisthof 4, 18273 Güstrow","fax":"03843/680627","full_time_school":false,"id":"MV-75135310","lat":53.791647,"lon":12.178182,"name":"1. GS \"G. F. Kersting\", Güstrow","official_id":"75135310","phone":"03843/682304","school_type":"Grundschule","school_type_entity":"Grundschule","state":"MV"},{"address":"Schulkamp 5, 17166 Teterow","fax":"03996/152853","full_time_school":false,"id":"MV-75135317","lat":53.773957,"lon":12.570114,"name":"Grundschule Teterow","official_id":"75135317","phone":"03996/120640","school_type":"Grundschule","school_type_entity":"Grundschule","state":"MV"},{"address":"Karl-Hawermann-Straße 12b, 18299 Diekhof","fax":"038455/20664","full_time_school":false,"id":"MV-75135331","lat":53.861196,"lon":12.361754,"name":"Grundschule am Schmooksberg, Diekhof","official_id":"75135331","phone":"038455/20654","school_type":"Grundschule","school_type_entity":"Grundschule","state":"MV"},{"address":"Hafenstraße 13, 18273 Güstrow","fax":"03843/683074","full_time_school":false,"id":"MV-75135335","lat":53.7991,"lon":12.168858,"name":"3. GS \"Schule am Hasenwald\", Güstrow","official_id":"75135335","phone":"03843/684046","school_type":"Grundschule","school_type_entity":"Grundschule","state":"MV"},{"address":"Schwaaner Straße 38, 18276 Lüssow","fax":"03843/219639","full_time_school":false,"id":"MV-75135343","lat":53.843999,"lon":12.139861,"name":"Grundschule Lüssow","official_id":"75135343","phone":"03843/214195","school_type":"Grundschule","school_type_entity":"Grundschule","state":"MV"},{"address":"Mühlenstraße 84, 18249 Warnow","fax":"038462/28244","full_time_school":false,"id":"MV-75135347","lat":53.786851,"lon":11.87828,"name":"Grundschule Warnow","official_id":"75135347","phone":"038462/24248","school_type":"Grundschule","school_type_entity":"Grundschule","state":"MV"},{"address":"Bollhäger Weg 2, 18209 Bad Doberan","fax":"038203/14606","full_time_school":false,"id":"MV-75235147","lat":54.109583,"lon":11.888785,"name":"Schule mit dem Förderschwerpunkt Lernen Bad Doberan","official_id":"75235147","phone":"038203/62575","school_type":"Förderschule","school_type_entity":"Förderschule","state":"MV"},{"address":"Dr.-Leber-Straße 14, 18181 Graal-Müritz","fax":"038206/77813","full_time_school":false,"id":"MV-75235148","lat":54.250903,"lon":12.238556,"name":"Schule mit den Förderschwerpunkten Lernen und geistige Entwicklung Graal-Müritz","official_id":"75235148","phone":"038206/772 12","school_type":"Förderschule","school_type_entity":"Förderschule","state":"MV"},{"address":"Ehm-Welk-Straße 26, 18209 Bad Doberan","fax":"038203/735254","full_time_school":false,"id":"MV-75235151","lat":54.104373,"lon":11.91678,"name":"Schule mit dem Förderschwerpunkt geistige Entwicklung Bad Doberan","official_id":"75235151","phone":"038203/65202","school_type":"Förderschule","school_type_entity":"Förderschule","state":"MV"},{"address":"Dr.-Winckler-Straße, 18246 Bützow","fax":"038461/69015","full_time_school":false,"id":"MV-75235355","lat":53.8455828,"lon":11.9590493,"name":"Förderzentrum Bützow - Schule mit dem Förderschwerpunkt Lernen","official_id":"75235355","phone":"038461/69013","school_type":"Förderschule","school_type_entity":"Förderschule","state":"MV"},{"address":"Ahornpromenade 1, 18273 Güstrow","fax":"03843/245443","full_time_school":false,"id":"MV-75235357","lat":53.807427,"lon":12.192265,"name":"Schule mit dem Förderschwerpunkt Lernen","official_id":"75235357","phone":"03843/331044","school_type":"Förderschule","school_type_entity":"Förderschule","state":"MV"},{"address":"Niels-Stensen-Straße 4, 17166 Teterow","fax":"03996/140729","full_time_school":false,"id":"MV-75235358","lat":53.769047,"lon":12.573763,"name":"Schule mit den Förderschwerpunkten Lernen und geistige Entwicklung","official_id":"75235358","phone":"03996/172065","school_type":"Förderschule","school_type_entity":"Förderschule","state":"MV"},{"address":"Plauer Chaussee 6, 18273 Güstrow","fax":"03843/831326","full_time_school":false,"id":"MV-75235359","lat":53.786446,"lon":12.20838,"name":"Landesförderzentrum für den Förderschwerpunkt \"Hören\" M-V","official_id":"75235359","phone":"03843/83130","school_type":"Förderschule","school_type_entity":"Förderschule","state":"MV"},{"address":"Neue Reihe 73a, 18225 Kühlungsborn","fax":"038293/14844","full_time_school":false,"id":"MV-75335143","lat":54.14734,"lon":11.73311,"name":"\"Schulzentrum Kühlungsborn\"\nVerb. Regionale Schule und Gymnasium","official_id":"75335143","phone":"038293/7292","school_type":"Kooperative Gesamtschule","school_type_entity":"Kooperative Gesamtschule","state":"MV"},{"address":"Köhlerstrat 9, 18182 Rövershagen","fax":"038202/36117","full_time_school":false,"id":"MV-75335145","lat":54.177689,"lon":12.239023,"name":"Verb. Regionalschule und Gymnasium Rövershagen - Europaschule","official_id":"75335145","phone":"038202/36116","school_type":"Kooperative Gesamtschule","school_type_entity":"Kooperative Gesamtschule","state":"MV"},{"address":"Schulstraße 13, 18299 Laage","fax":"038459/667829","full_time_school":false,"id":"MV-75335321","lat":53.922044,"lon":12.348554,"name":"RecknitzCampus Laage, Kooperative Gesamtschule mit Grundschule ","official_id":"75335321","phone":"038459/66780","school_type":"Kooperative Gesamtschule mit Grundschule","school_type_entity":"Kooperative Gesamtschule","state":"MV"},{"address":"Am Feldrain 16, 18196 Dummerstorf","fax":"038208/60207","full_time_school":false,"id":"MV-75435123","lat":54.014684,"lon":12.232728,"name":"Regionale Schule Dummerstorf","official_id":"75435123","phone":"038208/594","school_type":"Regionale Schule","school_type_entity":"Regionale Schule","state":"MV"},{"address":"Schulstraße 5, 18211 Rethwisch","fax":"038203/81130","full_time_school":false,"id":"MV-75435126","lat":54.139187,"lon":11.938368,"name":"Regionale Schule mit Grundschule Rethwisch","official_id":"75435126","phone":"038203/81130","school_type":"Regionale Schule mit Grundschule","school_type_entity":"Regionale Schule","state":"MV"},{"address":"Panzower Weg 38, 18233 Neubukow","fax":"038294/78870","full_time_school":false,"id":"MV-75435130","lat":54.028927,"lon":11.671853,"name":"Regionale Schule \"Heinrich Schliemann\"","official_id":"75435130","phone":"038294/78257","school_type":"Regionale Schule","school_type_entity":"Regionale Schule","state":"MV"},{"address":"John-Brinckman-Straße 16, 18190 Sanitz","fax":"038209/49868","full_time_school":false,"id":"MV-75435131","lat":54.073549,"lon":12.374049,"name":"Regionale Schule Sanitz","official_id":"75435131","phone":"038209/241","school_type":"Regionale Schule","school_type_entity":"Regionale Schule","state":"MV"},{"address":"Rudolf-Breitscheid-Straße 16, 18258 Schwaan","fax":"03844/813736","full_time_school":false,"id":"MV-75435132","lat":53.93841,"lon":12.105254,"name":"Regionale Schule mit Grundschulteil Schwaan","official_id":"75435132","phone":"03844/813695","school_type":"Regionale Schule mit Grundschule","school_type_entity":"Regionale Schule","state":"MV"},{"address":"St. Jürgen-Straße 61, 18195 Tessin","fax":"038205/78702","full_time_school":false,"id":"MV-75435133","lat":54.024085,"lon":12.459365,"name":"Regionale Schule \"Anne Frank\", Tessin","official_id":"75435133","phone":"038205/13323","school_type":"Regionale Schule","school_type_entity":"Regionale Schule","state":"MV"},{"address":"Beethovenstraße 1, 18209 Bad Doberan","fax":"038203/736683","full_time_school":false,"id":"MV-75435135","lat":54.107125,"lon":11.903733,"name":"Regionale Schule \"Am Kamp\", Bad Doberan","official_id":"75435135","phone":"038203/62062","school_type":"Regionale Schule","school_type_entity":"Regionale Schule","state":"MV"},{"address":"Ehm-Welk-Straße 24, 18209 Bad Doberan","fax":"038203/734593","full_time_school":false,"id":"MV-75435136","lat":54.10371,"lon":11.918346,"name":"Regionale Schule mit Grundschule  Buchenberg, Bad Doberan","official_id":"75435136","phone":"038203/65206","school_type":"Regionale Schule mit Grundschule","school_type_entity":"Regionale Schule","state":"MV"},{"address":"Schulstraße 5, 18059 Papendorf","fax":"0381/4003902","full_time_school":false,"id":"MV-75435139","lat":54.03376,"lon":12.132217,"name":"Regionale Schule mit Grundschule \"Warnowschule\", Papendorf","official_id":"75435139","phone":"0381/4000355","school_type":"Regionale Schule mit Grundschule","school_type_entity":"Regionale Schule","state":"MV"},{"address":"Seestraße 9, 18239 Satow","fax":"038295/777914","full_time_school":false,"id":"MV-75435141","lat":53.993953,"lon":11.892047,"name":"Regionale Schule mit Grundschule \"Schule am See\", Satow","official_id":"75435141","phone":"038295/77790","school_type":"Regionale Schule mit Grundschule","school_type_entity":"Regionale Schule","state":"MV"},{"address":"Dr.-Winkler-Straße 1, 18246 Bützow","fax":"038461/52295","full_time_school":false,"id":"MV-75435320","lat":53.85,"lon":11.98333,"name":"Käthe-Kollwitz-Schule, Regionale Schule, Bützow","official_id":"75435320","phone":"038461/2396","school_type":"Regionale Schule","school_type_entity":"Regionale Schule","state":"MV"},{"address":"Trotschestraße 8, 18273 Güstrow","fax":"03843/680633","full_time_school":false,"id":"MV-75435322","lat":53.798979,"lon":12.169734,"name":"2. Regionale Schule \"Richard Wossidlo\", Güstrow","official_id":"75435322","phone":"03843/681093","school_type":"Regionale Schule","school_type_entity":"Regionale Schule","state":"MV"},{"address":"Schützenplatz 10, 17179 Gnoien","fax":"039971/30611","full_time_school":false,"id":"MV-75435328","lat":53.972388,"lon":12.702682,"name":"Warbel-Schule Gnoien, Regionale Schule","official_id":"75435328","phone":"039971/12117","school_type":"Regionale Schule","school_type_entity":"Regionale Schule","state":"MV"},{"address":"Schulstraße 7, 18249 Bernitt","fax":"038464/22858","full_time_school":false,"id":"MV-75435330","lat":53.903285,"lon":11.894342,"name":"Regionale Schule mit Grundschule Bernitt","official_id":"75435330","phone":"038464/20250","school_type":"Regionale Schule mit Grundschule","school_type_entity":"Regionale Schule","state":"MV"},{"address":"Werner-Seelenbinder-Straße 1, 18273 Güstrow","fax":"03843/344567","full_time_school":false,"id":"MV-75435333","lat":53.774185,"lon":12.18103,"name":"5. Regionale Schule \"Schule am Inselsee\", Güstrow","official_id":"75435333","phone":"03843/331142","school_type":"Regionale Schule mit Grundschule","school_type_entity":"Regionale Schule","state":"MV"},{"address":"Wendenstraße 13, 18273 Güstrow","fax":"03843/211123","full_time_school":false,"id":"MV-75435334","lat":53.803909,"lon":12.190593,"name":"3. Regionalschule \"Thomas Müntzer\", Güstrow","official_id":"75435334","phone":"03843/214075","school_type":"Regionale Schule","school_type_entity":"Regionale Schule","state":"MV"},{"address":"Klenzer Weg 6, 17168 Jördenstorf","fax":"039977/30314","full_time_school":false,"id":"MV-75435338","lat":53.87674,"lon":12.619305,"name":"Johann-Heinrich-von-Thünen-Schule \nRegionale Schule mit Grundschule, Jördenstorf","official_id":"75435338","phone":"039977/30224","school_type":"Regionale Schule mit Grundschule","school_type_entity":"Regionale Schule","state":"MV"},{"address":"Dobbiner Chaussee 7, 18292 Krakow am See","fax":"038457/22242","full_time_school":false,"id":"MV-75435339","lat":53.6478,"lon":12.273376,"name":"Regionale Schule Krakow am See mit Grundschule","official_id":"75435339","phone":"038457/22241","school_type":"Regionale Schule mit Grundschule","school_type_entity":"Regionale Schule","state":"MV"},{"address":"Schulstraße 15, 18279 Lalendorf","fax":"038452/22347","full_time_school":false,"id":"MV-75435341","lat":53.75716,"lon":12.389669,"name":"Johann-Pogge-Schule, Regionale Schule mit Grundschule, Lalendorf","official_id":"75435341","phone":"038452/20241","school_type":"Regionale Schule mit Grundschule","school_type_entity":"Regionale Schule","state":"MV"},{"address":"Straße der Freundschaft 5, 17166 Teterow","fax":"03996/158618","full_time_school":false,"id":"MV-75435346","lat":53.773102,"lon":12.583507,"name":"Regionale Schule Teterow","official_id":"75435346","phone":"03996/158600","school_type":"Regionale Schule","school_type_entity":"Regionale Schule","state":"MV"},{"address":"Dorfstraße 49, 18276 Zehna","fax":"038458/20234","full_time_school":false,"id":"MV-75435348","lat":53.716356,"lon":12.133358,"name":"Regionale Schule mit Grundschule Zehna","official_id":"75435348","phone":"038458/20214","school_type":"Regionale Schule mit Grundschule","school_type_entity":"Regionale Schule","state":"MV"},{"address":"Alexandrinenplatz 11, 18209 Bad Doberan","fax":"038203/17149","full_time_school":false,"id":"MV-75535142","lat":54.104877,"lon":11.903134,"name":"Friderico-Francisceum, Gymnasium Bad Doberan","official_id":"75535142","phone":"038203/62395","school_type":"Gymnasium","school_type_entity":"Gymnasium","state":"MV"},{"address":"Groß Lüsewitzer Weg 4, 18190 Sanitz","fax":"038209/80493","full_time_school":false,"id":"MV-75535146","lat":54.072436,"lon":12.371758,"name":"Gymnasium Sanitz","official_id":"75535146","phone":"038209/80492","school_type":"Gymnasium","school_type_entity":"Gymnasium","state":"MV"},{"address":"Dr.-Winckler-Straße, 18246 Bützow","fax":"038461/52295","full_time_school":false,"id":"MV-75535349","lat":53.8455828,"lon":11.9590493,"name":"Geschwister-Scholl-Gymnasium Bützow","official_id":"75535349","phone":"038461/4301","school_type":"Gymnasium","school_type_entity":"Gymnasium","state":"MV"},{"address":"Am Wall 6, 18273 Güstrow","fax":"03843/686697","full_time_school":false,"id":"MV-75535351","lat":53.791308,"lon":12.171831,"name":"Gymnasium \"John Brinckman\", Güstrow","official_id":"75535351","phone":"03843/686693","school_type":"Gymnasium","school_type_entity":"Gymnasium","state":"MV"},{"address":"Constantin-Kirchhoff-Straße 6, 17166 Teterow","fax":"03996/120685","full_time_school":false,"id":"MV-75535354","lat":53.775935,"lon":12.562349,"name":"Europaschule Gymnasium Teterow","official_id":"75535354","phone":"03996/120683","school_type":"Gymnasium","school_type_entity":"Gymnasium","state":"MV"},{"address":"Am Wirtschaftshof 10, 19300 Balow","fax":"038752/80713","full_time_school":false,"id":"MV-75135402","lat":53.265782,"lon":11.718834,"name":"Grundschule Balow","official_id":"75135402","phone":"038752/80713","school_type":"Grundschule","school_type_entity":"Grundschule","state":"MV"},{"address":"R.-Breitscheid-Straße 32, 19258 Boizenburg/Elbe","fax":"038847/62168","full_time_school":false,"id":"MV-75135403","lat":53.381549,"lon":10.723633,"name":"Grundschule \"An den Eichen\", Boizenburg","official_id":"75135403","phone":"038847/54310","school_type":"Grundschule","school_type_entity":"Grundschule","state":"MV"},{"address":"An der Quöbbe 10, 19258 Boizenburg/Elbe","fax":"038847/37880","full_time_school":false,"id":"MV-75135404","lat":53.376823,"lon":10.723415,"name":"Grundschule Ludwig Reinhard, Boizenburg","official_id":"75135404","phone":"038847/54322","school_type":"Grundschule","school_type_entity":"Grundschule","state":"MV"},{"address":"Ludwigsluster Straße 16, 19294 Eldena","fax":"038755 33533","full_time_school":false,"id":"MV-75135407","lat":53.234134,"lon":11.419849,"name":"Grundschule Eldena","official_id":"75135407","phone":"038755/20257","school_type":"Grundschule","school_type_entity":"Grundschule","state":"MV"},{"address":"Schulstraße 5, 19230 Gammelin","fax":"038850/443","full_time_school":false,"id":"MV-75135408","lat":53.512483,"lon":11.239752,"name":"Grundschule Gammelin","official_id":"75135408","phone":"038850/427","school_type":"Grundschule","school_type_entity":"Grundschule","state":"MV"},{"address":"Hufenweg 2a, 19300 Grabow","fax":"038756/28968","full_time_school":false,"id":"MV-75135410","lat":53.274479,"lon":11.570074,"name":"Grundschule \"Eldekinder\", Grabow","official_id":"75135410","phone":"038756/28961","school_type":"Grundschule","school_type_entity":"Grundschule","state":"MV"},{"address":"Schulstraße 5a, 19288 Kummer","fax":"038751/339800","full_time_school":false,"id":"MV-75135412","lat":54.296797,"lon":12.882846,"name":"Grundschule Kummer","official_id":"75135412","phone":"038751/20712","school_type":"Grundschule","school_type_entity":"Grundschule","state":"MV"},{"address":"Kanalstraße 26, 19288 Ludwigslust","fax":"03874/6637941","full_time_school":false,"id":"MV-75135415","lat":53.327557,"lon":11.495879,"name":"Grundschule \"Fritz Reuter\", Ludwigslust","official_id":"75135415","phone":"03874/23101","school_type":"Grundschule","school_type_entity":"Grundschule","state":"MV"},{"address":"Schulstraße 1, 19294 Malliß","fax":"038750/22490","full_time_school":false,"id":"MV-75135418","lat":53.210046,"lon":11.327451,"name":"Grundschule Malliß","official_id":"75135418","phone":"038750/20021","school_type":"Grundschule","school_type_entity":"Grundschule","state":"MV"},{"address":"Schulstraße 29, 19294 Neu Kaliß","fax":"038758/36632","full_time_school":false,"id":"MV-75135419","lat":53.167714,"lon":11.294562,"name":"Grundschule \"Viktor Bausch\", Neu Kaliß","official_id":"75135419","phone":"038758/26270","school_type":"Grundschule","school_type_entity":"Grundschule","state":"MV"},{"address":"Ernst-Thälmann-Straße 22, 19306 Neustadt-Glewe","fax":"038757/22825","full_time_school":false,"id":"MV-75135420","lat":53.37944,"lon":11.58833,"name":"Grundschule J. W. v. Goethe\", Neustadt-Glewe","official_id":"75135420","phone":"038757/55430","school_type":"Grundschule","school_type_entity":"Grundschule","state":"MV"},{"address":"Fährweg 8, 19075 Pampow","fax":"03865/787912","full_time_school":false,"id":"MV-75135422","lat":53.56874,"lon":11.366877,"name":"Grundschule Pampow","official_id":"75135422","phone":"03865/787910","school_type":"Grundschule","school_type_entity":"Grundschule","state":"MV"},{"address":"Schulstraße 5, 19288 Ludwigslust","fax":"03874/444060","full_time_school":false,"id":"MV-75135424","lat":53.308475,"lon":11.489706,"name":"Grundschule Ludwigslust","official_id":"75135424","phone":"03874/22405","school_type":"Grundschule","school_type_entity":"Grundschule","state":"MV"},{"address":"Zarrentiner Straße 14, 19258 Gresse","fax":"038842/21281","full_time_school":false,"id":"MV-75135439","lat":53.429275,"lon":10.745666,"name":"Grundschule \"Boizetal\" Gresse","official_id":"75135439","phone":"038842/21204","school_type":"Grundschule","school_type_entity":"Grundschule","state":"MV"},{"address":"Schulstraße 5, 19230 Hagenow","fax":"03883/614525","full_time_school":false,"id":"MV-75135442","lat":53.433095,"lon":11.190905,"name":"GS \"Mühlenteich\", Hagenow","official_id":"75135442","phone":"03883/61450","school_type":"Grundschule","school_type_entity":"Grundschule","state":"MV"},{"address":"Neue Straße 18, 19288 Wöbbelin","fax":"038753/80791","full_time_school":false,"id":"MV-75135450","lat":53.40078,"lon":11.50744,"name":"Grundschule Wöbbelin","official_id":"75135450","phone":"038753/80791","school_type":"Grundschule","school_type_entity":"Grundschule","state":"MV"},{"address":"Friedensring 70, 19243 Wittenburg","fax":"038852/53541","full_time_school":false,"id":"MV-75135452","lat":53.505905,"lon":11.068273,"name":"Grundschule \"Am Friedensring\", Wittenburg","official_id":"75135452","phone":"038852/52220","school_type":"Grundschule","school_type_entity":"Grundschule","state":"MV"},{"address":"Schulstraße 4, 19073 Wittenförden","fax":"0385/6470742","full_time_school":false,"id":"MV-75135453","lat":53.631995,"lon":11.328727,"name":"Grundschule \"Dr. Otto Steinfatt\", Wittenförden","official_id":"75135453","phone":"0385/6470226","school_type":"Grundschule","school_type_entity":"Grundschule","state":"MV"},{"address":"Vogelstangenberg 6, 19412 Brüel","fax":"038483/293013","full_time_school":false,"id":"MV-75136001","lat":53.731436,"lon":11.715866,"name":"Grundschule Brüel","official_id":"75136001","phone":"038483/293010","school_type":"Grundschule","school_type_entity":"Grundschule","state":"MV"},{"address":"Retgendorfer Weg 26, 19067 Cambs","fax":"03866/839369","full_time_school":false,"id":"MV-75136002","lat":53.700084,"lon":11.526111,"name":"Grundschule \"Wilhelm Busch\", Cambs","official_id":"75136002","phone":"03866/369","school_type":"Grundschule","school_type_entity":"Grundschule","state":"MV"},{"address":"Schulstraße 1, 19089 Crivitz","fax":"03863/502097","full_time_school":false,"id":"MV-75136003","lat":53.580031,"lon":11.651254,"name":"Grundschule \"Fritz Reuter\", Crivitz","official_id":"75136003","phone":"03863/333540","school_type":"Grundschule","school_type_entity":"Grundschule","state":"MV"},{"address":"Am Mattenstieg 1K, 19406 Dabel","fax":"038458/50402","full_time_school":false,"id":"MV-75136005","lat":53.659919,"lon":11.900078,"name":"Grundschule Dabel","official_id":"75136005","phone":"038485/20242","school_type":"Grundschule","school_type_entity":"Grundschule","state":"MV"},{"address":"Parchimer Straße 39, 19374 Domsühl","fax":"038728/22565","full_time_school":false,"id":"MV-75136007","lat":53.486769,"lon":11.776532,"name":"Grundschule Domsühl","official_id":"75136007","phone":"038728/22547","school_type":"Grundschule","school_type_entity":"Grundschule","state":"MV"},{"address":"Lange Straße 15, 19372 Groß Godems","fax":"038725/55443","full_time_school":false,"id":"MV-75136008","lat":53.363301,"lon":11.795459,"name":"Grundschule Groß Godems","official_id":"75136008","phone":"038725/20282","school_type":"Grundschule","school_type_entity":"Grundschule","state":"MV"},{"address":"Lindenallee 10, 19067 Leezen","fax":"03866/470247","full_time_school":false,"id":"MV-75136009","lat":53.662738,"lon":11.49432,"name":"ORI-Grundschule Leezen","official_id":"75136009","phone":"03866/284","school_type":"Grundschule","school_type_entity":"Grundschule","state":"MV"},{"address":"Schützenstraße 35, 19386 Lübz","fax":"038731/22725","full_time_school":false,"id":"MV-75136010","lat":53.459519,"lon":12.044154,"name":"Grundschule Lübz","official_id":"75136010","phone":"038731/22725","school_type":"Grundschule","school_type_entity":"Grundschule","state":"MV"},{"address":"Parchimer Straße 9, 19372 Matzlow","fax":"038726/22874","full_time_school":false,"id":"MV-75136012","lat":53.411624,"lon":11.725231,"name":"Grundschule Matzlow","official_id":"75136012","phone":"038726/80101","school_type":"Grundschule","school_type_entity":"Grundschule","state":"MV"},{"address":"Marx-Engels-Platz 2, 19374 Mestlin","fax":"038727/81337","full_time_school":false,"id":"MV-75136013","lat":53.579263,"lon":11.925483,"name":"Grundschule Mestlin","official_id":"75136013","phone":"038727/81337","school_type":"Grundschule","school_type_entity":"Grundschule","state":"MV"},{"address":"Mönchhof 7, 19370 Parchim","fax":"03871/602854","full_time_school":false,"id":"MV-75136014","lat":53.426809,"lon":11.84389,"name":"Grundschule \"Adolf Diesterweg\", Parchim","official_id":"75136014","phone":"03871/212709","school_type":"Grundschule","school_type_entity":"Grundschule","state":"MV"},{"address":"Hans-Beimler-Straße 24b, 19370 Parchim","fax":"03871/421288","full_time_school":false,"id":"MV-75136015","lat":53.423995,"lon":11.82271,"name":"Grundschule \"West\", Parchim","official_id":"75136015","phone":"03871/441006","school_type":"Grundschule","school_type_entity":"Grundschule","state":"MV"},{"address":"Wallallee 1, 19370 Parchim","fax":"03871/6069729","full_time_school":false,"id":"MV-75136016","lat":53.428588,"lon":11.854738,"name":"Grundschule \"Goethe\", Parchim","official_id":"75136016","phone":"03871/602756","school_type":"Grundschule","school_type_entity":"Grundschule","state":"MV"},{"address":"Lange Straße 25, 19395 Plau am See","fax":"038735/49608","full_time_school":false,"id":"MV-75136018","lat":53.460881,"lon":12.263359,"name":"Grundschule \"Kantor Carl Ehrich\", Plau am See","official_id":"75136018","phone":"038735/44320","school_type":"Grundschule","school_type_entity":"Grundschule","state":"MV"},{"address":"Finkenkamp 17, 19406 Sternberg","fax":"03847/311951","full_time_school":false,"id":"MV-75136021","lat":53.715604,"lon":11.822383,"name":"Grundschule \"Alexander Behm\", Sternberg","official_id":"75136021","phone":"03847/2622","school_type":"Grundschule","school_type_entity":"Grundschule","state":"MV"},{"address":"Hauptstraße 16, 19079 Sukow","fax":"03861/302026","full_time_school":false,"id":"MV-75136023","lat":53.547693,"lon":11.562664,"name":"Grundschule Sukow","official_id":"75136023","phone":"03861/2701","school_type":"Grundschule","school_type_entity":"Grundschule","state":"MV"},{"address":"Charlottenhofer Weg 57A, 19386 Passow","fax":"038731/20987","full_time_school":false,"id":"MV-75136033","lat":53.506567,"lon":12.054412,"name":"Grundschule Passow","official_id":"75136033","phone":"038731/24036","school_type":"Grundschule","school_type_entity":"Grundschule","state":"MV"},{"address":"Fr.-Wehmer-Straße 52, 19086 Plate","fax":"03861/300891","full_time_school":false,"id":"MV-75136034","lat":53.552158,"lon":11.49878,"name":"Grundschule Plate","official_id":"75136034","phone":"03861/2024","school_type":"Grundschule","school_type_entity":"Grundschule","state":"MV"},{"address":"Schützenplatz 2, 19399 Goldberg","fax":"038736/40834","full_time_school":false,"id":"MV-75136054","lat":53.589823,"lon":12.091198,"name":"Grundschule \"John Brinckman\", Goldberg","official_id":"75136054","phone":"038736/40756","school_type":"Grundschule","school_type_entity":"Grundschule","state":"MV"},{"address":"Theodor-Körner-Straße 5, 19258 Boizenburg/Elbe","fax":"038847/297927","full_time_school":false,"id":"MV-75235463","lat":53.382019,"lon":10.729852,"name":"Förderschule mit den Förderschwerpunkten Lernen und geistige Entwicklung Boizenburg","official_id":"75235463","phone":"038847/297920","school_type":"Förderschule","school_type_entity":"Förderschule","state":"MV"},{"address":"Bahnhofstraße 130, 19230 Hagenow","fax":"03883/727042","full_time_school":false,"id":"MV-75235465","lat":53.417908,"lon":11.209809,"name":"Diesterwegschule Hagenow; Schule mit dem Förderschwerpunkt Lernen","official_id":"75235465","phone":"03883/727042","school_type":"Förderschule","school_type_entity":"Förderschule","state":"MV"},{"address":"J.-Gillhoff-Straße 17, 19288 Ludwigslust","fax":"03874/666801","full_time_school":false,"id":"MV-75235466","lat":53.31667,"lon":11.48333,"name":"Förderschule \"Johann-Heinrich-Pestalozzi\" Ludwigslust; Schule mit dem Förderschwerpunkt Lernen","official_id":"75235466","phone":"03874/22029","school_type":"Förderschule","school_type_entity":"Förderschule","state":"MV"},{"address":"Bahnhofstraße 132, 19230 Hagenow","fax":"03883/641456","full_time_school":false,"id":"MV-75235469","lat":53.417753,"lon":11.210059,"name":"Förderschule mit dem Förderschwerpunkt geistige Entwicklung Hagenow","official_id":"75235469","phone":"03883/724101","school_type":"Förderschule","school_type_entity":"Förderschule","state":"MV"},{"address":"Fr.-Naumann-Allee 37, 19288 Ludwigslust","fax":"03874/3206669","full_time_school":false,"id":"MV-75235470","lat":53.326263,"lon":11.492971,"name":"Schule an der Bleiche Ludwigslust; Schule mit dem Förderschwerpunkt geistige Entwicklung","official_id":"75235470","phone":"03874/21922","school_type":"Förderschule","school_type_entity":"Förderschule","state":"MV"},{"address":"Neuer Teich 1, 19386 Lübz","fax":"038731/21192","full_time_school":false,"id":"MV-75236063","lat":53.457429,"lon":12.051068,"name":"Schule am Neuen Teich Lübz - Schule mit dem Förderschwerpunkt Lernen","official_id":"75236063","phone":"038731/22838","school_type":"Förderschule","school_type_entity":"Förderschule","state":"MV"},{"address":"Brunnenstraße 21, 19370 Parchim","fax":"03871/451414","full_time_school":false,"id":"MV-75236064","lat":53.41334,"lon":11.841877,"name":"Pestalozzischule - Schule mit dem Förderschwerpunkt Lernen, Parchim","official_id":"75236064","phone":"03871/212796","school_type":"Förderschule","school_type_entity":"Förderschule","state":"MV"},{"address":"Ziegendorfer Chaussee 11, 19370 Parchim","fax":"03871/4689873","full_time_school":false,"id":"MV-75236065","lat":53.426129,"lon":11.833654,"name":"Schule am Alten Hafen Parchim - Schule mit dem Förderschwerpunkt geistige Entwicklung","official_id":"75236065","phone":"03871/443132","school_type":"Förderschule","school_type_entity":"Förderschule","state":"MV"},{"address":"Am Berge 3a, 19406 Sternberg","fax":"03847/435333","full_time_school":false,"id":"MV-75236067","lat":53.713818,"lon":11.826379,"name":"Schule mit den Förderschwerpunkten Lernen und geistige Entwicklung Sternberg","official_id":"75236067","phone":"03847/435330","school_type":"Förderschule","school_type_entity":"Förderschule","state":"MV"},{"address":"Schulstraße 4, 19073 Stralendorf","fax":"03869/7809809","full_time_school":false,"id":"MV-75335447","lat":53.573458,"lon":11.302369,"name":"Gymnasiales Schulzentrum \"Felix Stillfried\", Stralendorf","official_id":"75335447","phone":"03869/7437","school_type":"Kooperative Gesamtschule mit Grundschule","school_type_entity":"Kooperative Gesamtschule","state":"MV"},{"address":"Roggenfelder Straße 30A, 19303 Dömitz","fax":"038758/3554100","full_time_school":false,"id":"MV-75335456","lat":53.135179,"lon":11.268326,"name":"Gymnasiales Schulzentrum \"Fritz Reuter\" Dömitz","official_id":"75335456","phone":"038758/35540","school_type":"Kooperative Gesamtschule mit Grundschule und Förderschule","school_type_entity":"Kooperative Gesamtschule","state":"MV"},{"address":"Lindenstraße 13, 19243 Wittenburg","fax":"038852/52500","full_time_school":false,"id":"MV-75335462","lat":53.513542,"lon":11.076058,"name":"Gymnasiales Schulzentrum Wittenburg","official_id":"75335462","phone":"038852/8080","school_type":"Kooperative Gesamtschule","school_type_entity":"Kooperative Gesamtschule","state":"MV"},{"address":"Seestraße 1a, 19406 Sternberg","fax":"03847/4353443","full_time_school":false,"id":"MV-75336062","lat":53.714485,"lon":11.829947,"name":"Verbundene Regionale Schule und Gymnasium Sternberg","official_id":"75336062","phone":"03847/435340","school_type":"Kooperative Gesamtschule","school_type_entity":"Kooperative Gesamtschule","state":"MV"},{"address":"Prislicher Straße 23, 19300 Grabow","fax":"038756/22353","full_time_school":false,"id":"MV-75435431","lat":53.275816,"lon":11.568075,"name":"Regionale Schule Friedrich Rohr, Grabow","official_id":"75435431","phone":"038756/22352","school_type":"Regionale Schule","school_type_entity":"Regionale Schule","state":"MV"},{"address":"Rennbahnweg 1, 19288 Ludwigslust","fax":"03874/665230","full_time_school":false,"id":"MV-75435433","lat":53.333345,"lon":11.484433,"name":"Regionale Schule \"P. J. Lenné\", Ludwigslust","official_id":"75435433","phone":"03874/29162","school_type":"Regionale Schule","school_type_entity":"Regionale Schule","state":"MV"},{"address":"Rudolf-Breitscheid-Straße 30, 19249 Lübtheen","fax":"038855/785189","full_time_school":false,"id":"MV-75435434","lat":53.308191,"lon":11.079654,"name":"Regionale Schule mit Grundschule \"Lindenschule\", Lübtheen","official_id":"75435434","phone":"038855/785180","school_type":"Regionale Schule mit Grundschule","school_type_entity":"Regionale Schule","state":"MV"},{"address":"Schulstraße 1, 19294 Malliß","fax":"038750/22490","full_time_school":false,"id":"MV-75435435","lat":53.210046,"lon":11.327451,"name":"Regionale Schule Malliß","official_id":"75435435","phone":"038750/20292","school_type":"Regionale Schule","school_type_entity":"Regionale Schule","state":"MV"},{"address":"Laascher Straße 57, 19306 Neustadt-Glewe","fax":"038757/33114","full_time_school":false,"id":"MV-75435437","lat":53.373292,"lon":11.594843,"name":"Regionale Schule \"Karl-Scharfenberg-Schule\", \nNeustadt-Glewe","official_id":"75435437","phone":"038757/33113","school_type":"Regionale Schule","school_type_entity":"Regionale Schule","state":"MV"},{"address":"R.-Markmann-Straße 59, 19258 Boizenburg/Elbe","fax":"038847/624870","full_time_school":false,"id":"MV-75435438","lat":53.384284,"lon":10.731344,"name":"Regionale Schule \"Rudolf Tarnow\", Boizenburg","official_id":"75435438","phone":"038847/54312","school_type":"Regionale Schule","school_type_entity":"Regionale Schule","state":"MV"},{"address":"Möllner Straße 12, 19230 Hagenow","fax":"03883/618555","full_time_school":false,"id":"MV-75435441","lat":53.431747,"lon":11.202827,"name":"Regionale Schule \"Prof. Dr. Friedrich Heincke\", Hagenow","official_id":"75435441","phone":"03883/723012","school_type":"Regionale Schule","school_type_entity":"Regionale Schule","state":"MV"},{"address":"Kießender Ring 6, 19230 Hagenow","fax":"03883/724943","full_time_school":false,"id":"MV-75435443","lat":53.438174,"lon":11.180933,"name":"Regionale Schule mit Grundschule \"Europaschule\", Hagenow","official_id":"75435443","phone":"03883/721029","school_type":"Regionale Schule mit Grundschule","school_type_entity":"Regionale Schule","state":"MV"},{"address":"Hagenower Straße 7a, 19230 Picher","fax":"038751/21203","full_time_school":false,"id":"MV-75435445","lat":53.347146,"lon":11.341744,"name":"Regionale Schule mit Grundschule \"Theodor Körner\", Picher","official_id":"75435445","phone":"038751/20234","school_type":"Regionale Schule mit Grundschule","school_type_entity":"Regionale Schule","state":"MV"},{"address":"Schulstraße 5, 19077 Rastow","fax":"03868/292","full_time_school":false,"id":"MV-75435446","lat":53.4582,"lon":11.427724,"name":"Regionale Schule mit Grundschule \"Dr. Ernst Alban\", Rastow","official_id":"75435446","phone":"03868/300683","school_type":"Regionale Schule mit Grundschule","school_type_entity":"Regionale Schule","state":"MV"},{"address":"Schulstraße 2, 19260 Vellahn","fax":"038848/22418","full_time_school":false,"id":"MV-75435449","lat":53.396891,"lon":10.968702,"name":"Regionale Schule mit Grundschule, Vellahn","official_id":"75435449","phone":"038848/20209","school_type":"Regionale Schule mit Grundschule","school_type_entity":"Regionale Schule","state":"MV"},{"address":"Rosenstraße 27, 19246 Zarrentin","fax":"038851/81131","full_time_school":false,"id":"MV-75435454","lat":53.549371,"lon":10.913322,"name":"Regionale Schule mit Grundschule \"Fritz Reuter\", Zarrentin","official_id":"75435454","phone":"038851/81130","school_type":"Regionale Schule mit Grundschule","school_type_entity":"Regionale Schule","state":"MV"},{"address":"Wallallee 1, 19370 Parchim","fax":"03871/212424","full_time_school":false,"id":"MV-75436031","lat":53.428588,"lon":11.854738,"name":"Regionale Schule \"J. W. v. Goethe\", Parchim","official_id":"75436031","phone":"03871/4226590","school_type":"Regionale Schule","school_type_entity":"Regionale Schule","state":"MV"},{"address":"Vogelstangenberg 6, 19412 Brüel","fax":"038483/293013","full_time_school":false,"id":"MV-75436035","lat":53.731436,"lon":11.715866,"name":"Regionale Schule Brüel","official_id":"75436035","phone":"038483/293030","school_type":"Regionale Schule","school_type_entity":"Regionale Schule","state":"MV"},{"address":"Retgendorfer Weg 24, 19067 Cambs","fax":"03866/80719","full_time_school":false,"id":"MV-75436036","lat":53.700674,"lon":11.525846,"name":"Regionale Schule \"Am Mühlenberg\", Cambs","official_id":"75436036","phone":"03866/326","school_type":"Regionale Schule","school_type_entity":"Regionale Schule","state":"MV"},{"address":"Straße der Freundschaft 19 a, 19089 Crivitz","fax":"03863/502422","full_time_school":false,"id":"MV-75436037","lat":53.573915,"lon":11.662697,"name":"Regionale Schule Crivitz","official_id":"75436037","phone":"03863/50240","school_type":"Regionale Schule","school_type_entity":"Regionale Schule","state":"MV"},{"address":"Parchimer Straße 39, 19374 Domsühl","fax":"038728/22565","full_time_school":false,"id":"MV-75436040","lat":53.486769,"lon":11.776532,"name":"Regionale Schule \"Eldetalschule\", Domsühl","official_id":"75436040","phone":"038728/20236","school_type":"Regionale Schule","school_type_entity":"Regionale Schule","state":"MV"},{"address":"Schützenstraße 35, 19386 Lübz","fax":"038731/36606","full_time_school":false,"id":"MV-75436041","lat":53.459519,"lon":12.044154,"name":"Regionale Schule Lübz","official_id":"75436041","phone":"038731/22602","school_type":"Regionale Schule","school_type_entity":"Regionale Schule","state":"MV"},{"address":"Mooster Straße 10, 19376 Marnitz","fax":"038729/29099","full_time_school":false,"id":"MV-75436042","lat":53.324742,"lon":11.934042,"name":"Regionale Schule mit Grundschule Marnitz","official_id":"75436042","phone":"038729/29097","school_type":"Regionale Schule mit Grundschule","school_type_entity":"Regionale Schule","state":"MV"},{"address":"Mönchhof 6, 19370 Parchim","fax":"03871/450320","full_time_school":false,"id":"MV-75436045","lat":53.427328,"lon":11.843967,"name":"Regionale Schule \"Fritz Reuter\", Parchim","official_id":"75436045","phone":"03871/212818","school_type":"Regionale Schule","school_type_entity":"Regionale Schule","state":"MV"},{"address":"Wittstocker Weg 10c, 19395 Plau am See","fax":"038735/41153","full_time_school":false,"id":"MV-75436047","lat":53.454437,"lon":12.261133,"name":"Regionale Schule Schule \"Am Klüschenberg\", Plau am See","official_id":"75436047","phone":"038735/40884","school_type":"Regionale Schule","school_type_entity":"Regionale Schule","state":"MV"},{"address":"An der Lewitzmühle 82, 19079 Banzkow","fax":"03861/302604","full_time_school":false,"id":"MV-75436051","lat":53.524863,"lon":11.501753,"name":"Regionale Schule Banzkow","official_id":"75436051","phone":"03861/7101","school_type":"Regionale Schule","school_type_entity":"Regionale Schule","state":"MV"},{"address":"J.-Brinckman-Straße 39, 19399 Goldberg","fax":"038736/42640","full_time_school":false,"id":"MV-75436055","lat":53.56667,"lon":12.06667,"name":"Regionale Schule \"Walter Husemann\", Goldberg","official_id":"75436055","phone":"038736/41805","school_type":"Regionale Schule","school_type_entity":"Regionale Schule","state":"MV"},{"address":"Ludwig-Reinhard-Straße 21, 19258 Boizenburg/Elbe","fax":"038847/8111","full_time_school":false,"id":"MV-75535455","lat":53.384284,"lon":10.731344,"name":"Gymnasium \"Elbe-Gymnasium\", Boizenburg","official_id":"75535455","phone":"038847/8110","school_type":"Gymnasium","school_type_entity":"Gymnasium","state":"MV"},{"address":"Möllner Straße 14, 19230 Hagenow","fax":"03883/66106","full_time_school":false,"id":"MV-75535458","lat":53.43155,"lon":11.202173,"name":"Robert-Stock-Gymnasium, Hagenow","official_id":"75535458","phone":"03883/66105","school_type":"Gymnasium","school_type_entity":"Gymnasium","state":"MV"},{"address":"Christian-Ludwig-Straße 3, 19288 Ludwigslust","fax":"03874/428020","full_time_school":false,"id":"MV-75535459","lat":53.32241,"lon":11.50239,"name":"Goethe-Gymnasium, Ludwigslust","official_id":"75535459","phone":"03874/42800","school_type":"Gymnasium","school_type_entity":"Gymnasium","state":"MV"},{"address":"Am Sonnenberg 1, 19089 Crivitz","fax":"03863/5424111","full_time_school":false,"id":"MV-75536059","lat":53.581691,"lon":11.644612,"name":"Gymnasium Am Sonnenberg, Crivitz","official_id":"75536059","phone":"03863/54240","school_type":"Gymnasium","school_type_entity":"Gymnasium","state":"MV"},{"address":"Blücher Straße 22a, 19386 Lübz","fax":"038731/20016","full_time_school":false,"id":"MV-75536060","lat":53.464546,"lon":12.037991,"name":"Gymnasium \"Eldenburg\", Lübz","official_id":"75536060","phone":"038731/22686","school_type":"Gymnasium","school_type_entity":"Gymnasium","state":"MV"},{"address":"Ziegendorfer Chaussee 71/74, 19370 Parchim","fax":"03871/444159","full_time_school":false,"id":"MV-75536061","lat":53.422109,"lon":11.827457,"name":"Friedrich-Franz-Gymnasium, Parchim","official_id":"75536061","phone":"03871/441010","school_type":"Gymnasium","school_type_entity":"Gymnasium","state":"MV"},{"address":"Katharinenstraße 1, 17033 Neubrandenburg","fax":"0395/5551151","full_time_school":false,"id":"MV-75130201","lat":53.556431,"lon":13.269182,"name":"Grundschule  Mitte \"Uns Hüsung\", Neubrandenburg","official_id":"75130201","phone":"0395/5551101","school_type":"Grundschule","school_type_entity":"Grundschule","state":"MV"},{"address":"Werner-Seelenbinder-Straße 1, 17033 Neubrandenburg","fax":"0395/5551770","full_time_school":false,"id":"MV-75130203","lat":53.55694,"lon":13.26083,"name":"Grundschule Süd, Neubrandenburg","official_id":"75130203","phone":"0395/5551765","school_type":"Grundschule","school_type_entity":"Grundschule","state":"MV"},{"address":"Robert-Koch-Straße 52, 17036 Neubrandenburg","fax":"0395/5551197","full_time_school":false,"id":"MV-75130205","lat":53.549882,"lon":13.300334,"name":"Grundschule  Ost \"H. Ch. Andersen\" Europaschule, Neubrandenburg","official_id":"75130205","phone":"0395/5551188","school_type":"Grundschule","school_type_entity":"Grundschule","state":"MV"},{"address":"Rasgrader Straße 4, 17034 Neubrandenburg","fax":"0395/5551709","full_time_school":false,"id":"MV-75130210","lat":53.577636,"lon":13.283115,"name":"Grundschule Datzeberg, Neubrandenburg","official_id":"75130210","phone":"0395/5551701","school_type":"Grundschule","school_type_entity":"Grundschule","state":"MV"},{"address":"Traberallee 18, 17034 Neubrandenburg","fax":"0395/5551951","full_time_school":false,"id":"MV-75130211","lat":53.569695,"lon":13.26066,"name":"Grundschule Nord \"Am Reitbahnsee\", Neubrandenburg","official_id":"75130211","phone":"0395/5551941","school_type":"Grundschule","school_type_entity":"Grundschule","state":"MV"},{"address":"Dükerweg 2, 17033 Neubrandenburg","fax":"0395/5551175","full_time_school":false,"id":"MV-75130213","lat":53.555874,"lon":13.244095,"name":"Grundschule West \"Am See\", Neubrandenburg","official_id":"75130213","phone":"0395/5551141","school_type":"Grundschule","school_type_entity":"Grundschule","state":"MV"},{"address":"Karlsplatz 7, 17087 Altentreptow","fax":"03964/212937","full_time_school":false,"id":"MV-75135201","lat":53.696548,"lon":13.250196,"name":"Grundschule Altentreptow","official_id":"75135201","phone":"03961/212936","school_type":"Grundschule","school_type_entity":"Grundschule","state":"MV"},{"address":"Am Sportplatz 18, 17159 Dargun","fax":"039959/27960","full_time_school":false,"id":"MV-75135202","lat":53.90257,"lon":12.853109,"name":"Grundschule Dargun","official_id":"75135202","phone":"039959/20353","school_type":"Grundschule","school_type_entity":"Grundschule","state":"MV"},{"address":"Am Klinkenberg 2, 17109 Demmin","fax":"03998/2585855","full_time_school":false,"id":"MV-75135203","lat":53.905,"lon":13.04389,"name":"Grundschule \"Heinrich Zille\", Demmin","official_id":"75135203","phone":"03998/222055","school_type":"Grundschule","school_type_entity":"Grundschule","state":"MV"},{"address":"Schulstraße 1, 17091 Mölln","fax":"039602/20615","full_time_school":false,"id":"MV-75135210","lat":53.589338,"lon":13.086655,"name":"Grundschule Mölln","official_id":"75135210","phone":"039602/20615","school_type":"Grundschule","school_type_entity":"Grundschule","state":"MV"},{"address":"Schulplatz 3-4, 17139 Malchin","fax":"03994/299016","full_time_school":false,"id":"MV-75135211","lat":53.73333,"lon":12.78333,"name":"Grundschule \"Pestalozzi\", Malchin","official_id":"75135211","phone":"03994/299015","school_type":"Grundschule","school_type_entity":"Grundschule","state":"MV"},{"address":"Dorfstraße 77, 17111 Sarow","fax":"039996/70310","full_time_school":false,"id":"MV-75135213","lat":53.796567,"lon":13.103663,"name":"Grundschule Sarow","official_id":"75135213","phone":"039996/70310","school_type":"Grundschule","school_type_entity":"Grundschule","state":"MV"},{"address":"Goethestraße 14, 17153 Stavenhagen","fax":"039954/276817","full_time_school":false,"id":"MV-75135214","lat":53.698971,"lon":12.906081,"name":"Fritz-Reuter-Grundschule, Stavenhagen","official_id":"75135214","phone":"039954/276812","school_type":"Grundschule","school_type_entity":"Grundschule","state":"MV"},{"address":"Dorfstraße 23, 17111 Schönfeld","fax":"039994/10249","full_time_school":false,"id":"MV-75135226","lat":53.853326,"lon":12.958466,"name":"Grundschule Schönfeld","official_id":"75135226","phone":"039994/10249","school_type":"Grundschule","school_type_entity":"Grundschule","state":"MV"},{"address":"Schulstraße 4, 17089 Burow","fax":"03965/210369","full_time_school":false,"id":"MV-75135233","lat":53.772924,"lon":13.273554,"name":"Grundschule Burow ","official_id":"75135233","phone":"03965/210369","school_type":"Grundschule","school_type_entity":"Grundschule","state":"MV"},{"address":"Straße der Einheit 58, 17139 Gielow","fax":"039957/20442","full_time_school":false,"id":"MV-75135234","lat":53.696036,"lon":12.748835,"name":"Grundschule Gielow","official_id":"75135234","phone":"039957/20442","school_type":"Grundschule","school_type_entity":"Grundschule","state":"MV"},{"address":"Birkenweg 2, 17153 Jürgenstorf","fax":"039955/20231","full_time_school":false,"id":"MV-75135236","lat":53.662478,"lon":12.903071,"name":"Grundschule Jürgenstorf","official_id":"75135236","phone":"039955/20231","school_type":"Grundschule","school_type_entity":"Grundschule","state":"MV"},{"address":"Klüschenberg 17, 17094 Burg Stargard","fax":"039603/27923","full_time_school":false,"id":"MV-75135503","lat":53.492584,"lon":13.319381,"name":"Grundschule \"Kletterrose\", Burg Stargard","official_id":"75135503","phone":"039603/27924","school_type":"Grundschule","school_type_entity":"Grundschule","state":"MV"},{"address":"Wollweberstraße 59, 17098 Friedland","fax":"039601/369809","full_time_school":false,"id":"MV-75135507","lat":53.667554,"lon":13.552137,"name":"Grundschule Friedland","official_id":"75135507","phone":"039601/21103","school_type":"Grundschule","school_type_entity":"Grundschule","state":"MV"},{"address":"Leussower Weg 9a, 17252 Mirow","fax":"039833/27576","full_time_school":false,"id":"MV-75135510","lat":53.276851,"lon":12.821294,"name":"Grundschule Regenbogen, Mirow ","official_id":"75135510","phone":"039833/20271","school_type":"Grundschule","school_type_entity":"Grundschule","state":"MV"},{"address":"Pestalozzistraße 6, 17235 Neustrelitz","fax":"03981/441827","full_time_school":false,"id":"MV-75135513","lat":53.356634,"lon":13.09251,"name":"Grundschule Kiefernheide, Neustrelitz","official_id":"75135513","phone":"03981/442906","school_type":"Grundschule","school_type_entity":"Grundschule","state":"MV"},{"address":"Dorfstraße 30, 17039 Neverin","fax":"039608/20098","full_time_school":false,"id":"MV-75135514","lat":53.621443,"lon":13.332757,"name":"Grundschule \"Zum Wasserturm\", Neverin","official_id":"75135514","phone":"039608/20503","school_type":"Grundschule","school_type_entity":"Grundschule","state":"MV"},{"address":"Sandberg 48, 17235 Neustrelitz","fax":"03981/238156","full_time_school":false,"id":"MV-75135524","lat":53.368796,"lon":13.061441,"name":"Grundschule Am Sandberg, Neustrelitz","official_id":"75135524","phone":"03981/238155","school_type":"Grundschule","school_type_entity":"Grundschule","state":"MV"},{"address":"Schulstraße 10, 17349 Groß Miltzow","fax":"03967/410299","full_time_school":false,"id":"MV-75135533","lat":53.534251,"lon":13.572539,"name":"Grundschule Pappelhain, Groß Miltzow","official_id":"75135533","phone":"03967/410293","school_type":"Grundschule","school_type_entity":"Grundschule","state":"MV"},{"address":"Bachstraße 9, 17235 Neustrelitz","fax":"03981/441896","full_time_school":false,"id":"MV-75135547","lat":53.332293,"lon":13.095552,"name":"Grundschule  \"Daniel Sanders\", Neustrelitz","official_id":"75135547","phone":"03981/441896","school_type":"Grundschule","school_type_entity":"Grundschule","state":"MV"},{"address":"Federower Straße 12, 17192 Kargow","fax":"03991/670040","full_time_school":false,"id":"MV-75135602","lat":53.506169,"lon":12.783468,"name":"Grundschule \"Uns lütt Schaul\", Kargow","official_id":"75135602","phone":"03991/670040","school_type":"Grundschule","school_type_entity":"Grundschule","state":"MV"},{"address":"Schulstraße 22, 17194 Moltzow","fax":"039933/73584","full_time_school":false,"id":"MV-75135603","lat":53.628875,"lon":12.576869,"name":"Grundschule Moltzow","official_id":"75135603","phone":"039933/73588","school_type":"Grundschule","school_type_entity":"Grundschule","state":"MV"},{"address":"Schulstraße 20, 17207 Röbel/Müritz","fax":"039931/54285","full_time_school":false,"id":"MV-75135607","lat":53.3819,"lon":12.600936,"name":"Grundschule Röbel","official_id":"75135607","phone":"039931/52234","school_type":"Grundschule","school_type_entity":"Grundschule","state":"MV"},{"address":"Schulstraße, 17248 Rechlin","fax":"039823/21829","full_time_school":false,"id":"MV-75135608","lat":53.333427,"lon":12.720279,"name":"Grundschule Rechlin","official_id":"75135608","phone":"039823/21204","school_type":"Grundschule","school_type_entity":"Grundschule","state":"MV"},{"address":"Geschwister-Scholl-Straße 31, 17192 Waren (Müritz)","fax":"03991/182866","full_time_school":false,"id":"MV-75135610","lat":53.521616,"lon":12.664597,"name":"Grundschule \"Käthe Kollwitz\", Waren","official_id":"75135610","phone":"03991/125645","school_type":"Grundschule","school_type_entity":"Grundschule","state":"MV"},{"address":"Bgm.-Schlaaff-Straße 26, 17192 Waren (Müritz)","fax":"03991/667717","full_time_school":false,"id":"MV-75135611","lat":53.51667,"lon":12.68333,"name":"Grundschule \"Am Papenberg\", Waren","official_id":"75135611","phone":"03991/665740","school_type":"Grundschule","school_type_entity":"Grundschule","state":"MV"},{"address":"Schulstraße 13, 17209 Altenhof","fax":"039924/2443","full_time_school":false,"id":"MV-75135618","lat":53.353815,"lon":12.36001,"name":"Grundschule Altenhof","official_id":"75135618","phone":"039924/2443","school_type":"Grundschule","school_type_entity":"Grundschule","state":"MV"},{"address":"Neue Straße 32, 17192 Groß Plasten","fax":"039934/87324","full_time_school":false,"id":"MV-75135621","lat":53.546348,"lon":12.848115,"name":"Grundschule Groß Plasten","official_id":"75135621","phone":"039934/87605","school_type":"Grundschule","school_type_entity":"Grundschule","state":"MV"},{"address":"Kirchstraße 23-25, 17213 Malchow","fax":"039932/47958","full_time_school":false,"id":"MV-75135625","lat":53.46667,"lon":12.41667,"name":"Grundschule \"Goethe\", Malchow","official_id":"75135625","phone":"039932/18523","school_type":"Grundschule","school_type_entity":"Grundschule","state":"MV"},{"address":"Am Burgberg 1, 17209 Wredenhagen","fax":"039925/2246","full_time_school":false,"id":"MV-75135631","lat":53.289358,"lon":12.519863,"name":"Grundschule Wredenhagen","official_id":"75135631","phone":"039925/2234","school_type":"Grundschule","school_type_entity":"Grundschule","state":"MV"},{"address":"Ziegelbergstraße 27, 17033 Neubrandenburg","fax":"0395/599991309","full_time_school":false,"id":"MV-75230235","lat":53.555427,"lon":13.269483,"name":"Schule mit dem Förderschwerpunkt Lernen sowie emotionale und soziale Entwicklung Neubrandenburg \"Pestalozzischule\" \n- Förderzentrum -","official_id":"75230235","phone":"0395/599991302","school_type":"Förderschule","school_type_entity":"Förderschule","state":"MV"},{"address":"Baumhaselstraße 10-12, 17033 Neubrandenburg","fax":"0395/3797479","full_time_school":false,"id":"MV-75230236","lat":53.535349,"lon":13.259111,"name":"Schule mit dem Förderschwerpunkt Sprache Neubrandenburg - Sprachheilpädagogisches Förderzentrum","official_id":"75230236","phone":"0395/3699203","school_type":"Förderschule","school_type_entity":"Förderschule","state":"MV"},{"address":"Robert-Blum-Straße 36, 17033 Neubrandenburg","fax":"0395/5639515","full_time_school":false,"id":"MV-75230237","lat":53.56119,"lon":13.249187,"name":"Überregionales Förderzentrum mit dem Förderschwerpunkt körperliche-motorische Entwicklung, Neubrandenburg","official_id":"75230237","phone":"0395/5639511","school_type":"Förderschule","school_type_entity":"Förderschule","state":"MV"},{"address":"B.-Brecht-Straße 1a, 17034 Neubrandenburg","fax":"0395/4308040","full_time_school":false,"id":"MV-75230238","lat":53.57764,"lon":13.285376,"name":"Schule mit dem Förderschwerpunkt geistige Entwicklung Neubrandenburg \"Kranichschule\"","official_id":"75230238","phone":"0395/4308016","school_type":"Förderschule","school_type_entity":"Förderschule","state":"MV"},{"address":"Poststraße 1, 17087 Altentreptow","fax":"03961/216441","full_time_school":false,"id":"MV-75235248","lat":53.692556,"lon":13.247123,"name":"Lea-Toll-Schule - Schule mit dem Förderschwerpunkt Lernen, Altentreptow","official_id":"75235248","phone":"03961/214417","school_type":"Förderschule","school_type_entity":"Förderschule","state":"MV"},{"address":"Saarstraße 23, 17109 Demmin","fax":"03998/258006","full_time_school":false,"id":"MV-75235249","lat":53.904247,"lon":13.065286,"name":"Schule mit dem Förderschwerpunkt Lernen, Demmin","official_id":"75235249","phone":"03998/222010","school_type":"Förderschule","school_type_entity":"Förderschule","state":"MV"},{"address":"Lindenstraße 6, 17139 Malchin","fax":"03994/239853","full_time_school":false,"id":"MV-75235250","lat":53.736803,"lon":12.762383,"name":"\"Sonderpädagogisches Förderzentrum - Lindenschule\" - Schule mit dem Förderschwerpunkt Lernen, Malchin","official_id":"75235250","phone":"03994/222209","school_type":"Förderschule","school_type_entity":"Förderschule","state":"MV"},{"address":"Westphalstraße 3, 17087 Altentreptow","fax":"03961/262555","full_time_school":false,"id":"MV-75235251","lat":53.691168,"lon":13.24835,"name":"Schule mit dem Förderschwerpunkt geistige Entwicklung, Altentreptow","official_id":"75235251","phone":"03961/214664","school_type":"Förderschule","school_type_entity":"Förderschule","state":"MV"},{"address":"Quitzerower Weg 31, 17109 Demmin","fax":"03998/259964","full_time_school":false,"id":"MV-75235252","lat":53.907258,"lon":13.060822,"name":"Schule Sonnenhof - Schule mit dem Förderschwerpunkt geistige Entwicklung, Demmin","official_id":"75235252","phone":"03998/222004","school_type":"Förderschule","school_type_entity":"Förderschule","state":"MV"},{"address":"Am Wedenhof 6, 17139 Malchin","fax":"03994/239426","full_time_school":false,"id":"MV-75235253","lat":53.740129,"lon":12.759323,"name":"Schule \"Am Wedenhof\"- Schule mit dem Förderschwerpunkt geistige Entwicklung, Malchin","official_id":"75235253","phone":"03994/222365","school_type":"Förderschule","school_type_entity":"Förderschule","state":"MV"},{"address":"A.-Bebel-Platz 17, 17098 Friedland","fax":"039601/20574","full_time_school":false,"id":"MV-75235544","lat":53.672408,"lon":13.553669,"name":"Sonderpädagogisches Förderzentrum - Schule mit Förderschwerpunkt Lernen, Friedland","official_id":"75235544","phone":"039601/20573","school_type":"Förderschule","school_type_entity":"Förderschule","state":"MV"},{"address":"Hittenkofer Straße 28, 17235 Neustrelitz","fax":"03981/205446","full_time_school":false,"id":"MV-75235545","lat":53.334873,"lon":13.096222,"name":"Sonderpädagogisches Förderzentrum - Schule mit Förderschwerpunkt Lernen, Neustrelitz","official_id":"75235545","phone":"03981/205449","school_type":"Förderschule","school_type_entity":"Förderschule","state":"MV"},{"address":"Höhenstraße 51, 17235 Neustrelitz","fax":"03981/443494","full_time_school":false,"id":"MV-75235546","lat":53.357005,"lon":13.085988,"name":"Tom-Mutters-Schule - Schule mit Förderschwerpunkt geistige Entwicklung, Neustrelitz","official_id":"75235546","phone":"03981/443492","school_type":"Förderschule","school_type_entity":"Förderschule","state":"MV"},{"address":"Schulstraße 11, 17349 Holzendorf","fax":"03967/461856","full_time_school":false,"id":"MV-75235548","lat":53.534197,"lon":13.571858,"name":"Mosaik-Schule - Schule mit Förderschwerpunkt geistige Entwicklung","official_id":"75235548","phone":"03967/461855","school_type":"Förderschule","school_type_entity":"Förderschule","state":"MV"},{"address":"Warener Chaussee 4, 17207 Röbel/Müritz","fax":"039931/52262","full_time_school":false,"id":"MV-75235637","lat":53.384569,"lon":12.606165,"name":"Förderschule Röbel - Schule mit dem Förderschwerpunkt Lernen","official_id":"75235637","phone":"039931/52262","school_type":"Förderschule","school_type_entity":"Förderschule","state":"MV"},{"address":"Karl-Liebknecht-Straße 8, 17192 Waren (Müritz)","fax":"03991/187074","full_time_school":false,"id":"MV-75235638","lat":53.517319,"lon":12.675093,"name":"Förderzentrum \"Pestalozzi\" Waren - Schule mit dem Förderschwerpunkt Lernen","official_id":"75235638","phone":"03991/125433","school_type":"Förderschule","school_type_entity":"Förderschule","state":"MV"},{"address":"Neubaustraße 14, 17209 Sietow","fax":"039931/84523","full_time_school":false,"id":"MV-75235639","lat":53.44431,"lon":12.560033,"name":"Müritz-Schule Sietow - Schule mit dem Förderschwerpunkt geistige Entwicklung","official_id":"75235639","phone":"039931/8450","school_type":"Förderschule","school_type_entity":"Förderschule","state":"MV"},{"address":"Geschwister-Scholl-Straße 14, 17033 Neubrandenburg","fax":"0395/599991109","full_time_school":false,"id":"MV-75330233","lat":53.547446,"lon":13.268417,"name":"Gesamtschule \"Vier Tore\", Integrierte Gesamtschule, Neubrandenburg","official_id":"75330233","phone":"0395/599991100","school_type":"Integrierte Gesamtschule","school_type_entity":"Integrierte Gesamtschule","state":"MV"},{"address":"Pestalozzistraße 1, 17087 Altentreptow","fax":"03961/215513","full_time_school":false,"id":"MV-75335243","lat":53.685204,"lon":13.245719,"name":"Kooperative Gesamtschule mit gymnasialer Oberstufe, Altentreptow","official_id":"75335243","phone":"03961/215512","school_type":"Kooperative Gesamtschule","school_type_entity":"Kooperative Gesamtschule","state":"MV"},{"address":"Straße am Wasserturm 1, 17153 Stavenhagen","fax":"039954/27181","full_time_school":false,"id":"MV-75335247","lat":53.696903,"lon":12.898265,"name":"Reuterstädter Gesamtschule - Europaschule -\nKooperative Gesamtschule, Stavenhagen","official_id":"75335247","phone":"039954/22043","school_type":"Kooperative Gesamtschule","school_type_entity":"Kooperative Gesamtschule","state":"MV"},{"address":"Dr. Karl-Bayer-Straße 4, 17098 Friedland","fax":"039601/29124","full_time_school":false,"id":"MV-75335537","lat":53.65,"lon":13.53333,"name":"Kooperative Gesamtschule mit gymnasialer Oberstufe, Friedland","official_id":"75335537","phone":"039601/2910","school_type":"Kooperative Gesamtschule","school_type_entity":"Kooperative Gesamtschule","state":"MV"},{"address":"Lessingstraße 27, 17235 Neustrelitz","fax":"03981/455999","full_time_school":false,"id":"MV-75335541","lat":53.354544,"lon":13.083454,"name":"Integrierte Gesamtschule \"Walter Karbe\"","official_id":"75335541","phone":"03981/455991","school_type":"Integrierte Gesamtschule","school_type_entity":"Integrierte Gesamtschule","state":"MV"},{"address":"Schulstraße 3, 17213 Malchow","fax":"039932/16633","full_time_school":false,"id":"MV-75335614","lat":53.470829,"lon":12.408447,"name":"Fleesenseeschule Malchow - Verbundene Regionale Schule und Gymnasium","official_id":"75335614","phone":"039932/1660","school_type":"Kooperative Gesamtschule","school_type_entity":"Kooperative Gesamtschule","state":"MV"},{"address":"Gotthunskamp 13, 17207 Röbel/Müritz","fax":"039931/52206  ","full_time_school":false,"id":"MV-75335616","lat":53.374741,"lon":12.603148,"name":"Schulcampus Röbel, Verbundene Regionale Schule und Gymnasium","official_id":"75335616","phone":"039931/52202","school_type":"Kooperative Gesamtschule","school_type_entity":"Kooperative Gesamtschule","state":"MV"},{"address":"Katharinenstraße 1, 17033 Neubrandenburg","fax":"0395/5551173","full_time_school":false,"id":"MV-75430216","lat":53.556431,"lon":13.269182,"name":"Regionale Schule Mitte  \"Fritz Reuter\", Neubrandenburg","official_id":"75430216","phone":"0395/5551201","school_type":"Regionale Schule","school_type_entity":"Regionale Schule","state":"MV"},{"address":"Kopernikusstraße 4, 17036 Neubrandenburg","fax":"0395/5551641","full_time_school":false,"id":"MV-75430219","lat":53.55121,"lon":13.295207,"name":"Regionale Schule \"Am Lindetal\", Neubrandenburg","official_id":"75430219","phone":"0395/5551632","school_type":"Regionale Schule","school_type_entity":"Regionale Schule","state":"MV"},{"address":"Dükerweg 2, 17033 Neubrandenburg","fax":"0395/5551175","full_time_school":false,"id":"MV-75430225","lat":53.555874,"lon":13.244095,"name":"Regionale Schule Nord, Neubrandenburg","official_id":"75430225","phone":"0395/5551141","school_type":"Regionale Schule","school_type_entity":"Regionale Schule","state":"MV"},{"address":"Rudolf-Fritz-Straße 8a, 17139 Malchin","fax":"03994/222219","full_time_school":false,"id":"MV-75435221","lat":53.739756,"lon":12.753981,"name":"Regionale Schule Siegfried Marcus, Malchin","official_id":"75435221","phone":"03994/222277","school_type":"Regionale Schule","school_type_entity":"Regionale Schule","state":"MV"},{"address":"Schützenstraße 1, 17109 Demmin","fax":"03998/271115","full_time_school":false,"id":"MV-75435222","lat":53.903922,"lon":13.050822,"name":"Regionale Schule mit Grundschule Pestalozzi, Demmin","official_id":"75435222","phone":"03998/271111","school_type":"Regionale Schule mit Grundschule","school_type_entity":"Regionale Schule","state":"MV"},{"address":"Am Sportplatz 18, 17159 Dargun","fax":"039959/27960","full_time_school":false,"id":"MV-75435227","lat":53.90257,"lon":12.853109,"name":"Regionale Schule Dargun","official_id":"75435227","phone":"039959/20278","school_type":"Regionale Schule","school_type_entity":"Regionale Schule","state":"MV"},{"address":"Frauenstraße 18, 17109 Demmin","fax":"03998/222072","full_time_school":false,"id":"MV-75435229","lat":53.905696,"lon":13.038354,"name":"Regionale Schule \"Fritz Reuter\", Demmin","official_id":"75435229","phone":"03998/222072","school_type":"Regionale Schule","school_type_entity":"Regionale Schule","state":"MV"},{"address":"Waldstraße 6, 17091 Tützpatz","fax":"039600/20518","full_time_school":false,"id":"MV-75435242","lat":53.725203,"lon":13.14229,"name":"Regionale Schule mit Grundschule Tützpatz","official_id":"75435242","phone":"039600/21272","school_type":"Regionale Schule mit Grundschule","school_type_entity":"Regionale Schule","state":"MV"},{"address":"Tiergartenstraße 32, 17235 Neustrelitz","fax":"03981/238620","full_time_school":false,"id":"MV-75435523","lat":53.358936,"lon":13.067469,"name":"Regionale Schule \"J. Nehru\", Neustrelitz","official_id":"75435523","phone":"03981/23860","school_type":"Regionale Schule","school_type_entity":"Regionale Schule","state":"MV"},{"address":"Wollweberstraße 27, 17348 Woldegk","fax":"03963/210505","full_time_school":false,"id":"MV-75435529","lat":53.458247,"lon":13.581347,"name":"Regionale Schule mit Grundschule Woldegk","official_id":"75435529","phone":"03963/210302","school_type":"Regionale Schule mit Grundschule","school_type_entity":"Regionale Schule","state":"MV"},{"address":"Schulstraße 12, 17237 Blankensee","fax":"039826/12406","full_time_school":false,"id":"MV-75435531","lat":53.406485,"lon":13.267367,"name":"Regionale Schule mit Grundschule \"Am Kirschgarten\", Blankensee","official_id":"75435531","phone":"039826/12405","school_type":"Regionale Schule mit Grundschule","school_type_entity":"Regionale Schule","state":"MV"},{"address":"In den Wällen 9a, 17255 Wesenberg","fax":"039832/20510","full_time_school":false,"id":"MV-75435536","lat":53.286209,"lon":12.967809,"name":"Regionale Schule mit Grundschule Wesenberg","official_id":"75435536","phone":"039832/20345","school_type":"Regionale Schule mit Grundschule","school_type_entity":"Regionale Schule","state":"MV"},{"address":"Klüschenbergstraße 13, 17094 Burg Stargard","fax":"039603/22915","full_time_school":false,"id":"MV-75435542","lat":53.492774,"lon":13.31789,"name":"Regionale Schule Burg Stargard","official_id":"75435542","phone":"039603/20312","school_type":"Regionale Schule","school_type_entity":"Regionale Schule","state":"MV"},{"address":"Bahnhofstraße 5, 17258 Feldberg","fax":"039831/22149","full_time_school":false,"id":"MV-75435543","lat":53.331889,"lon":13.435601,"name":"Regionale Schule mit Grundschule \"Hans Fallada\", Feldberg","official_id":"75435543","phone":"039831/21619","school_type":"Regionale Schule mit Grundschule","school_type_entity":"Regionale Schule","state":"MV"},{"address":"Hirtenstraße 12, 17217 Penzlin","fax":"03962/210233","full_time_school":false,"id":"MV-75435615","lat":53.505939,"lon":13.08641,"name":"Regionale Schule mit Grundschule Penzlin","official_id":"75435615","phone":"03962/210232","school_type":"Regionale Schule mit Grundschule","school_type_entity":"Regionale Schule","state":"MV"},{"address":"Neuer Markt 28, 17248 Rechlin","fax":"039823/21470","full_time_school":false,"id":"MV-75435617","lat":53.330282,"lon":12.723002,"name":"Regionale Schule Rechlin","official_id":"75435617","phone":"039823/21216","school_type":"Regionale Schule","school_type_entity":"Regionale Schule","state":"MV"},{"address":"Am Markt 10, 17219 Möllenhagen","fax":"039928/80220","full_time_school":false,"id":"MV-75435624","lat":53.528443,"lon":12.931414,"name":"Regionale Schule \"Heinrich Schliemann\", Möllenhagen","official_id":"75435624","phone":"039928/80212","school_type":"Regionale Schule","school_type_entity":"Regionale Schule","state":"MV"},{"address":"Kirschenweg 2, 17192 Waren (Müritz)","fax":"03991/640219","full_time_school":false,"id":"MV-75435630","lat":53.509904,"lon":12.696208,"name":"Regionale Schule \"Friedrich Dethloff\", Waren","official_id":"75435630","phone":"03991/64020","school_type":"Regionale Schule","school_type_entity":"Regionale Schule","state":"MV"},{"address":"Friedrich-Engels-Platz 10, 17192 Waren (Müritz)","fax":"03991/168960","full_time_school":false,"id":"MV-75435636","lat":53.521773,"lon":12.669369,"name":"Regionale Schule Waren","official_id":"75435636","phone":"03991/168918","school_type":"Regionale Schule","school_type_entity":"Regionale Schule","state":"MV"},{"address":"Demminer Straße 42, 17034 Neubrandenburg","fax":"0395/599991616","full_time_school":false,"id":"MV-75530227","lat":53.56602,"lon":13.268815,"name":"Albert-Einstein-Gymnasium, Neubrandenburg","official_id":"75530227","phone":"0395/599991600","school_type":"Gymnasium","school_type_entity":"Gymnasium","state":"MV"},{"address":"Schwedenstraße 22, 17033 Neubrandenburg","fax":"0395/599991816","full_time_school":false,"id":"MV-75530232","lat":53.550659,"lon":13.25765,"name":"Sportgymnasium Neubrandenburg","official_id":"75530232","phone":"0395/599991800","school_type":"Gymnasium","school_type_entity":"Gymnasium","state":"MV"},{"address":"Demminer Straße 42, 17034 Neubrandenburg","fax":"0395/599991623","full_time_school":false,"id":"MV-75530240","lat":53.56602,"lon":13.268815,"name":"Abendgymnasium Neubrandenburg","official_id":"75530240","phone":"0395/599991621","school_type":"Abendgymnasium","school_type_entity":"Abend-Gymnasium","state":"MV"},{"address":"An der Mühle 7, 17109 Demmin","fax":null,"full_time_school":false,"id":"MV-75535244","lat":53.907227,"lon":13.05325,"name":"Goethe-Gymnasium - Musikgymnasium - Demmin","official_id":"75535244","phone":"03998/222067","school_type":"Gymnasium","school_type_entity":"Gymnasium","state":"MV"},{"address":"Am Zachow 39, 17139 Malchin","fax":"03994/2999886","full_time_school":false,"id":"MV-75535246","lat":53.737109,"lon":12.750816,"name":"Fritz-Greve-Gymnasium Malchin","official_id":"75535246","phone":"03994/227205","school_type":"Gymnasium","school_type_entity":"Gymnasium","state":"MV"},{"address":"Louisenstraße 30, 17235 Neustrelitz","fax":"03981/286730","full_time_school":false,"id":"MV-75535539","lat":53.365843,"lon":13.068172,"name":"Gymnasium Carolinum, Neustrelitz","official_id":"75535539","phone":"03981/286710","school_type":"Gymnasium","school_type_entity":"Gymnasium","state":"MV"},{"address":"Güstrower Straße 11, 17192 Waren (Müritz)","fax":"03991/747727","full_time_school":false,"id":"MV-75535635","lat":53.517309,"lon":12.686899,"name":"Richard-Wossidlo-Gymnasium","official_id":"75535635","phone":"03991/74770","school_type":"Gymnasium","school_type_entity":"Gymnasium","state":"MV"},{"address":"Anton-Saefkow-Straße 9, 23968 Wismar","fax":"03841/6189789","full_time_school":false,"id":"MV-75130601","lat":53.904487,"lon":11.425419,"name":"Grundschule \"Seeblick\", Wismar","official_id":"75130601","phone":"03841/636695","school_type":"Grundschule","school_type_entity":"Grundschule","state":"MV"},{"address":"Tallinner Straße 01, 23970 Wismar","fax":"03841/224188","full_time_school":false,"id":"MV-75130602","lat":53.901584,"lon":11.476431,"name":"Grundschule \"Rudolf Tarnow\", Wismar","official_id":"75130602","phone":"03841/282022","school_type":"Grundschule","school_type_entity":"Grundschule","state":"MV"},{"address":"Dahlmannstraße 14, 23966 Wismar","fax":"03841/395359","full_time_school":false,"id":"MV-75130603","lat":53.888612,"lon":11.459216,"name":"Grundschule \"Fritz Reuter\", Wismar","official_id":"75130603","phone":"03841/283064","school_type":"Grundschule","school_type_entity":"Grundschule","state":"MV"},{"address":"H.-Rothbarth-Straße 1 a, 23966 Wismar","fax":"03841/326261","full_time_school":false,"id":"MV-75130604","lat":53.8925,"lon":11.465,"name":"Grundschule \"Friedenshof\", Wismar","official_id":"75130604","phone":"03841/707527","school_type":"Grundschule","school_type_entity":"Grundschule","state":"MV"},{"address":"Schulstraße 08, 19217 Carlow","fax":"038873/33475","full_time_school":false,"id":"MV-75135802","lat":53.758402,"lon":10.936093,"name":"Grundschule Carlow","official_id":"75135802","phone":"038873/20264","school_type":"Grundschule","school_type_entity":"Grundschule","state":"MV"},{"address":"Karl-Marx-Straße 13, 23972 Dorf Mecklenburg","fax":"03841/333989","full_time_school":false,"id":"MV-75135804","lat":53.845404,"lon":11.464122,"name":"Grundschule Dorf Mecklenburg","official_id":"75135804","phone":"03841/795924","school_type":"Grundschule","school_type_entity":"Grundschule","state":"MV"},{"address":"Kleine Allee 44, 23936 Grevesmühlen","fax":"03881/711173","full_time_school":false,"id":"MV-75135806","lat":53.86282,"lon":11.187386,"name":"Grundschule \"Fritz Reuter\", Grevesmühlen","official_id":"75135806","phone":"03881/2511","school_type":"Grundschule","school_type_entity":"Grundschule","state":"MV"},{"address":"Ploggenseering 64, 23936 Grevesmühlen","fax":"03881/710039","full_time_school":false,"id":"MV-75135807","lat":53.864941,"lon":11.195576,"name":"Grundschule \"Ploggensee\", Grevesmühlen","official_id":"75135807","phone":"03881/712206","school_type":"Grundschule","school_type_entity":"Grundschule","state":"MV"},{"address":"Alte Gärtnerei 1, 23992 Neukloster","fax":"038422/20427","full_time_school":false,"id":"MV-75135818","lat":53.862243,"lon":11.692042,"name":"Grundschule Neukloster","official_id":"75135818","phone":"038422/20357","school_type":"Grundschule","school_type_entity":"Grundschule","state":"MV"},{"address":"Neue Reihe 11, 23923 Selmsdorf","fax":"038823/2302","full_time_school":false,"id":"MV-75135819","lat":53.881132,"lon":10.857693,"name":"Grundschule Selmsdorf","official_id":"75135819","phone":"038823/2301","school_type":"Grundschule","school_type_entity":"Grundschule","state":"MV"},{"address":"Geschwister-Scholl-Straße 5, 19417 Warin","fax":"038482/22346","full_time_school":false,"id":"MV-75135823","lat":53.803166,"lon":11.705034,"name":"Grundschule \"Fritz Reuter\", Warin","official_id":"75135823","phone":"038482/60409","school_type":"Grundschule","school_type_entity":"Grundschule","state":"MV"},{"address":"Schulstraße 27, 23996 Bobitz","fax":"038424/41123","full_time_school":false,"id":"MV-75135825","lat":53.801437,"lon":11.359256,"name":"Grundschule Bobitz","official_id":"75135825","phone":"038424/4110","school_type":"Grundschule","school_type_entity":"Grundschule","state":"MV"},{"address":"Zum Rehm 3, 19071 Brüsewitz","fax":"038874/41424","full_time_school":false,"id":"MV-75135826","lat":53.675603,"lon":11.249388,"name":"Grundschule Brüsewitz","official_id":"75135826","phone":"038874/41424","school_type":"Grundschule","school_type_entity":"Grundschule","state":"MV"},{"address":"Schulstraße 12, 23974 Dreveskirchen","fax":"038427/40839","full_time_school":false,"id":"MV-75135828","lat":53.994778,"lon":11.538917,"name":"Grundschule Dreveskirchen","official_id":"75135828","phone":"038427/40839","school_type":"Grundschule","school_type_entity":"Grundschule","state":"MV"},{"address":"Am Sportplatz, 23942 Kalkhorst","fax":"038827/88858","full_time_school":false,"id":"MV-75135833","lat":53.967383,"lon":11.042218,"name":"Grundschule \"Adolf Diesterweg\", Kalkhorst","official_id":"75135833","phone":"038827/205","school_type":"Grundschule","school_type_entity":"Grundschule","state":"MV"},{"address":"Dorfstraße 22, 23972 Lübow","fax":"03841/780408","full_time_school":false,"id":"MV-75135835","lat":53.851075,"lon":11.526578,"name":"Grundschule Lübow","official_id":"75135835","phone":"03841/785822","school_type":"Grundschule","school_type_entity":"Grundschule","state":"MV"},{"address":"Klützer Straße 11 - 15, 23946 Boltenhagen","fax":"038825/23656","full_time_school":false,"id":"MV-75135841","lat":53.987159,"lon":11.197995,"name":"Grundschule Ostseebad Boltenhagen","official_id":"75135841","phone":"038825/22259","school_type":"Grundschule","school_type_entity":"Grundschule","state":"MV"},{"address":"Gadebuscher Straße 6, 19205 Roggendorf","fax":"038876/31603","full_time_school":false,"id":"MV-75135844","lat":53.694665,"lon":11.018386,"name":"Grundschule Roggendorf","official_id":"75135844","phone":"038876/20237","school_type":"Grundschule","school_type_entity":"Grundschule","state":"MV"},{"address":"Liselotte-Herrmann-Straße 5, 23968 Wismar","fax":"03841/629179","full_time_school":false,"id":"MV-75230619","lat":53.89905,"lon":11.423407,"name":"Claus-Jesup-Schule Wismar - Schule mit dem Förderschwerpunkt Lernen","official_id":"75230619","phone":"03841/636660","school_type":"Förderschule","school_type_entity":"Förderschule","state":"MV"},{"address":"Agnes-Karll-Straße 6 - 8, 19205 Gadebusch","fax":"03886/3662043","full_time_school":false,"id":"MV-75235854","lat":53.695565,"lon":11.107346,"name":"Schule mit dem Förderschwerpunkt Lernen \"Johann-Heinrich-Pestalozzi\" Gadebusch","official_id":"75235854","phone":"03886/3662040","school_type":"Förderschule","school_type_entity":"Förderschule","state":"MV"},{"address":"R.-Hartmann-Straße 13, 23923 Schönberg","fax":"038828/23578","full_time_school":false,"id":"MV-75235855","lat":53.85,"lon":10.91667,"name":"Schule mit dem Förderschwerpunkt Lernen \"Anne Frank\" Schönberg","official_id":"75235855","phone":"038828/21241","school_type":"Förderschule","school_type_entity":"Förderschule","state":"MV"},{"address":"Wismarsche Straße 124, 23936 Grevesmühlen","fax":"03881/712716","full_time_school":false,"id":"MV-75235856","lat":53.863662,"lon":11.194977,"name":"Schule mit dem Förderschwerpunkt Lernen \"An den Linden\" Grevesmühlen","official_id":"75235856","phone":"03881/2349","school_type":"Förderschule","school_type_entity":"Förderschule","state":"MV"},{"address":"Alte Gärtnerei 1, 23992 Neukloster","fax":"038422/400215","full_time_school":false,"id":"MV-75235858","lat":53.862243,"lon":11.692042,"name":"Schule mit dem Förderschwerpunkt Lernen \"Fritz D. v. d.  Schulenburg\" Neukloster","official_id":"75235858","phone":"038422/400211","school_type":"Förderschule","school_type_entity":"Förderschule","state":"MV"},{"address":"August-Bebel-Allee 7, 23992 Neukloster","fax":"038422/45212","full_time_school":false,"id":"MV-75235859","lat":53.862203,"lon":11.69529,"name":"Landesschule für Blinde und Sehbehinderte","official_id":"75235859","phone":"038422/4520","school_type":"Förderschule","school_type_entity":"Förderschule","state":"MV"},{"address":"Neuendorfer Weg 5, 23974 Neuburg","fax":"038426/22140","full_time_school":false,"id":"MV-75235861","lat":53.944388,"lon":11.588931,"name":"Schule mit dem Förderschwerpunkt geistige Entwicklung \"Am Wallberg\" Neuburg","official_id":"75235861","phone":"038426/20215","school_type":"Förderschule","school_type_entity":"Förderschule","state":"MV"},{"address":"Bei der Klosterkirche 8, 23966 Wismar","fax":"03841/223756","full_time_school":false,"id":"MV-75330618","lat":53.889192,"lon":11.465997,"name":"Integrierte Gesamtschule \"J .Wolfgang v. Goethe\" Wismar","official_id":"75330618","phone":"03841/282822","school_type":"Integrierte Gesamtschule","school_type_entity":"Integrierte Gesamtschule","state":"MV"},{"address":"Ernst-Thälmann-Straße 14, 23972 Dorf Mecklenburg","fax":"03841/797091","full_time_school":false,"id":"MV-75335849","lat":53.843999,"lon":11.464414,"name":"Verbundene Regionale Schule und  Gymnasium \"Tisa v.d. Schulenburg\", Dorf Mecklenburg","official_id":"75335849","phone":"03841/795923","school_type":"Kooperative Gesamtschule","school_type_entity":"Kooperative Gesamtschule","state":"MV"},{"address":"B.-Tesch-Straße 31, 23968 Wismar","fax":"03841/632775","full_time_school":false,"id":"MV-75430610","lat":53.900349,"lon":11.331744,"name":"Ostsee-Schule Wismar, Regionale Schule","official_id":"75430610","phone":"03841/636675","school_type":"Regionale Schule","school_type_entity":"Regionale Schule","state":"MV"},{"address":"Kapitänspromenade 25, 23966 Wismar","fax":"03841/3266863","full_time_school":false,"id":"MV-75430612","lat":53.881388,"lon":11.440249,"name":"Regionale Schule \"B. Brecht\", Wismar","official_id":"75430612","phone":"03841/707291","school_type":"Regionale Schule","school_type_entity":"Regionale Schule","state":"MV"},{"address":"R.-Breitscheid-Straße 50, 23942 Dassow","fax":"038826/88963","full_time_school":false,"id":"MV-75435815","lat":53.9,"lon":10.96667,"name":"Regionale Schule mit Grundschule Dassow","official_id":"75435815","phone":"038826/80436","school_type":"Regionale Schule mit Grundschule","school_type_entity":"Regionale Schule","state":"MV"},{"address":"Straße des Friedens 2, 23948 Klütz","fax":"038825/23886","full_time_school":false,"id":"MV-75435816","lat":53.963501,"lon":11.166254,"name":"Regionale Schule Klütz","official_id":"75435816","phone":"038825/22597","school_type":"Regionale Schule","school_type_entity":"Regionale Schule","state":"MV"},{"address":"Bahnhofstraße 18, 19069 Lübstorf","fax":"03867/9601070","full_time_school":false,"id":"MV-75435817","lat":53.729246,"lon":11.408384,"name":"Regionale Schule mit Grundschule \"Werner Lindemann\", Lübstorf","official_id":"75435817","phone":"03867/269","school_type":"Regionale Schule mit Grundschule","school_type_entity":"Regionale Schule","state":"MV"},{"address":"Schulstraße 11, 23996 Bad Kleinen","fax":"038423/50988","full_time_school":false,"id":"MV-75435824","lat":53.772921,"lon":11.473039,"name":"Regionale Schule mit Grundschule  \"Am Schweriner See\", Bad Kleinen","official_id":"75435824","phone":"038423/228","school_type":"Regionale Schule mit Grundschule","school_type_entity":"Regionale Schule","state":"MV"},{"address":"Heinrich-Heine-Straße 40, 19205 Gadebusch","fax":"03886/712626","full_time_school":false,"id":"MV-75435830","lat":53.700351,"lon":11.104618,"name":"Regionale Schule mit Grundschule Gadebusch","official_id":"75435830","phone":"03886/35233","school_type":"Regionale Schule mit Grundschule","school_type_entity":"Regionale Schule","state":"MV"},{"address":"Ploggenseering 68, 23936 Grevesmühlen","fax":"03881/2348","full_time_school":false,"id":"MV-75435832","lat":53.86462,"lon":11.197162,"name":"Regionale Schule \"Wasserturm\", Grevesmühlen","official_id":"75435832","phone":"03881/78790","school_type":"Regionale Schule","school_type_entity":"Regionale Schule","state":"MV"},{"address":"Straße der Jugend 5, 23999 Kirchdorf","fax":"038425/42153","full_time_school":false,"id":"MV-75435834","lat":54.001347,"lon":11.438535,"name":"Regionale Schule mit Grundschule Kirchdorf","official_id":"75435834","phone":"038425/20219","school_type":"Regionale Schule mit Grundschule","school_type_entity":"Regionale Schule","state":"MV"},{"address":"Hauptstraße 21, 23923 Wahrsow","fax":"038828/3302119","full_time_school":false,"id":"MV-75435836","lat":53.820407,"lon":10.983742,"name":"Regionale Schule mit Grundschule Lüdersdorf","official_id":"75435836","phone":"038821/60736","school_type":"Regionale Schule mit Grundschule","school_type_entity":"Regionale Schule","state":"MV"},{"address":"Pokrenter Straße 4, 19209 Lützow","fax":"038874/21396","full_time_school":false,"id":"MV-75435837","lat":53.652925,"lon":11.170421,"name":"Regionale Schule mit Grundschule Lützow","official_id":"75435837","phone":"038874/22230","school_type":"Regionale Schule mit Grundschule","school_type_entity":"Regionale Schule","state":"MV"},{"address":"Schulstraße 8, 19205 Mühlen Eichsen","fax":"038871/21883","full_time_school":false,"id":"MV-75435838","lat":53.758522,"lon":11.247293,"name":"Regionale Schule mit Grundschule Mühlen-Eichsen","official_id":"75435838","phone":"038871/22216","school_type":"Regionale Schule mit Grundschule","school_type_entity":"Regionale Schule","state":"MV"},{"address":"Hauptstraße 41, 23974 Neuburg","fax":"038426/229801","full_time_school":false,"id":"MV-75435839","lat":53.944342,"lon":11.593463,"name":"Regionale Schule mit Grundschule \"Am Rietberg\", Neuburg","official_id":"75435839","phone":"038426/20233","school_type":"Regionale Schule mit Grundschule","school_type_entity":"Regionale Schule","state":"MV"},{"address":"August-Bebel-Allee 6, 23992 Neukloster","fax":"038422/29974","full_time_school":false,"id":"MV-75435840","lat":53.863136,"lon":11.693341,"name":"Regionale Schule Neukloster","official_id":"75435840","phone":"038422/20233","school_type":"Regionale Schule","school_type_entity":"Regionale Schule","state":"MV"},{"address":"Hauptstraße 18, 23968 Proseken","fax":"038428/63544","full_time_school":false,"id":"MV-75435842","lat":53.906424,"lon":11.366479,"name":"Regionale Schule mit Grundschule Proseken","official_id":"75435842","phone":"038428/60232","school_type":"Regionale Schule mit Grundschule","school_type_entity":"Regionale Schule","state":"MV"},{"address":"Benziner Weg 3, 19217 Rehna","fax":"038872/65320","full_time_school":false,"id":"MV-75435843","lat":53.777105,"lon":11.058043,"name":"Regionale Schule mit Grundschule \"Käthe Kollwitz\", Rehna","official_id":"75435843","phone":"038872/6530","school_type":"Regionale Schule mit Grundschule","school_type_entity":"Regionale Schule","state":"MV"},{"address":"Dassower Straße 10, 23923 Schönberg","fax":"038828/25322","full_time_school":false,"id":"MV-75435845","lat":53.855885,"lon":10.928892,"name":"Regionale Schule mit Grundschule Schönberg","official_id":"75435845","phone":"038828/25320","school_type":"Regionale Schule mit Grundschule","school_type_entity":"Regionale Schule","state":"MV"},{"address":"Hauptstraße 18a, 19217 Schlagsdorf","fax":"038875/20211","full_time_school":false,"id":"MV-75435846","lat":53.73189,"lon":10.823368,"name":"Regionale Schule mit Grundschule Schlagsdorf","official_id":"75435846","phone":"038875/20211","school_type":"Regionale Schule mit Grundschule","school_type_entity":"Regionale Schule","state":"MV"},{"address":"Schulstraße 9/11, 23966 Wismar","fax":"03841/205263","full_time_school":false,"id":"MV-75530615","lat":53.894068,"lon":11.466329,"name":"Große Stadtschule\nGeschwister-Scholl-Gymnasium, Wismar","official_id":"75530615","phone":"03841/282732","school_type":"Gymnasium","school_type_entity":"Gymnasium","state":"MV"},{"address":"Dahlmannstraße 40, 23966 Wismar","fax":"03841/205261","full_time_school":false,"id":"MV-75530617","lat":53.891284,"lon":11.455904,"name":"Gerhart-Hauptmann-Gymnasium, Wismar","official_id":"75530617","phone":"03841/283358","school_type":"Gymnasium","school_type_entity":"Gymnasium","state":"MV"},{"address":"Agnes-Karll-Straße 20, 19205 Gadebusch","fax":"03886/35152","full_time_school":false,"id":"MV-75535850","lat":53.695184,"lon":11.105355,"name":"Gymnasium Gadebusch","official_id":"75535850","phone":"03886/35149","school_type":"Gymnasium","school_type_entity":"Gymnasium","state":"MV"},{"address":"Rehnaer Straße 51, 23936 Grevesmühlen","fax":"03881/788227","full_time_school":false,"id":"MV-75535851","lat":53.852217,"lon":11.183098,"name":"Gymnasium am Tannenberg, Grevesmühlen","official_id":"75535851","phone":"03881/78820","school_type":"Gymnasium","school_type_entity":"Gymnasium","state":"MV"},{"address":"August-Bebel-Allee 9, 23992 Neukloster","fax":"038422/25467","full_time_school":false,"id":"MV-75535852","lat":53.862502,"lon":11.692851,"name":"Gymnasium Am Sonnenkamp, Neukloster","official_id":"75535852","phone":"038422/25349","school_type":"Gymnasium","school_type_entity":"Gymnasium","state":"MV"},{"address":"Goetheplatz 5, 23923 Schönberg","fax":"038828/23633","full_time_school":false,"id":"MV-75535853","lat":53.844778,"lon":10.925177,"name":"Ernst-Barlach-Gymnasium, Schönberg","official_id":"75535853","phone":"038828/24433","school_type":"Gymnasium","school_type_entity":"Gymnasium","state":"MV"},{"address":"v.-Thünen-Straße 9, 19053 Schwerin","fax":"0385/7588679","full_time_school":false,"id":"MV-75130403","lat":53.627339,"lon":11.403277,"name":"Grundschule \"Fritz Reuter\", Schwerin","official_id":"75130403","phone":"0385/732514","school_type":"Grundschule","school_type_entity":"Grundschule","state":"MV"},{"address":"Eulerstraße 2, 19063 Schwerin","fax":"0385/2010129","full_time_school":false,"id":"MV-75130405","lat":53.59637,"lon":11.465596,"name":"Grundschule am Mueßer Berg, Schwerin","official_id":"75130405","phone":"0385/2012107","school_type":"Grundschule","school_type_entity":"Grundschule","state":"MV"},{"address":"Willi-Bredel-Straße 17, 19059 Schwerin","fax":"0385/7589519","full_time_school":false,"id":"MV-75130406","lat":53.636166,"lon":11.391211,"name":"Grundschule \"John Brinckman\", Schwerin","official_id":"75130406","phone":"0385/785886","school_type":"Grundschule","school_type_entity":"Grundschule","state":"MV"},{"address":"Friedrich-Engels-Straße 35, 19061 Schwerin","fax":"0385/3921816","full_time_school":false,"id":"MV-75130408","lat":53.601895,"lon":11.431058,"name":"Grundschule \"Nils Holgersson\", Schwerin","official_id":"75130408","phone":"0385/3921815","school_type":"Grundschule","school_type_entity":"Grundschule","state":"MV"},{"address":"Amtstraße 3, 19055 Schwerin","fax":"0385/5557863","full_time_school":false,"id":"MV-75130410","lat":53.632003,"lon":11.421199,"name":"Grundschule \"Heinrich Heine\", Schwerin","official_id":"75130410","phone":"0385/562758","school_type":"Grundschule","school_type_entity":"Grundschule","state":"MV"},{"address":"Rahlstedter Straße 3b, 19057 Schwerin","fax":"0385/4807575","full_time_school":false,"id":"MV-75130411","lat":53.650324,"lon":11.363845,"name":"Grundschule \"Lankow\", Schwerin","official_id":"75130411","phone":"0385/4842028","school_type":"Grundschule","school_type_entity":"Grundschule","state":"MV"},{"address":"Friedensstraße 14, 19053 Schwerin","fax":"0385/7589200","full_time_school":false,"id":"MV-75130414","lat":53.631147,"lon":11.403862,"name":"Grundschule \"Friedensschule\", Schwerin","official_id":"75130414","phone":"0385/7851853","school_type":"Grundschule","school_type_entity":"Grundschule","state":"MV"},{"address":"Hamburger Allee 126, 19063 Schwerin","fax":"0385/2182855","full_time_school":false,"id":"MV-75230437","lat":53.592387,"lon":11.464187,"name":"Sonderpädagogisches Förderzentrum \"Am Fernsehturm\" Schwerin,  Schule mit dem Förderschwerpunkt Lernen","official_id":"75230437","phone":"0385/2071125","school_type":"Förderschule","school_type_entity":"Förderschule","state":"MV"},{"address":"A.-Sacharow-Straße 75, 19061 Schwerin","fax":"0385/39929904","full_time_school":false,"id":"MV-75230439","lat":53.590353,"lon":11.395873,"name":"Sprachheilpädagogisches Förderzentrum Schwerin","official_id":"75230439","phone":"0385/3260011","school_type":"Förderschule","school_type_entity":"Förderschule","state":"MV"},{"address":"Ratzeburger Straße 31, 19057 Schwerin","fax":"0385/4855111","full_time_school":false,"id":"MV-75230440","lat":53.650445,"lon":11.361105,"name":"Mecklenburgisches Förderzentrum Schwerin, Schule mit dem Schwerpunkt körperliche und motorische Entwicklung","official_id":"75230440","phone":"0385/485510","school_type":"Förderschule","school_type_entity":"Förderschule","state":"MV"},{"address":"Liese-Meitner-Straße 1, 19063 Schwerin","fax":"0385/5585724","full_time_school":false,"id":"MV-75230441","lat":51.942164,"lon":7.010528,"name":"Albert-Schweitzer-Schule Schwerin, Schule mit dem Förderschwerpunkt geistige Entwicklung","official_id":"75230441","phone":"0385/558570","school_type":"Förderschule","school_type_entity":"Förderschule","state":"MV"},{"address":"Von-Stauffenberg-Straße 68, 19061 Schwerin","fax":"0385/3992960","full_time_school":false,"id":"MV-75330436","lat":53.605295,"lon":11.431426,"name":"Integrierte Gesamtschule  \"Bertolt Brecht\"  Schwerin","official_id":"75330436","phone":"0385/3921184","school_type":"Integrierte Gesamtschule","school_type_entity":"Integrierte Gesamtschule","state":"MV"},{"address":"R.-Breitscheid-Straße 23, 19053 Schwerin","fax":"0385/7610723","full_time_school":false,"id":"MV-75430421","lat":53.626464,"lon":11.407058,"name":"Regionale Schule  \"Erich Weinert\", Schwerin","official_id":"75430421","phone":"0385/732524","school_type":"Regionale Schule","school_type_entity":"Regionale Schule","state":"MV"},{"address":"Rahlstedter Straße 3A, 19057 Schwerin","fax":"0385/4867987","full_time_school":false,"id":"MV-75430423","lat":53.649844,"lon":11.364412,"name":"Regionale Schule \"Werner von Siemens\", Schwerin","official_id":"75430423","phone":"0385/4842037","school_type":"Regionale Schule","school_type_entity":"Regionale Schule","state":"MV"},{"address":"Tallinner Straße 4 - 6, 19063 Schwerin","fax":"0385/3979193","full_time_school":false,"id":"MV-75430425","lat":53.598887,"lon":11.447413,"name":"Regionale Schule mit Grundschule \"Astrid Lindgren\", Schwerin","official_id":"75430425","phone":"0385/3921143","school_type":"Regionale Schule mit Grundschule","school_type_entity":"Regionale Schule","state":"MV"},{"address":"Goethestraße 74, 19053 Schwerin","fax":"0385/3021333","full_time_school":false,"id":"MV-75530428","lat":53.626986,"lon":11.408977,"name":"Gymnasium Fridericianum, Schwerin","official_id":"75530428","phone":"0385/302130","school_type":"Gymnasium","school_type_entity":"Gymnasium","state":"MV"},{"address":"J.-R.-Becher-Straße 10, 19059 Schwerin","fax":"0385/75820520","full_time_school":false,"id":"MV-75530429","lat":52.14972,"lon":13.63306,"name":"Goethe-Gymnasium, Schwerin","official_id":"75530429","phone":"0385/7582050","school_type":"Gymnasium","school_type_entity":"Gymnasium","state":"MV"},{"address":"Von-Flotow-Straße 20, 19059 Schwerin","fax":"0385/7605820","full_time_school":false,"id":"MV-75530434","lat":53.625735,"lon":11.390565,"name":"Sportgymnasium, Schwerin","official_id":"75530434","phone":"0385/760580","school_type":"Gymnasium","school_type_entity":"Gymnasium","state":"MV"},{"address":"Goethestraße 74, 19053 Schwerin","fax":"0385/2079844","full_time_school":false,"id":"MV-75530444","lat":53.626986,"lon":11.408977,"name":"Abendgymnasium Schwerin","official_id":"75530444","phone":"0385/2079836","school_type":"Abendgymnasium","school_type_entity":"Abend-Gymnasium","state":"MV"},{"address":"Knopfstraße 25, 17489 Greifswald","fax":"03834/8850401","full_time_school":false,"id":"MV-75130102","lat":54.097501,"lon":13.382465,"name":"Käthe-Kollwitz-Grundschule","official_id":"75130102","phone":"03834/8850400","school_type":"Grundschule","school_type_entity":"Grundschule","state":"MV"},{"address":"Bleichstraße 36, 17489 Greifswald","fax":"03834/540598","full_time_school":false,"id":"MV-75130104","lat":54.088362,"lon":13.384947,"name":"Grundschule  \"Karl Krull\" Greifswald","official_id":"75130104","phone":"03834/540590","school_type":"Grundschule","school_type_entity":"Grundschule","state":"MV"},{"address":"Max-Planck-Straße 9, 17491 Greifswald","fax":"03834/884737","full_time_school":false,"id":"MV-75130109","lat":54.080116,"lon":13.408076,"name":"Grundschule \"Greif\" Greifswald","official_id":"75130109","phone":"03834/812063","school_type":"Grundschule","school_type_entity":"Grundschule","state":"MV"},{"address":"Makarenkostraße 53, 17491 Greifswald","fax":"03834/883668","full_time_school":false,"id":"MV-75130111","lat":54.082994,"lon":13.419367,"name":"Grundschule \"Erich Weinert\" Greifswald","official_id":"75130111","phone":"03834/812022","school_type":"Grundschule","school_type_entity":"Grundschule","state":"MV"},{"address":"Warschauer Straße 16, 17493 Greifswald","fax":"03834/518263","full_time_school":false,"id":"MV-75130113","lat":54.090028,"lon":13.420153,"name":"Grundschule \"Martin-Andersen-Nexö\" Greifswald","official_id":"75130113","phone":"03834/840189","school_type":"Grundschule","school_type_entity":"Grundschule","state":"MV"},{"address":"Rosenstraße 4, 17126 Jarmen","fax":"039997/10344","full_time_school":false,"id":"MV-75135208","lat":53.924671,"lon":13.33724,"name":"Grundschule Jarmen","official_id":"75135208","phone":"039997/10335","school_type":"Grundschule","school_type_entity":"Grundschule","state":"MV"},{"address":"Wilhelm-Irrgang-Weg 1, 17121 Loitz","fax":"039998/31361","full_time_school":false,"id":"MV-75135209","lat":53.970213,"lon":13.125531,"name":"Diesterweg-Grundschule Loitz","official_id":"75135209","phone":"039998/10467","school_type":"Grundschule","school_type_entity":"Grundschule","state":"MV"},{"address":"Schulstraße 1, 17121 Görmin","fax":"039992/70269","full_time_school":false,"id":"MV-75135223","lat":53.994128,"lon":13.272953,"name":"Grundschule \"Peenetal\" Görmin","official_id":"75135223","phone":"039992/70223","school_type":"Grundschule","school_type_entity":"Grundschule","state":"MV"},{"address":"Pommernring 21, 17129 Tutow","fax":"039999/70213","full_time_school":false,"id":"MV-75135254","lat":53.919825,"lon":13.230924,"name":"Grundschule Tutow","official_id":"75135254","phone":"039999/70208","school_type":"Grundschule","school_type_entity":"Grundschule","state":"MV"},{"address":"Eichenweg 6, 17389 Anklam","fax":"03971/258870","full_time_school":false,"id":"MV-75135902","lat":53.845548,"lon":13.700046,"name":"Grundschule \"Gebrüder Grimm\" Anklam","official_id":"75135902","phone":"03971/245607","school_type":"Grundschule","school_type_entity":"Grundschule","state":"MV"},{"address":"Adolf-Damaschke-Straße 7, 17389 Anklam","fax":"03971/293679","full_time_school":false,"id":"MV-75135904","lat":53.849513,"lon":13.684421,"name":"Grundschule \"Villa Kunterbunt\" Anklam","official_id":"75135904","phone":"03971/210169","school_type":"Grundschule","school_type_entity":"Grundschule","state":"MV"},{"address":"August-Bebel-Straße 3, 17424 Heringsdorf","fax":"038378/22403","full_time_school":false,"id":"MV-75135907","lat":53.955578,"lon":14.162456,"name":"Grundschule \"An der alten Feuerwehr\" Heringsdorf","official_id":"75135907","phone":"038378/22351","school_type":"Grundschule","school_type_entity":"Grundschule","state":"MV"},{"address":"Schulweg 2, 17495 Züssow","fax":"038355/61330","full_time_school":false,"id":"MV-75135909","lat":53.977708,"lon":13.547306,"name":"Grundschule Züssow","official_id":"75135909","phone":"038355/61387","school_type":"Grundschule","school_type_entity":"Grundschule","state":"MV"},{"address":"Schulstraße 4, 17449 Karlshagen","fax":"038371/55447","full_time_school":false,"id":"MV-75135910","lat":54.115531,"lon":13.838916,"name":"Grundschule Karlshagen","official_id":"75135910","phone":"038371/20633","school_type":"Grundschule","school_type_entity":"Grundschule","state":"MV"},{"address":"Schulstraße 5, 17440 Lassan","fax":"038374/80461","full_time_school":false,"id":"MV-75135912","lat":53.947043,"lon":13.852204,"name":"Grundschule Lassan","official_id":"75135912","phone":"038374/80461","school_type":"Grundschule","school_type_entity":"Grundschule","state":"MV"},{"address":"Baustraße 16, 17438 Wolgast","fax":"03836/234700","full_time_school":false,"id":"MV-75135918","lat":54.057239,"lon":13.762397,"name":"Grundschule Wolgast","official_id":"75135918","phone":"03836/202054","school_type":"Grundschule","school_type_entity":"Grundschule","state":"MV"},{"address":"Greifswalder Straße 7, 17509 Wusterhusen","fax":"038354/22808","full_time_school":false,"id":"MV-75135921","lat":54.114046,"lon":13.61427,"name":"Grundschule \"Lütt Matten\" Wusterhusen","official_id":"75135921","phone":"038354/22808","school_type":"Grundschule","school_type_entity":"Grundschule","state":"MV"},{"address":"Dannweg 13, 17454 Zinnowitz","fax":"038377/36881","full_time_school":false,"id":"MV-75135923","lat":54.080998,"lon":13.90798,"name":"Grundschule Zinnowitz","official_id":"75135923","phone":"038377/42266","school_type":"Grundschule","school_type_entity":"Grundschule","state":"MV"},{"address":"Schulstraße 2, 17509 Kemnitz","fax":"03852/233","full_time_school":false,"id":"MV-75135936","lat":54.073976,"lon":13.529775,"name":"Grundschule \"Fritz Reuter\" Kemnitz","official_id":"75135936","phone":"038352/231","school_type":"Grundschule","school_type_entity":"Grundschule","state":"MV"},{"address":"Straße der Freundschaft 14a, 17498 Dersekow","fax":"03834/510134","full_time_school":false,"id":"MV-75135943","lat":54.044333,"lon":13.302629,"name":"Grundschule \"Lütte Nordlichter\" Dersekow","official_id":"75135943","phone":"03834/5618","school_type":"Grundschule","school_type_entity":"Grundschule","state":"MV"},{"address":"Schulstraße 1, 17440 Kröslin","fax":"038370/20318","full_time_school":false,"id":"MV-75135945","lat":54.117835,"lon":13.747986,"name":"Grundschule \"Fritz Reuter\" Kröslin","official_id":"75135945","phone":"038370/20318","school_type":"Grundschule","school_type_entity":"Grundschule","state":"MV"},{"address":"Bauernstraße 3, 17391 Krien","fax":"039723/20127","full_time_school":false,"id":"MV-75135946","lat":53.827744,"lon":13.452669,"name":"Grundschule \"Schwalbennest\" Krien","official_id":"75135946","phone":"039723/20244","school_type":"Grundschule","school_type_entity":"Grundschule","state":"MV"},{"address":"Dorfstraße 11a, 17390 Schlatkow","fax":"039724/26860","full_time_school":false,"id":"MV-75135951","lat":53.886729,"lon":13.675032,"name":"Grundschule Schlatkow","official_id":"75135951","phone":"039724/22385","school_type":"Grundschule","school_type_entity":"Grundschule","state":"MV"},{"address":"Bäderstraße 48, 17406 Usedom","fax":"038372/76620","full_time_school":false,"id":"MV-75135955","lat":53.877964,"lon":13.927273,"name":"Grundschule  Stadt Usedom","official_id":"75135955","phone":"038372/70277","school_type":"Grundschule","school_type_entity":"Grundschule","state":"MV"},{"address":"Fischerstraße 18, 17459 Koserow","fax":"038375/22571","full_time_school":false,"id":"MV-75135968","lat":54.047157,"lon":13.998373,"name":"Vineta-Grundschule Koserow","official_id":"75135968","phone":"038375/22570","school_type":"Grundschule","school_type_entity":"Grundschule","state":"MV"},{"address":"Dorfstraße 9, 17375 Ahlbeck","fax":"039775/20202","full_time_school":false,"id":"MV-75136201","lat":53.644949,"lon":14.197823,"name":"Grundschule Ahlbeck","official_id":"75136201","phone":"039775/20202","school_type":"Grundschule","school_type_entity":"Grundschule","state":"MV"},{"address":"Waldstraße 20, 17367 Eggesin","fax":"039779/27619","full_time_school":false,"id":"MV-75136204","lat":53.67327,"lon":14.088508,"name":"Grundschule Eggesin","official_id":"75136204","phone":"039779/20341","school_type":"Grundschule","school_type_entity":"Grundschule","state":"MV"},{"address":"Friedrichstraße 33a, 17379 Ferdinandshof","fax":"039778/20693","full_time_school":false,"id":"MV-75136206","lat":53.662592,"lon":13.891347,"name":"Grundschule Ferdinandshof","official_id":"75136206","phone":"039778/20693","school_type":"Grundschule","school_type_entity":"Grundschule","state":"MV"},{"address":"Am See 10, 17321 Löcknitz","fax":"039754/20629","full_time_school":false,"id":"MV-75136209","lat":53.450437,"lon":14.21652,"name":"Grundschule \"Am See\" Löcknitz","official_id":"75136209","phone":"039754/20612","school_type":"Grundschule","school_type_entity":"Grundschule","state":"MV"},{"address":"Hinterreihe 161, 17375 Leopoldshagen","fax":"039774/299849","full_time_school":false,"id":"MV-75136210","lat":53.77291,"lon":13.899607,"name":"Grundschule Leopoldshagen","official_id":"75136210","phone":"039774/20218","school_type":"Grundschule","school_type_entity":"Grundschule","state":"MV"},{"address":"Ahornstraße 17, 17322 Mewegen","fax":"039744/50274","full_time_school":false,"id":"MV-75136211","lat":53.51151,"lon":14.247898,"name":"Grundschule Mewegen","official_id":"75136211","phone":"039744/50274","school_type":"Grundschule","school_type_entity":"Grundschule","state":"MV"},{"address":"Pestalozzistraße 26, 17309 Pasewalk","fax":"03973/210451","full_time_school":false,"id":"MV-75136214","lat":53.506129,"lon":14.010913,"name":"Grundschule Ueckertal, Pasewalk","official_id":"75136214","phone":"03973/210451","school_type":"Grundschule","school_type_entity":"Grundschule","state":"MV"},{"address":"Am Deputantenbruch 6, 17328 Penkun","fax":"039751/60120","full_time_school":false,"id":"MV-75136215","lat":53.30317,"lon":14.24081,"name":"Grundschule Penkun","official_id":"75136215","phone":"039751/60168","school_type":"Grundschule","school_type_entity":"Grundschule","state":"MV"},{"address":"Baustraße 26, 17335 Strasburg","fax":"039753/24486","full_time_school":false,"id":"MV-75136216","lat":53.508039,"lon":13.740277,"name":"Grundschule Strasburg","official_id":"75136216","phone":"039753/24485","school_type":"Grundschule","school_type_entity":"Grundschule","state":"MV"},{"address":"Goethestraße 2, 17358 Torgelow","fax":"03976/202580","full_time_school":false,"id":"MV-75136217","lat":53.630506,"lon":14.009329,"name":"Pestalozzi-Grundschule Torgelow","official_id":"75136217","phone":"03976/202559","school_type":"Grundschule","school_type_entity":"Grundschule","state":"MV"},{"address":"Geschw.-Scholl-Straße 40, 17373 Ueckermünde","fax":"039771/59037","full_time_school":false,"id":"MV-75136221","lat":53.73333,"lon":14.03333,"name":"Haff-Grundschule Ueckermünde","official_id":"75136221","phone":"039771/27205","school_type":"Grundschule","school_type_entity":"Grundschule","state":"MV"},{"address":"Ackerstraße 5, 17309 Jatznick","fax":"039741/86095","full_time_school":false,"id":"MV-75136249","lat":53.57669,"lon":13.938738,"name":"Grundschule Jatznick","official_id":"75136249","phone":"039741/80234","school_type":"Grundschule","school_type_entity":"Grundschule","state":"MV"},{"address":"Wolgaster Straße 62, 17489 Greifswald","fax":"03834/830346","full_time_school":false,"id":"MV-75230137","lat":54.091361,"lon":13.417918,"name":"Schule \"Johann Heinrich Pestalozzi\" Greifswald - Schule mit Förderschwerpunkt Lernen","official_id":"75230137","phone":"03834/3909","school_type":"Förderschule","school_type_entity":"Förderschule","state":"MV"},{"address":"Mühlenstraße 8 c, 17389 Anklam","fax":"03971/211952","full_time_school":false,"id":"MV-75235962","lat":53.846397,"lon":13.697261,"name":"Sonderpädagogisches Förderzentrum \"Biberburg\" Anklam - Schule mit den Förderschwerpunkten Lernen, emotionale und soziale Entwicklung und Sprache","official_id":"75235962","phone":"03971/210552","school_type":"Förderschule","school_type_entity":"Förderschule","state":"MV"},{"address":"Dorfstraße 21, 17498 Behrenhoff","fax":"038356/51849","full_time_school":false,"id":"MV-75235963","lat":54.005566,"lon":13.385582,"name":"Schule \"Am Park\" Behrenhoff - Schule mit den Förderschwerpunkten Lernen und emotionale und soziale Entwicklung","official_id":"75235963","phone":"038356/251","school_type":"Förderschule","school_type_entity":"Förderschule","state":"MV"},{"address":"Schulstraße 5, 17438 Wolgast","fax":"03836/2324465","full_time_school":false,"id":"MV-75235965","lat":54.058144,"lon":13.764568,"name":"Janusz-Korczak-Schule Wolgast - Schule mit dem Förderschwerpunkt Lernen","official_id":"75235965","phone":"03836/202459","school_type":"Förderschule","school_type_entity":"Förderschule","state":"MV"},{"address":"Baustraße 59, 17389 Anklam","fax":"03971/242284","full_time_school":false,"id":"MV-75235966","lat":53.854544,"lon":13.690237,"name":"\"Kleeblattschule\"  Anklam - Förderschule mit dem Förderschwerpunkt geistige Entwicklung","official_id":"75235966","phone":"03971/211520","school_type":"Förderschule","school_type_entity":"Förderschule","state":"MV"},{"address":"Am Haff 12, 17419 Zirchow","fax":"038376/29163","full_time_school":false,"id":"MV-75235967","lat":53.875332,"lon":14.147891,"name":"Schule Am Stettiner Haff Zirchow - Schule mit dem Förderschwerpunkt geistige Entwicklung","official_id":"75235967","phone":"038376/20313","school_type":"Förderschule","school_type_entity":"Förderschule","state":"MV"},{"address":"Schützenstraße 13, 17309 Pasewalk","fax":"03973/2049787","full_time_school":false,"id":"MV-75236244","lat":53.502286,"lon":13.998984,"name":"Schlossbergschule - Sonderpädagogisches Förderzentrum Pasewalk - Schule mit dem Förderschwerpunkt Lernen","official_id":"75236244","phone":"03973/441024","school_type":"Förderschule","school_type_entity":"Förderschule","state":"MV"},{"address":"Lindenstraße 35, 17367 Eggesin","fax":"03834/87609401","full_time_school":false,"id":"MV-75236246","lat":53.677645,"lon":14.077492,"name":"Sonderpädagogisches Förderzentrum Eggesin - Schule mit dem Förderschwerpunkt Lernen","official_id":"75236246","phone":"03976/87604501","school_type":"Förderschule","school_type_entity":"Förderschule","state":"MV"},{"address":"Am See 11, 17321 Löcknitz","fax":"039754/51733","full_time_school":false,"id":"MV-75236247","lat":53.450562,"lon":14.217478,"name":"Randow-Schule Löcknitz\nSchule mit dem Förderschwerpunkt geistige Entwicklung ","official_id":"75236247","phone":"039754/51733","school_type":"Förderschule","school_type_entity":"Förderschule","state":"MV"},{"address":"Gartenstraße 1, 17379 Ferdinandshof","fax":"039778/28727","full_time_school":false,"id":"MV-75236248","lat":53.661941,"lon":13.892468,"name":"Schule mit dem Förderschwerpunkt geistige Entwicklung Ferdinandshof","official_id":"75236248","phone":"039778/28718","school_type":"Förderschule","school_type_entity":"Förderschule","state":"MV"},{"address":"Einsteinstraße 6, 17491 Greifswald","fax":"03834/889214","full_time_school":false,"id":"MV-75330122","lat":54.081046,"lon":13.403687,"name":"Integrierte Gesamtschule \"Erwin Fischer\" Greifswald","official_id":"75330122","phone":"03834/500775","school_type":"Integrierte Gesamtschule","school_type_entity":"Integrierte Gesamtschule","state":"MV"},{"address":"Lindenstraße 112, 17419 Ahlbeck","fax":"038378/336560","full_time_school":false,"id":"MV-75335952","lat":53.936918,"lon":14.189606,"name":"Europäische Gesamtschule Insel Usedom, Kooperative Gesamtschule","official_id":"75335952","phone":"038378/28107","school_type":"Kooperative Gesamtschule","school_type_entity":"Kooperative Gesamtschule","state":"MV"},{"address":"Arndtstraße 37, 17489 Greifswald","fax":"03834/518449","full_time_school":false,"id":"MV-75430120","lat":54.091701,"lon":13.381846,"name":"Regionale Schule \"Ernst Moritz Arndt\" Greifswald","official_id":"75430120","phone":"03834/500062","school_type":"Regionale Schule","school_type_entity":"Regionale Schule","state":"MV"},{"address":"Usedomer Weg 1, 17493 Greifswald","fax":"03834/830101","full_time_school":false,"id":"MV-75430128","lat":54.091452,"lon":13.430965,"name":"Regionale Schule \"Caspar David Friedrich\" Greifswald","official_id":"75430128","phone":"03834/840196","school_type":"Regionale Schule","school_type_entity":"Regionale Schule","state":"MV"},{"address":"Demminer Straße 11, 17126 Jarmen","fax":"039997/12776","full_time_school":false,"id":"MV-75435230","lat":53.924042,"lon":13.337648,"name":"Regionale Schule Jarmen","official_id":"75435230","phone":"039997/10202","school_type":"Regionale Schule","school_type_entity":"Regionale Schule","state":"MV"},{"address":"Goethestraße 64, 17121 Loitz","fax":"039998/10374","full_time_school":false,"id":"MV-75435231","lat":53.977633,"lon":13.144302,"name":"Regionale Schule Loitz","official_id":"75435231","phone":"039998/10376","school_type":"Regionale Schule","school_type_entity":"Regionale Schule","state":"MV"},{"address":"Eichenweg 6, 17389 Anklam","fax":"03971/245608","full_time_school":false,"id":"MV-75435926","lat":53.845548,"lon":13.700046,"name":"Regionale Schule \"Friedrich Schiller\" Anklam","official_id":"75435926","phone":"03971/245649","school_type":"Regionale Schule","school_type_entity":"Regionale Schule","state":"MV"},{"address":"Baustraße 56/58, 17389 Anklam","fax":"03971/213526","full_time_school":false,"id":"MV-75435927","lat":53.854556,"lon":13.689537,"name":"Regionale Schule \"Käthe Kollwitz\" Anklam","official_id":"75435927","phone":"03971/210574","school_type":"Regionale Schule","school_type_entity":"Regionale Schule","state":"MV"},{"address":"Baustraße 16, 17438 Wolgast","fax":"03836/202219","full_time_school":false,"id":"MV-75435929","lat":54.057239,"lon":13.762397,"name":"Regionale Schule \"G. L. Th. Kosegarten\" Wolgast","official_id":"75435929","phone":"03836/202168","school_type":"Regionale Schule","school_type_entity":"Regionale Schule","state":"MV"},{"address":"Heberleinstraße 32, 17438 Wolgast","fax":"03836/234019","full_time_school":false,"id":"MV-75435930","lat":54.044582,"lon":13.761003,"name":"Regionale Schule mit Grundschule Wolgast","official_id":"75435930","phone":"03836/202172","school_type":"Regionale Schule mit Grundschule","school_type_entity":"Regionale Schule","state":"MV"},{"address":"Mascowstraße 12a, 17506 Gützkow","fax":"038353/50621","full_time_school":false,"id":"MV-75435931","lat":53.932772,"lon":13.41497,"name":"Regionale Schule mit Grundschule \"Peenetal\" Gützkow","official_id":"75435931","phone":"038353/201","school_type":"Regionale Schule mit Grundschule","school_type_entity":"Regionale Schule","state":"MV"},{"address":"Strandstraße 3, 17459 Ückeritz","fax":"038375/20647","full_time_school":false,"id":"MV-75435933","lat":54.012716,"lon":14.050679,"name":"Ostseeschule  Ückeritz","official_id":"75435933","phone":"038375/20935","school_type":"Regionale Schule","school_type_entity":"Regionale Schule","state":"MV"},{"address":"Schulstraße 4, 17449 Karlshagen","fax":"038371/20293","full_time_school":false,"id":"MV-75435935","lat":54.115531,"lon":13.838916,"name":"Regionale Schule \"Heinrich Heine\" Karlshagen","official_id":"75435935","phone":"038371/20239","school_type":"Regionale Schule","school_type_entity":"Regionale Schule","state":"MV"},{"address":"Seestraße 11, 17509 Lubmin","fax":"038354/22840","full_time_school":false,"id":"MV-75435939","lat":54.13455,"lon":13.620606,"name":"Regionale Schule \"Am Teufelsstein\" Lubmin","official_id":"75435939","phone":"038354/22836","school_type":"Regionale Schule","school_type_entity":"Regionale Schule","state":"MV"},{"address":"Thomas-Müntzer-Straße 10, 17398 Ducherow","fax":"039726/25548","full_time_school":false,"id":"MV-75435944","lat":53.766353,"lon":13.781534,"name":"Lindenschule Ducherow - Regionale Schule mit Grundschule","official_id":"75435944","phone":"039726/25549","school_type":"Regionale Schule mit Grundschule","school_type_entity":"Regionale Schule","state":"MV"},{"address":"Wampener Straße 19, 17498 Neuenkirchen","fax":"03834/773972","full_time_school":false,"id":"MV-75435948","lat":54.119333,"lon":13.381266,"name":"Regionale Schule mit Grundschule  \"Schule am Bodden\" Neuenkirchen","official_id":"75435948","phone":"03834/2478","school_type":"Regionale Schule mit Grundschule","school_type_entity":"Regionale Schule","state":"MV"},{"address":"Schulstraße 8, 17392 Spantekow","fax":"039727/26770","full_time_school":false,"id":"MV-75435954","lat":53.778392,"lon":13.522458,"name":"Regionale Schule mit Grundschule Spantekow","official_id":"75435954","phone":"039727/20358","school_type":"Regionale Schule mit Grundschule","school_type_entity":"Regionale Schule","state":"MV"},{"address":"Pestalozzistraße 25, 17309 Pasewalk","fax":"03973/216635","full_time_school":false,"id":"MV-75436226","lat":53.506245,"lon":14.00944,"name":"Regionale Schule \"Arnold Zweig\" Pasewalk","official_id":"75436226","phone":"03973/216631","school_type":"Regionale Schule","school_type_entity":"Regionale Schule","state":"MV"},{"address":"A.-Einstein-Straße 3, 17358 Torgelow","fax":"03976/250745","full_time_school":false,"id":"MV-75436228","lat":53.61667,"lon":14,"name":"Regionale Schule \"Albert Einstein\" Torgelow","official_id":"75436228","phone":"03976/201320","school_type":"Regionale Schule","school_type_entity":"Regionale Schule","state":"MV"},{"address":"Luckower Straße 6a, 17367 Eggesin","fax":"039779/60324","full_time_school":false,"id":"MV-75436229","lat":53.683814,"lon":14.08398,"name":"Regionale Schule \"Ernst Thälmann\" Eggesin","official_id":"75436229","phone":"039779/20539","school_type":"Regionale Schule","school_type_entity":"Regionale Schule","state":"MV"},{"address":"Friedrichstraße 33a, 17379 Ferdinandshof","fax":"039778/28155","full_time_school":false,"id":"MV-75436230","lat":53.662592,"lon":13.891347,"name":"Regionale Schule \"Hanno Günther\" Ferdinandshof","official_id":"75436230","phone":"039778/20233","school_type":"Regionale Schule","school_type_entity":"Regionale Schule","state":"MV"},{"address":"Am See 9, 17321 Löcknitz","fax":"039754/51564","full_time_school":false,"id":"MV-75436231","lat":53.449975,"lon":14.217284,"name":"Regionale Schule Löcknitz","official_id":"75436231","phone":"039754/20611","school_type":"Regionale Schule","school_type_entity":"Regionale Schule","state":"MV"},{"address":"Stettiner Tor 4, 17328 Penkun","fax":"039751/60266","full_time_school":false,"id":"MV-75436232","lat":53.297867,"lon":14.243863,"name":"Regionale Schule Penkun","official_id":"75436232","phone":"039751/60265","school_type":"Regionale Schule","school_type_entity":"Regionale Schule","state":"MV"},{"address":"Ueckerstraße 59, 17373 Ueckermünde","fax":"039771/549919","full_time_school":false,"id":"MV-75436234","lat":53.737619,"lon":14.044226,"name":"Regionale Schule Ueckermünde","official_id":"75436234","phone":"039771/54990","school_type":"Regionale Schule","school_type_entity":"Regionale Schule","state":"MV"},{"address":"Lindenstraße 3c, 17335 Strasburg","fax":"039753/22514","full_time_school":false,"id":"MV-75436236","lat":53.509342,"lon":13.750096,"name":"Regionale Schule \"Am Wasserturm\" Strasburg","official_id":"75436236","phone":"039753/20493","school_type":"Regionale Schule","school_type_entity":"Regionale Schule","state":"MV"},{"address":"Makarenkostraße 54, 17491 Greifswald","fax":"03834/805666","full_time_school":false,"id":"MV-75530135","lat":54.082378,"lon":13.419677,"name":"Gymnasium \"Alexander von Humboldt\" Greifswald","official_id":"75530135","phone":"03834/80560","school_type":"Gymnasium","school_type_entity":"Gymnasium","state":"MV"},{"address":"Dietrich-Bonhoeffer-Platz 1, 17489 Greifswald","fax":"03834/792222","full_time_school":false,"id":"MV-75530136","lat":54.09312,"lon":13.381366,"name":"Gymnasium \"Friedrich Ludwig Jahn\" Greifswald","official_id":"75530136","phone":"03834/7920","school_type":"Gymnasium","school_type_entity":"Gymnasium","state":"MV"},{"address":"Dietrich-Bonhoeffer-Platz 1, 17489 Greifswald","fax":"03834/885244","full_time_school":false,"id":"MV-75530138","lat":54.09312,"lon":13.381366,"name":"Abendgymnasium \"Wolfgang Koeppen\" Greifswald","official_id":"75530138","phone":"03834/885198","school_type":"Abendgymnasium","school_type_entity":"Abend-Gymnasium","state":"MV"},{"address":"Leipziger Allee 22-25, 17389 Anklam","fax":"03971/243188","full_time_school":false,"id":"MV-75535957","lat":53.85148,"lon":13.683403,"name":"\"Lilienthal-Gymnasium\" Anklam","official_id":"75535957","phone":"03971/243187","school_type":"Gymnasium","school_type_entity":"Gymnasium","state":"MV"},{"address":"Baron-von-Lepel-Platz 2, 17506 Gützkow","fax":"038353/50889","full_time_school":false,"id":"MV-75535958","lat":53.941376,"lon":13.403736,"name":"\"Schloss-Gymnasium\" Gützkow","official_id":"75535958","phone":"038353/257","school_type":"Gymnasium","school_type_entity":"Gymnasium","state":"MV"},{"address":"Schulstraße 1, 17438 Wolgast","fax":"03836/2363201","full_time_school":false,"id":"MV-75535960","lat":54.057719,"lon":13.766417,"name":"Runge-Gymnasium Wolgast","official_id":"75535960","phone":"03836/2363200","school_type":"Gymnasium","school_type_entity":"Gymnasium","state":"MV"},{"address":"F.-Engels-Straße 5-6, 17321 Löcknitz","fax":"039754/21179","full_time_school":false,"id":"MV-75536238","lat":53.455,"lon":14.2125,"name":"Deutsch-Polnisches Gymnasium Löcknitz","official_id":"75536238","phone":"039754/21179","school_type":"Gymnasium","school_type_entity":"Gymnasium","state":"MV"},{"address":"Grünstraße 63, 17309 Pasewalk","fax":"03973/210220","full_time_school":false,"id":"MV-75536239","lat":53.506732,"lon":13.987453,"name":"Gymnasium \"Oskar Picht\" Pasewalk","official_id":"75536239","phone":"03973/210203","school_type":"Gymnasium","school_type_entity":"Gymnasium","state":"MV"},{"address":"Apfelallee 2, 17373 Ueckermünde","fax":"039771/22597","full_time_school":false,"id":"MV-75536242","lat":53.743544,"lon":14.030143,"name":"Greifen-Gymnasium Ueckermünde","official_id":"75536242","phone":"039771/22596","school_type":"Gymnasium","school_type_entity":"Gymnasium","state":"MV"},{"address":"An den Bleichen 27, 18435 Stralsund","fax":"03831/308737","full_time_school":false,"id":"MV-75130501","lat":54.318982,"lon":13.078056,"name":"Montessori-Grundschule \"Lambert Steinwich\" Stralsund","official_id":"75130501","phone":"03831/308717","school_type":"Grundschule","school_type_entity":"Grundschule","state":"MV"},{"address":"Arnold-Zweig-Straße 159, 18435 Stralsund","fax":"03831/382814","full_time_school":false,"id":"MV-75130504","lat":54.323315,"lon":13.054129,"name":"Grundschule\"Karsten Sarnow\" Stralsund","official_id":"75130504","phone":"03831/391082","school_type":"Grundschule","school_type_entity":"Grundschule","state":"MV"},{"address":"Mühlgrabenstraße 6, 18437 Stralsund","fax":"03831/481743","full_time_school":false,"id":"MV-75130506","lat":54.311209,"lon":13.03553,"name":"Grundschule \"Ferdinand von Schill\" Stralsund","official_id":"75130506","phone":"03831/498483","school_type":"Grundschule","school_type_entity":"Grundschule","state":"MV"},{"address":"Jaromarstraße 10, 18437 Stralsund","fax":"03831/443142","full_time_school":false,"id":"MV-75130508","lat":54.303813,"lon":13.066871,"name":"Grundschule \"Hermann Burmeister\" Stralsund","official_id":"75130508","phone":"03831/495080","school_type":"Grundschule","school_type_entity":"Grundschule","state":"MV"},{"address":"Frankenwall  25, 18439 Stralsund","fax":"03831/306072","full_time_school":false,"id":"MV-75130509","lat":54.311083,"lon":13.092471,"name":"Grundschule \"Gerhart Hauptmann\" Stralsund","official_id":"75130509","phone":"03831/306073","school_type":"Grundschule","school_type_entity":"Grundschule","state":"MV"},{"address":"Wallensteinstraße 8, 18435 Stralsund","fax":"03831/302615","full_time_school":false,"id":"MV-75130510","lat":54.324818,"lon":13.067957,"name":"Grundschule \"Juri Gagarin\" Stralsund","official_id":"75130510","phone":"03831/391103","school_type":"Grundschule","school_type_entity":"Grundschule","state":"MV"},{"address":"Greifswalder Chaussee 65a, 18439 Stralsund","fax":"03831/278058","full_time_school":false,"id":"MV-75130515","lat":54.280729,"lon":13.102934,"name":"Grundschule Andershof","official_id":"75130515","phone":"03831/270574","school_type":"Grundschule","school_type_entity":"Grundschule","state":"MV"},{"address":"Kastanienallee 7, 18334 Bad Sülze","fax":"038229/799956","full_time_school":false,"id":"MV-75135701","lat":54.113356,"lon":12.649256,"name":"Grundschule Bad Sülze","official_id":"75135701","phone":"038229/259","school_type":"Grundschule","school_type_entity":"Grundschule","state":"MV"},{"address":"Neuhöfer Straße 1, 18519 Brandshagen","fax":"038328/650047","full_time_school":false,"id":"MV-75135706","lat":54.239453,"lon":13.173632,"name":"Grundschule Brandshagen","official_id":"75135706","phone":"038328/80403","school_type":"Grundschule","school_type_entity":"Grundschule","state":"MV"},{"address":"Strandstraße 4, 18347 Dändorf","fax":"038226/267","full_time_school":false,"id":"MV-75135707","lat":54.292584,"lon":12.357402,"name":"Grundschule Dierhagen","official_id":"75135707","phone":"038226/267","school_type":"Grundschule","school_type_entity":"Grundschule","state":"MV"},{"address":"Norderhinterstraße 12, 18507 Grimmen","fax":"038326/66621","full_time_school":false,"id":"MV-75135711","lat":54.113959,"lon":13.045415,"name":"Grundschule \"Friedrich Wilhelm Wander\" Grimmen","official_id":"75135711","phone":"038326/66620","school_type":"Grundschule","school_type_entity":"Grundschule","state":"MV"},{"address":"Zum Rodelberg 2, 18507 Grimmen","fax":"038326/46578","full_time_school":false,"id":"MV-75135712","lat":54.102801,"lon":13.043112,"name":"Grundschule \"Dr. Theodor Neubauer\" Grimmen","official_id":"75135712","phone":"038326/46567","school_type":"Grundschule","school_type_entity":"Grundschule","state":"MV"},{"address":"Dorfstraße, 18519 Horst","fax":"038333/213","full_time_school":false,"id":"MV-75135713","lat":53.634145,"lon":10.764318,"name":"Grundschule Horst","official_id":"75135713","phone":"038333/213","school_type":"Grundschule","school_type_entity":"Grundschule","state":"MV"},{"address":"Schulstraße 6, 18516 Süderholz","fax":"038332/384","full_time_school":false,"id":"MV-75135715","lat":54.060598,"lon":13.163471,"name":"Grundschule Süderholz","official_id":"75135715","phone":"038332/314","school_type":"Grundschule","school_type_entity":"Grundschule","state":"MV"},{"address":"Dorfstrasse 4, 18314 Lüdershagen","fax":"038227/599953","full_time_school":false,"id":"MV-75135717","lat":54.302673,"lon":12.607802,"name":"Grundschule \"Thomas Müntzer\" Lüdershagen","official_id":"75135717","phone":"038227/331","school_type":"Grundschule","school_type_entity":"Grundschule","state":"MV"},{"address":"Stralsunder Straße 27, 18445 Altenpleen","fax":"038323/268702","full_time_school":false,"id":"MV-75135719","lat":54.354481,"lon":12.953803,"name":"Kranich - Grundschule Altenpleen","official_id":"75135719","phone":"038323/824","school_type":"Grundschule","school_type_entity":"Grundschule","state":"MV"},{"address":"Karl-Worm-Straße 1, 18465 Tribsees","fax":"038320/183180","full_time_school":false,"id":"MV-75135722","lat":54.088989,"lon":12.762324,"name":"Grundschule \" Heinrich Bandlow\" Tribsees","official_id":"75135722","phone":"038320/342","school_type":"Grundschule","school_type_entity":"Grundschule","state":"MV"},{"address":"E.-Thälmann-Straße 44, 18469 Velgast","fax":"038324/89206","full_time_school":false,"id":"MV-75135723","lat":54.459149,"lon":13.261004,"name":"Grundschule Velgast","official_id":"75135723","phone":"038324/89205","school_type":"Grundschule","school_type_entity":"Grundschule","state":"MV"},{"address":"Bauermeisterplatz 1, 18311 Ribnitz-Damgarten","fax":"03821/390158","full_time_school":false,"id":"MV-75135731","lat":54.240712,"lon":12.435303,"name":"Grundschule \"Theodor Bauermeister\" Ribnitz-Damgarten","official_id":"75135731","phone":"03821/810226","school_type":"Grundschule","school_type_entity":"Grundschule","state":"MV"},{"address":"Schulstraße 2, 18442 Steinhagen","fax":"038327/61455","full_time_school":false,"id":"MV-75135733","lat":54.224206,"lon":12.989013,"name":"Grundschule \"Karl Krull\" Steinhagen","official_id":"75135733","phone":"038327/60649","school_type":"Grundschule","school_type_entity":"Grundschule","state":"MV"},{"address":"Wittenhäger Straße 14, 18510 Abtshagen","fax":"038327/40704","full_time_school":false,"id":"MV-75135743","lat":54.208409,"lon":13.067947,"name":"Grundschule Abtshagen","official_id":"75135743","phone":"038327/703","school_type":"Grundschule","school_type_entity":"Grundschule","state":"MV"},{"address":"Chausseestraße 21, 18356 Barth","fax":"038231/82274","full_time_school":false,"id":"MV-75135754","lat":54.360437,"lon":12.723806,"name":"Zentrale Grundschule \"F.-A.-Nobert\" Barth","official_id":"75135754","phone":"038231/2554","school_type":"Grundschule","school_type_entity":"Grundschule","state":"MV"},{"address":"Dorfstraße 65, 18513 Grammendorf","fax":"038334/69306","full_time_school":false,"id":"MV-75135756","lat":54.031609,"lon":12.875557,"name":"Grundschule Grammendorf","official_id":"75135756","phone":"038334/69303","school_type":"Grundschule","school_type_entity":"Grundschule","state":"MV"},{"address":"An der Schule 2, 18337 Marlow","fax":"038224/44520","full_time_school":false,"id":"MV-75135757","lat":54.149556,"lon":12.425506,"name":"Grundschule Marlow","official_id":"75135757","phone":"038224/234","school_type":"Grundschule","school_type_entity":"Grundschule","state":"MV"},{"address":"Hauptstraße 34, 18320 Ahrenshagen","fax":"038225/515715","full_time_school":false,"id":"MV-75135774","lat":54.226882,"lon":12.588718,"name":"Recknitz-Grundschule Ahrenshagen","official_id":"75135774","phone":"038225/515711","school_type":"Grundschule","school_type_entity":"Grundschule","state":"MV"},{"address":"Breitsprecherstraße 18, 18528 Bergen auf Rügen","fax":"03838/822475","full_time_school":false,"id":"MV-75136104","lat":54.416422,"lon":13.423448,"name":"Grundschule \"Altstadt\" Bergen","official_id":"75136104","phone":"03838/22139","school_type":"Grundschule","school_type_entity":"Grundschule","state":"MV"},{"address":"Königstraße 23c, 18528 Bergen auf Rügen","fax":"03838/8227953","full_time_school":false,"id":"MV-75136105","lat":54.41667,"lon":13.43333,"name":"Grundschule \"Am Rugard\" Bergen","official_id":"75136105","phone":"03838/253399","school_type":"Grundschule","school_type_entity":"Grundschule","state":"MV"},{"address":"Dollahner Straße 77, 18609 Binz","fax":"038393/14534","full_time_school":false,"id":"MV-75136106","lat":54.415762,"lon":13.592005,"name":"Grundschule Binz","official_id":"75136106","phone":"038393/2327","school_type":"Grundschule","school_type_entity":"Grundschule","state":"MV"},{"address":"Lindenstraße 27, 18574 Garz/Rügen","fax":"038304/320","full_time_school":false,"id":"MV-75136111","lat":54.318035,"lon":13.351652,"name":"Grundschule Garz","official_id":"75136111","phone":"038304/320","school_type":"Grundschule","school_type_entity":"Grundschule","state":"MV"},{"address":"Lauterbacher Straße 6, 18581 Putbus","fax":"038301/61180","full_time_school":false,"id":"MV-75136116","lat":54.348937,"lon":13.484579,"name":"Grundschule  Putbus","official_id":"75136116","phone":"038301/547","school_type":"Grundschule","school_type_entity":"Grundschule","state":"MV"},{"address":"Schulstraße 15, 18551 Sagard","fax":"038302/51408","full_time_school":false,"id":"MV-75136117","lat":54.528499,"lon":13.548827,"name":"Grundschule Sagard","official_id":"75136117","phone":"038302/2001","school_type":"Grundschule","school_type_entity":"Grundschule","state":"MV"},{"address":"Neubaustraße 32, 18573 Samtens","fax":"038306/21121","full_time_school":false,"id":"MV-75136118","lat":54.358712,"lon":13.288387,"name":"Grundschule Samtens","official_id":"75136118","phone":"038306/1300","school_type":"Grundschule","school_type_entity":"Grundschule","state":"MV"},{"address":"Schulstraße 5, 18546 Sassnitz","fax":"038392/649759","full_time_school":false,"id":"MV-75136120","lat":54.514273,"lon":13.636029,"name":"Grundschule \"Ostseeblick\" Sassnitz","official_id":"75136120","phone":"038392/32360","school_type":"Grundschule","school_type_entity":"Grundschule","state":"MV"},{"address":"Granitzer Straße 1b, 18586 Sellin","fax":"038303/85472","full_time_school":false,"id":"MV-75136123","lat":54.377905,"lon":13.68675,"name":"Grundschule Sellin","official_id":"75136123","phone":"038303/87320","school_type":"Grundschule","school_type_entity":"Grundschule","state":"MV"},{"address":"Hauptstraße 35, 18556 Wiek","fax":"038391/70302","full_time_school":false,"id":"MV-75136124","lat":54.62269,"lon":13.294283,"name":"Grundschule Wiek","official_id":"75136124","phone":"038391/70302","school_type":"Grundschule","school_type_entity":"Grundschule","state":"MV"},{"address":"Boddenstraße 1a, 18586 Gager","fax":"038308/30236","full_time_school":false,"id":"MV-75136126","lat":54.303724,"lon":13.711889,"name":"Grundschule \"Mönchgut\" Gager","official_id":"75136126","phone":"038308/8235","school_type":"Grundschule","school_type_entity":"Grundschule","state":"MV"},{"address":"Kleine Parower Straße 39, 18435 Stralsund","fax":"03831/307191","full_time_school":false,"id":"MV-75230523","lat":54.329227,"lon":13.076029,"name":"Sonderpädagogisches Förderzentrum der Hansestadt Stralsund - Schule mit dem Förderschwerpunkt Lernen und Grundschulteil mit Förderschwerpunkt Sprache","official_id":"75230523","phone":"03831/391084","school_type":"Förderschule","school_type_entity":"Förderschule","state":"MV"},{"address":"L.-Feuchtwanger-Straße 34, 18435 Stralsund","fax":"03831/374830","full_time_school":false,"id":"MV-75230524","lat":54.330388,"lon":13.065512,"name":"Förderschule \"Astrid Lindgren\" Stralsund - Schule mit Förderschwerpunkt geistige Entwicklung","official_id":"75230524","phone":"03831/390525","school_type":"Förderschule","school_type_entity":"Förderschule","state":"MV"},{"address":"Rostocker Chaussee 70 , 18437 Stralsund","fax":"03831/452675","full_time_school":false,"id":"MV-75230525","lat":54.302657,"lon":13.04105,"name":"Förderschule \"Ernst von Haselberg\" Stralsund - Schule mit Förderschwerpunkt Unterricht kranker Schülerinnen und Schüler sowie mit Förderschwerpunkt emotionale und soziale Entwicklung","official_id":"75230525","phone":"03831/452665","school_type":"Förderschule","school_type_entity":"Förderschule","state":"MV"},{"address":"Uhlenflucht 5, 18356 Barth","fax":"038231/66371","full_time_school":false,"id":"MV-75235767","lat":54.370217,"lon":12.694358,"name":"Förderschule \"Jan-Amos-Komensky\" Barth - Schule mit dem Förderschwerpunkt Lernen","official_id":"75235767","phone":"038231/2275","school_type":"Förderschule","school_type_entity":"Förderschule","state":"MV"},{"address":"Dr.-Kurt-Fischer-Straße 13, 18507 Grimmen","fax":"038326/53735","full_time_school":false,"id":"MV-75235769","lat":54.106619,"lon":13.037835,"name":"Sonderpädagogisches Förderzentrum Grimmen - Schule mit dem Förderschwerpunkt Lernen","official_id":"75235769","phone":"038326/2423","school_type":"Förderschule","school_type_entity":"Förderschule","state":"MV"},{"address":"Minsker Straße 11, 18311 Ribnitz-Damgarten","fax":"03821/894816","full_time_school":false,"id":"MV-75235770","lat":54.245552,"lon":12.411744,"name":"Förderzentrum \"Johann Heinrich Pestalozzi\" Ribnitz-Damgarten - Schule mit dem Förderschwerpunkt Lernen","official_id":"75235770","phone":"03821/2784","school_type":"Förderschule","school_type_entity":"Förderschule","state":"MV"},{"address":"Karl-Marx-Straße 25, 18461 Franzburg","fax":"038322/589948","full_time_school":false,"id":"MV-75235771","lat":54.18701,"lon":12.885856,"name":"\"Sonnenblumenschule\" Franzburg - Schule mit dem Förderschwerpunkt geistige Entwicklung","official_id":"75235771","phone":"038322/50209","school_type":"Förderschule","school_type_entity":"Förderschule","state":"MV"},{"address":"G.-A.-Demmler-Straße, 18311 Ribnitz-Damgarten","fax":"03821/811235","full_time_school":false,"id":"MV-75235773","lat":54.25,"lon":12.46667,"name":"\"Rosenhofschule\" Ribnitz-Damgarten  - Schule mit dem Förderschwerpunkt geistige Entwicklung","official_id":"75235773","phone":"03821/2740","school_type":"Förderschule","school_type_entity":"Förderschule","state":"MV"},{"address":"Störtebekerstraße 8a, 18528 Bergen auf Rügen","fax":"03838/828102","full_time_school":false,"id":"MV-75236154","lat":54.412497,"lon":13.421256,"name":"Sonderpädagogisches Förderzentrum \"Klaus Störtebeker\" Bergen - Schule mit dem Förderschwerpunkt Lernen","official_id":"75236154","phone":"03838/23012","school_type":"Förderschule","school_type_entity":"Förderschule","state":"MV"},{"address":"Frankenhof 8, 18439 Stralsund","fax":"03831/303977","full_time_school":false,"id":"MV-75330519","lat":54.311499,"lon":13.099161,"name":"Schulzentrum am Sund Stralsund - Verbundene Regionale Schule und Gymnasium","official_id":"75330519","phone":"03831/292438","school_type":"Kooperative Gesamtschule","school_type_entity":"Kooperative Gesamtschule","state":"MV"},{"address":"Grünthal 12, 18437 Stralsund","fax":"03831/444476","full_time_school":false,"id":"MV-75330522","lat":54.307485,"lon":13.041044,"name":"Integrierte Gesamtschule \"Grünthal\" -mit gymnasialer Oberstufe Stralsund","official_id":"75330522","phone":"03831/498520","school_type":"Integrierte Gesamtschule","school_type_entity":"Integrierte Gesamtschule","state":"MV"},{"address":"Uhlenflucht 5, 18356 Barth","fax":"038231/673222","full_time_school":false,"id":"MV-75335762","lat":54.370217,"lon":12.694358,"name":"Gymnasiales Schulzentrum Barth,\nKooperative Gesamtschule","official_id":"75335762","phone":"038231/6730","school_type":"Kooperative Gesamtschule","school_type_entity":"Kooperative Gesamtschule","state":"MV"},{"address":"Jaromarstraße 10, 18437 Stralsund","fax":"03831/445805","full_time_school":false,"id":"MV-75430511","lat":54.303813,"lon":13.066871,"name":"Regionale Schule \"Hermann Burmeister\" Stralsund","official_id":"75430511","phone":"03831/494891","school_type":"Regionale Schule","school_type_entity":"Regionale Schule","state":"MV"},{"address":"Rudolf-Virchow-Straße 23, 18435 Stralsund","fax":"03831/308381","full_time_school":false,"id":"MV-75430513","lat":54.329718,"lon":13.076451,"name":"Regionale Schule \"Adolph Diesterweg\" Stralsund","official_id":"75430513","phone":"03831/380088","school_type":"Regionale Schule","school_type_entity":"Regionale Schule","state":"MV"},{"address":"L. Feuchtwanger-Straße 35, 18435 Stralsund","fax":"03831/383023","full_time_school":false,"id":"MV-75430514","lat":54.330388,"lon":13.065512,"name":"Regionale Schule \"Marie Curie\" Stralsund","official_id":"75430514","phone":"03831/382575","school_type":"Regionale Schule","school_type_entity":"Regionale Schule","state":"MV"},{"address":"Str. der Befreiung 73, 18507 Grimmen","fax":"038326/455453","full_time_school":false,"id":"MV-75435736","lat":54.113812,"lon":13.028118,"name":"Regionale Schule \"Robert Koch\" Grimmen","official_id":"75435736","phone":"038326/2351","school_type":"Regionale Schule","school_type_entity":"Regionale Schule","state":"MV"},{"address":"Ringstraße 10, 18445 Prohn","fax":"038323/71138","full_time_school":false,"id":"MV-75435739","lat":54.375842,"lon":13.021066,"name":"Regionale Schule  \"An der Prohner Wiek\" Prohn","official_id":"75435739","phone":"038323/216","school_type":"Regionale Schule","school_type_entity":"Regionale Schule","state":"MV"},{"address":"Schulstraße 13, 18311 Ribnitz-Damgarten","fax":"03821/720441","full_time_school":false,"id":"MV-75435740","lat":54.25353,"lon":12.476101,"name":"Regionale Schule \"Rudolf Harbig\" Ribnitz-Damgarten","official_id":"75435740","phone":"03821/62019","school_type":"Regionale Schule","school_type_entity":"Regionale Schule","state":"MV"},{"address":"G.-Adolf-Demmlerstraße 4, 18311 Ribnitz-Damgarten","fax":"03821/810703","full_time_school":false,"id":"MV-75435741","lat":54.243025,"lon":12.416463,"name":"Regionale Schule mit Grundschule \"bernsteinSchule\" Ribnitz-Damgarten","official_id":"75435741","phone":"03821/810425","school_type":"Regionale Schule mit Grundschule","school_type_entity":"Regionale Schule","state":"MV"},{"address":"Platz des Friedens 15a, 18461 Franzburg","fax":"038322/58541","full_time_school":false,"id":"MV-75435744","lat":54.186917,"lon":12.888865,"name":"Martha-Müller-Grählert-Schule Franzburg","official_id":"75435744","phone":"038322/736","school_type":"Regionale Schule mit Grundschule","school_type_entity":"Regionale Schule","state":"MV"},{"address":"Schulweg 1, 18519 Reinberg","fax":"038328/80825","full_time_school":false,"id":"MV-75435746","lat":54.215589,"lon":13.253105,"name":"Regionale Schule  Reinberg","official_id":"75435746","phone":"038328/80825","school_type":"Regionale Schule","school_type_entity":"Regionale Schule","state":"MV"},{"address":"Karl-Worm-Straße 2, 18465 Tribsees","fax":"038320/47946","full_time_school":false,"id":"MV-75435750","lat":54.088953,"lon":12.762884,"name":"Regionale Schule Recknitz-Trebeltal","official_id":"75435750","phone":"038320/47941","school_type":"Regionale Schule","school_type_entity":"Regionale Schule","state":"MV"},{"address":"Schulstraße 1, 18374 Zingst","fax":"038232/169620","full_time_school":false,"id":"MV-75435753","lat":54.434178,"lon":12.686124,"name":"Regionale Schule mit Grundschule Zingst","official_id":"75435753","phone":"038232/16960","school_type":"Regionale Schule mit Grundschule","school_type_entity":"Regionale Schule","state":"MV"},{"address":"Gartenstraße 86, 18442 Niepars","fax":"038321/310","full_time_school":false,"id":"MV-75435758","lat":54.303305,"lon":12.926855,"name":"Regionale Schule mit Grundschule \"Prof. Pflugradt\" Niepars","official_id":"75435758","phone":"038321/310","school_type":"Regionale Schule mit Grundschule","school_type_entity":"Regionale Schule","state":"MV"},{"address":"Sassnitzer Chaussee 7A, 18528 Bergen auf Rügen","fax":"03838/2010451","full_time_school":false,"id":"MV-75436131","lat":54.424906,"lon":13.432004,"name":"Regionale Schule \"Am Rugard\" Bergen","official_id":"75436131","phone":"03838/2010450","school_type":"Regionale Schule","school_type_entity":"Regionale Schule","state":"MV"},{"address":"Ringstraße 5, 18609 Binz","fax":"038393/32627","full_time_school":false,"id":"MV-75436132","lat":54.407213,"lon":13.600742,"name":"Regionale Schule Binz","official_id":"75436132","phone":"038393/2842","school_type":"Regionale Schule","school_type_entity":"Regionale Schule","state":"MV"},{"address":"Am Burgwall 7, 18574 Garz/Rügen","fax":"038304/12559","full_time_school":false,"id":"MV-75436134","lat":54.313855,"lon":13.351251,"name":"Regionale Schule am Burgwall Garz","official_id":"75436134","phone":"038304/329","school_type":"Regionale Schule","school_type_entity":"Regionale Schule","state":"MV"},{"address":"Störtebekerstraße 8c, 18528 Bergen auf Rügen","fax":"03838/404647","full_time_school":false,"id":"MV-75436142","lat":54.413923,"lon":13.420891,"name":"Regionale Schule \"Am Grünen Berg\" Bergen","official_id":"75436142","phone":"03838/23249","school_type":"Regionale Schule","school_type_entity":"Regionale Schule","state":"MV"},{"address":"H.-Matern-Straße 1, 18569 Gingst","fax":"038305/55187","full_time_school":false,"id":"MV-75436143","lat":54.454062,"lon":13.254448,"name":"Regionale Schule mit Grundschule Gingst","official_id":"75436143","phone":"038305/55184","school_type":"Regionale Schule mit Grundschule","school_type_entity":"Regionale Schule","state":"MV"},{"address":"Geschw.-Scholl-Straße 8, 18546 Sassnitz","fax":"038392/63109","full_time_school":false,"id":"MV-75436145","lat":54.51639,"lon":13.64111,"name":"Regionale Schule Sassnitz","official_id":"75436145","phone":"038392/32176","school_type":"Regionale Schule","school_type_entity":"Regionale Schule","state":"MV"},{"address":"Schulstraße 1, 18556 Altenkirchen","fax":"038391/439854","full_time_school":false,"id":"MV-75436146","lat":54.635588,"lon":13.346356,"name":"Regionale Schule \"Windland\" Altenkirchen","official_id":"75436146","phone":"038391/216","school_type":"Regionale Schule","school_type_entity":"Regionale Schule","state":"MV"},{"address":"G.-Hauptmann-Straße 1, 18586 Göhren","fax":"038308/669867","full_time_school":false,"id":"MV-75436147","lat":54.33333,"lon":13.73333,"name":"Regionale Schule \"Tom Beyer\" Göhren","official_id":"75436147","phone":"038308/2163","school_type":"Regionale Schule","school_type_entity":"Regionale Schule","state":"MV"},{"address":"Schulweg 4, 18565 Vitte","fax":"038300/608957","full_time_school":false,"id":"MV-75436150","lat":54.566962,"lon":13.105185,"name":"Regionale Schule mit Grundschule Vitte","official_id":"75436150","phone":"038300/608955","school_type":"Regionale Schule mit Grundschule","school_type_entity":"Regionale Schule","state":"MV"},{"address":"Fährwall 19, 18439 Stralsund","fax":"03831/289625","full_time_school":false,"id":"MV-75530520","lat":54.318149,"lon":13.090391,"name":"\"Hansa -Gymnasium\" Stralsund","official_id":"75530520","phone":"03831/28960","school_type":"Gymnasium","school_type_entity":"Gymnasium","state":"MV"},{"address":"Anemonenweg 2, 18507 Grimmen","fax":"038326/67149","full_time_school":false,"id":"MV-75535764","lat":54.105795,"lon":13.027053,"name":"Gymnasium Grimmen","official_id":"75535764","phone":"038326/6710","school_type":"Gymnasium","school_type_entity":"Gymnasium","state":"MV"},{"address":"Schulstraße 15, 18311 Ribnitz-Damgarten","fax":"03821/708924","full_time_school":false,"id":"MV-75535766","lat":54.254052,"lon":12.475903,"name":"Gymnasium \"Richard Wossidlo\" Ribnitz-Damgarten","official_id":"75535766","phone":"03821/708911","school_type":"Gymnasium","school_type_entity":"Gymnasium","state":"MV"},{"address":"Arndtstraße 7, 18528 Bergen auf Rügen","fax":"03838/255436","full_time_school":false,"id":"MV-75536151","lat":54.420701,"lon":13.42687,"name":"Gymnasium \"Ernst Moritz Arndt\" Bergen","official_id":"75536151","phone":"03838/3150280","school_type":"Gymnasium","school_type_entity":"Gymnasium","state":"MV"}]