[{"name":"Don-Bosco-Schule","id":"RP-31327","address":"St. Piusstr. 23, 53474 Bad Neuenahr-Ahrweiler  Stadt","school_type":"Förderschule","school_type_entity":"Förderschule","legal_status":1,"fax":"(02641)359492","phone":"(02641)34778","website":"","email":"\tdon-bosco-schule-aw@gmx.de\t","state":"RP","programs":{"programs":[]},"full_time_school":true,"lon":7.117009,"lat":50.542244},{"name":"Levana-Schule","id":"RP-31687","address":"St. Pius-Str. 25, 53474 Bad Neuenahr-Ahrweiler  Stadt","school_type":"Förderschule","school_type_entity":"Förderschule","legal_status":1,"fax":"(02641)900899","phone":"(02641)36611","website":"http://www.levana-aw.de","email":"\trektor@levana-aw.de\t","state":"RP","programs":{"programs":[]},"full_time_school":true,"lon":7.117605,"lat":50.542287},{"name":"Burgweg-Schule","id":"RP-30622","address":"Burgweg 6, 56659 Burgbrohl","school_type":"Förderschule","school_type_entity":"Förderschule","legal_status":1,"fax":"(02636)929592","phone":"(02636)929590","website":"http://www.burgweg-schule.de","email":"\tpost@burgweg-schule.de\t","state":"RP","programs":{"programs":[]},"full_time_school":true,"lon":7.273487,"lat":50.456382},{"name":"Janusz-Korczak-Schule","id":"RP-30605","address":"Beethovenstr. 3, 53489 Sinzig","school_type":"Förderschule","school_type_entity":"Förderschule","legal_status":1,"fax":"(02642)9790-22","phone":"(02642)9790-0","website":"http://jks-sinzig.de","email":"\tinfo@jks-sinzig.de\t","state":"RP","programs":{"programs":[]},"full_time_school":true,"lon":7.254255,"lat":50.54674},{"name":"Maximilian-Kolbe-Schule","id":"RP-31344","address":"Maximilian-Kolbe-Str. 1, 57584 Scheuerfeld","school_type":"Förderschule","school_type_entity":"Förderschule","legal_status":1,"fax":"(02741)971892","phone":"(02741)22391","website":"http://maxkolbeschule-scheuerfeld.de","email":"\tmax.kolbe@rz-online.de\t","state":"RP","programs":{"programs":[]},"full_time_school":true,"lon":7.84653,"lat":50.786605},{"name":"Förderschule am Alserberg","id":"RP-31224","address":"Holschbacher Str. 87, 57537 Wissen","school_type":"Förderschule","school_type_entity":"Förderschule","legal_status":1,"fax":"(02742) 911245","phone":"(02742)3642","website":"http://www.sfgwissen.de","email":"\tschulleitung@sfgwissen.de\t","state":"RP","programs":{"programs":[]},"full_time_school":true,"lon":7.720588,"lat":50.788676},{"name":"Wilhelm-Busch-Schule","id":"RP-31357","address":"Böhmer-Str. 14, 57537 Wissen","school_type":"Förderschule","school_type_entity":"Förderschule","legal_status":1,"fax":"(02742)910704","phone":"(02742)910703","website":"","email":"\twbschule@web.de\t","state":"RP","programs":{"programs":[]},"full_time_school":true,"lon":7.734543,"lat":50.778096},{"name":"Löwenschule Alzey","id":"RP-31270","address":"Kirchenplatz 6a, 55232 Alzey","school_type":"Förderschule","school_type_entity":"Förderschule","legal_status":1,"fax":"(06731) 9909519","phone":"(06731)990950","website":"http://www.loewenschule-alzey.de","email":"\tinfo@loewenschule-alzey.de\t","state":"RP","programs":{"programs":[]},"full_time_school":true,"lon":8.113122,"lat":49.743913},{"name":"Volkerschule","id":"RP-31447","address":"Dr.-Georg-Durst-Str. 30, 55232 Alzey","school_type":"Förderschule","school_type_entity":"Förderschule","legal_status":1,"fax":"06731/943341","phone":"(06731)7168","website":"www. volkerschule-alzey.bildung-rp.de","email":"\tinfo@volkerschule.de\t","state":"RP","programs":{"programs":[]},"full_time_school":true,"lon":8.120824,"lat":49.740377},{"name":"Wonnegauschule","id":"RP-31673","address":"Heinrich-Heine-Str. 13, 67574 Osthofen","school_type":"Förderschule","school_type_entity":"Förderschule","legal_status":1,"fax":"(06242)990910","phone":"(06242)7997","website":"http://www.wonnegauschule.de","email":"\tinfo@wonnegauschule.,de\t","state":"RP","programs":{"programs":[]},"full_time_school":true,"lon":8.321824,"lat":49.700112},{"name":"Heimschule St. Rafael","id":"RP-30289","address":"Schloßmühle, 67317 Altleiningen","school_type":"Förderschule","school_type_entity":"Förderschule","legal_status":0,"fax":"(06356)963625","phone":"(06356)963670","website":"http://jugendhilfe-st-rafael.de","email":"\tschule.st.rafael@gmx.de\t","state":"RP","programs":{"programs":[]},"full_time_school":true,"lon":8.084908,"lat":49.511269},{"name":"Siegmund-Crämer-Schule","id":"RP-30335","address":"Sägmühle 4, 67098 Bad Dürkheim","school_type":"Förderschule","school_type_entity":"Förderschule","legal_status":0,"fax":"(06322)938292","phone":"(06322)938290","website":"http://www.scs.bildung-rp.de/","email":"\tsiegmundcraemerschule@t-online.de\t","state":"RP","programs":{"programs":[]},"full_time_school":true,"lon":8.178914,"lat":49.468377},{"name":"Limburgschule","id":"RP-31014","address":"Friedelsheimerstr. 18, 67098 Bad Dürkheim","school_type":"Förderschule","school_type_entity":"Förderschule","legal_status":1,"fax":"(06322)947299","phone":"(06322)947272","website":"http://www.limburgschule.de","email":"\tlimburgschule@t-online.de\t","state":"RP","programs":{"programs":[]},"full_time_school":true,"lon":8.175489,"lat":49.456025},{"name":"Hans-Zulliger-Schule","id":"RP-30515","address":"Westring 62, 67269 Grünstadt","school_type":"Förderschule","school_type_entity":"Förderschule","legal_status":1,"fax":"(06359)92217","phone":"(06359)2777","website":"","email":"\thanszulliger-schule-v@t-online.de\t","state":"RP","programs":{"programs":[]},"full_time_school":true,"lon":8.158989,"lat":49.566171},{"name":"Käthe-Kollwitz-Schule","id":"RP-31464","address":"Jahnstr. 2, 67269 Grünstadt","school_type":"Förderschule","school_type_entity":"Förderschule","legal_status":1,"fax":"(06359)968415","phone":"(06359)96840","website":"http://kks-gruenstadt.de","email":"\tK-Kollwitz-Schule@gmx.de\t","state":"RP","programs":{"programs":[]},"full_time_school":true,"lon":8.163568,"lat":49.572089},{"name":"Gottlieb-Wenz-Schule","id":"RP-31027","address":"Meckenheimer Str. 10, 67454 Haßloch","school_type":"Förderschule","school_type_entity":"Förderschule","legal_status":1,"fax":"(06324)82336","phone":"(06324)2121","website":"http://www.gottlieb-wenz-schule.bildung-rp.de","email":"\tgottliebwenzschule@t-online.de\t","state":"RP","programs":{"programs":[]},"full_time_school":true,"lon":8.253695,"lat":49.37298},{"name":"Bethesda Schule","id":"RP-30109","address":"Waldemarstr. 26, 55543 Bad Kreuznach","school_type":"Förderschule","school_type_entity":"Förderschule","legal_status":0,"fax":"(0671)6053552","phone":"(0671)6053352","website":"","email":"\tbes@kreuznacherdiakonie.de\t","state":"RP","programs":{"programs":[]},"full_time_school":true,"lon":7.866296,"lat":49.836574},{"name":"Schule am Ellerbach","id":"RP-30649","address":"Ellerbachstr. 17, 55545 Bad Kreuznach","school_type":"Förderschule","school_type_entity":"Förderschule","legal_status":1,"fax":"(0671)29844528","phone":"(0671)2984450","website":"www.ellerbachschule.de","email":"\tellerbachschule@t-online.de\t","state":"RP","programs":{"programs":[]},"full_time_school":true,"lon":7.842974,"lat":49.846238},{"name":"Don-Bosco-Schule","id":"RP-31690","address":"Ellerbachstr., 55545 Bad Kreuznach","school_type":"Förderschule","school_type_entity":"Förderschule","legal_status":1,"fax":"(0671)4832266","phone":"(0671)32211","website":"http://www.don-bosco-schule.de","email":"\tsfgbadkreuznach@googlemail.com\t","state":"RP","programs":{"programs":[]},"full_time_school":true,"lon":7.844548,"lat":49.8467122},{"name":"Wilhelm-Dröscher-Schule","id":"RP-30652","address":"Berliner Platz 1, 55606 Kirn","school_type":"Förderschule","school_type_entity":"Förderschule","legal_status":1,"fax":"(06752)963228","phone":"(06752)2046","website":"http://wilhelm-droescher-schule.bildung-rp.de","email":"\tinfo@wds-kirn.de\t","state":"RP","programs":{"programs":[]},"full_time_school":true,"lon":7.476871,"lat":49.784875},{"name":"Bodelschwingh Schule","id":"RP-30082","address":"Talweg 16, 55590 Meisenheim","school_type":"Förderschule","school_type_entity":"Förderschule","legal_status":0,"fax":"(06753)10299","phone":"(06753)10298","website":"http://www.kreuznacherdiakonie.de/bodels","email":"\tbos-meisenheim@kreuznacherdiakonie.de\t","state":"RP","programs":{"programs":[]},"full_time_school":true,"lon":7.665068,"lat":49.697204},{"name":"Burgschule","id":"RP-30665","address":"Schulstr. 2, 55596 Schloßböckelheim","school_type":"Förderschule","school_type_entity":"Förderschule","legal_status":1,"fax":"(06758)804350","phone":"(06758)1345","website":"http://burgschule.info","email":"\tburgschule.s@web.de\t","state":"RP","programs":{"programs":[]},"full_time_school":true,"lon":7.719029,"lat":49.815093},{"name":"Burg-Landshut-Schule","id":"RP-30889","address":"In der Bornwiese, 54470 Bernkastel-Kues","school_type":"Förderschule","school_type_entity":"Förderschule","legal_status":1,"fax":"(06531)94720","phone":"(06531)3939","website":"http://www.burg-landshut-schule.de","email":"\tschulleitung@bls-bks.de\t","state":"RP","programs":{"programs":[]},"full_time_school":true,"lon":7.0667,"lat":49.9167},{"name":"Rosenberg-Schule","id":"RP-31627","address":"Am Rosenberg 32, 54470 Bernkastel-Kues","school_type":"Förderschule","school_type_entity":"Förderschule","legal_status":1,"fax":"(06531)9719219","phone":"(06531)9719210","website":"http://www.Rosenberg-Schule.de","email":"\tinfo@rosenberg-schule.de\t","state":"RP","programs":{"programs":[]},"full_time_school":true,"lon":7.05819,"lat":49.919732},{"name":"Martin-Luther-King-Schule","id":"RP-31210","address":"Maiweg 140, 56841 Traben-Trarbach","school_type":"Förderschule","school_type_entity":"Förderschule","legal_status":0,"fax":"(06541)816731","phone":"(06541)816730","website":"","email":"\tinfo@e-schule-mlk.de\t","state":"RP","programs":{"programs":[]},"full_time_school":true,"lon":7.101418,"lat":49.971313},{"name":"Maria-Grünewald-Schule","id":"RP-30305","address":"Franziskusstr., 54516 Wittlich","school_type":"Förderschule","school_type_entity":"Förderschule","legal_status":0,"fax":"(06571)695300","phone":"(06571)695302","website":"http://gruenewaldschule.bildung-rp.de/","email":"\tfoerderschule.maria-gruenewald@srcab.de\t","state":"RP","programs":{"programs":[]},"full_time_school":true,"lon":6.9139,"lat":50.0006},{"name":"Liesertal-Schule","id":"RP-30893","address":"Petrusstr. 28, 54516 Wittlich","school_type":"Förderschule","school_type_entity":"Förderschule","legal_status":1,"fax":"(06571)915720","phone":"(06571)91570","website":"http://www.liesertal-schule.bildung-rp.de","email":"\tVerwaltung@liesertal-schule.de\t","state":"RP","programs":{"programs":[]},"full_time_school":true,"lon":6.932112,"lat":49.975154},{"name":"Förderschule","id":"RP-30683","address":"Brechkaul, 55765 Birkenfeld","school_type":"Förderschule","school_type_entity":"Förderschule","legal_status":1,"fax":"(06782)988221","phone":"(06782)2188","website":"http://www.sfl-birkenfeld.de","email":"\tsfl.bir@gmx.de\t","state":"RP","programs":{"programs":[]},"full_time_school":true,"lon":7.173579,"lat":49.646273},{"name":"Peter-Caesar-Schule","id":"RP-30395","address":"Auf Weißborr 15, 55743 Idar-Oberstein","school_type":"Förderschule","school_type_entity":"Förderschule","legal_status":1,"fax":"(06781)450362","phone":"(06781)27842","website":"http://www.Peter-Caesar-Schule.de","email":"\tPeter_Caesar_Schule@hotmail.com\t","state":"RP","programs":{"programs":["Be smart - don't Start"]},"full_time_school":true,"lon":7.320909,"lat":49.720512},{"name":"Förderschule","id":"RP-31360","address":"Auf der Bein 7, 55743 Idar-Oberstein","school_type":"Förderschule","school_type_entity":"Förderschule","legal_status":1,"fax":"(06784)981289","phone":"(06784)8915","website":"","email":"\tfoerderschule.idar-oberstein@t-online.de.de\t","state":"RP","programs":{"programs":[]},"full_time_school":true,"lon":7.389442,"lat":49.718755},{"name":"Förderschule","id":"RP-31870","address":"Auf der Bein 7, 55743 Idar-Oberstein","school_type":"Förderschule","school_type_entity":"Förderschule","legal_status":1,"fax":"(06784)981289","phone":"(06784)2372","website":"http://www.sprachfoerderung-io.de","email":"\twww.sprachheilschule.io@web.de\t","state":"RP","programs":{"programs":[]},"full_time_school":true,"lon":7.389442,"lat":49.718755},{"name":"Astrid-Lindgren-Schule","id":"RP-30382","address":"Hauptstr., 56812 Dohr","school_type":"Förderschule","school_type_entity":"Förderschule","legal_status":1,"fax":"(02671)987150","phone":"02671/987110","website":"http://www.als-dohr.de","email":"\tinfo@als-dohr.de\t","state":"RP","programs":{"programs":[]},"full_time_school":true,"lon":7.1225976,"lat":50.1307399},{"name":"St. Martin-Heimschule","id":"RP-31704","address":"St. Martin-Str. 33, 56761 Düngenheim","school_type":"Förderschule","school_type_entity":"Förderschule","legal_status":0,"fax":"(02653)598281","phone":"(02653)598190","website":"http://www.foerderschule.stmartin-dku.de","email":"\tfoerderschule@stmartin-dku.de\t","state":"RP","programs":{"programs":[]},"full_time_school":true,"lon":7.153014,"lat":50.265403},{"name":"Pommerbachschule","id":"RP-30709","address":"Im Haag, 56759 Kaisersesch","school_type":"Förderschule","school_type_entity":"Förderschule","legal_status":1,"fax":"(02653)7682","phone":"(02653)6631","website":"http://www.pommerbachschule.de","email":"\tbuero@pommerbachschule.de\t","state":"RP","programs":{"programs":[]},"full_time_school":false,"lon":7.1398609,"lat":50.2328441},{"name":"Mathilde-Hitzfeld-Schule","id":"RP-31030","address":"Dannenfelser Str. 29, 67292 Kirchheimbolanden","school_type":"Förderschule","school_type_entity":"Förderschule","legal_status":1,"fax":"(06352)740235","phone":"(06352)1262","website":"http://www.mathilde-hitzfeld-schule.de","email":"\tMHS-Kibo@t-online.de\t","state":"RP","programs":{"programs":[]},"full_time_school":true,"lon":8.011729,"lat":49.65991},{"name":"Herman-Nohl-Schule","id":"RP-31747","address":"Schillerhain, 67292 Kirchheimbolanden","school_type":"Förderschule","school_type_entity":"Förderschule","legal_status":0,"fax":"(06352)408114","phone":"(06352)408112","website":"","email":"\tHerman-Nohl-Schule@evh-pfalz.de\t","state":"RP","programs":{"programs":[]},"full_time_school":true,"lon":8.004284,"lat":49.661027},{"name":"Förderschule","id":"RP-31057","address":"Mühlackerweg 25a, 67806 Rockenhausen","school_type":"Förderschule","school_type_entity":"Förderschule","legal_status":1,"fax":"(06361)994870","phone":"(06361)5562","website":"http://schuleamdonnersberg.de","email":"\tSchuleamDonnersberg@web.de\t","state":"RP","programs":{"programs":[]},"full_time_school":true,"lon":7.822076,"lat":49.624818},{"name":"St. Martin-Schule","id":"RP-30469","address":"Kölner Str. 14, 54634 Bitburg","school_type":"Förderschule","school_type_entity":"Förderschule","legal_status":1,"fax":"(06561)961420","phone":"(06561)96140","website":"http://www.martin-schule.de","email":"\tinfo@martin-schule.de\t","state":"RP","programs":{"programs":[]},"full_time_school":true,"lon":6.525014,"lat":49.978015},{"name":"Maximin-Schule","id":"RP-31390","address":"Nansenstr. 25, 54634 Bitburg","school_type":"Förderschule","school_type_entity":"Förderschule","legal_status":1,"fax":"(06561)94478-18","phone":"(06561)94478-0","website":"http://www.maximin-schule.de","email":"\tschule@maximin-schule.de\t","state":"RP","programs":{"programs":[]},"full_time_school":true,"lon":6.539476,"lat":49.976171},{"name":"Astrid-Lindgren-Schule","id":"RP-31927","address":"Kolpingstr. 30, 54595 Prüm","school_type":"Förderschule","school_type_entity":"Förderschule","legal_status":1,"fax":"(06551)9516-40","phone":"(06551)9516-0","website":"http://www.astrid-lindgren-schule-pruem.de","email":"\tinfo@astrid-lindgren-schule-pruem.de\t","state":"RP","programs":{"programs":[]},"full_time_school":true,"lon":6.412804,"lat":50.20517},{"name":"Augustin-Violet-Schule","id":"RP-30019","address":"Holzhofstr. 21, 67227 Frankenthal (Pfalz)","school_type":"Förderschule","school_type_entity":"Förderschule","legal_status":1,"fax":"(06233)4909200","phone":"(06233)49090","website":"http://www.pfalzinstitut-frankenthal.de","email":"\tinfo@pih.bv-pfalz.de\t","state":"RP","programs":{"programs":[]},"full_time_school":true,"lon":8.35673,"lat":49.53156},{"name":"Albert-Schweitzer-Schule","id":"RP-30948","address":"Wormser Str. 59, 67227 Frankenthal (Pfalz)","school_type":"Förderschule","school_type_entity":"Förderschule","legal_status":1,"fax":"06233 220443","phone":"(06233)220439","website":"http://www.foerderschule-l-frankenthal.bildung-rp.de","email":"\tAlbertSchweitzerSfL@web.de\t","state":"RP","programs":{"programs":[]},"full_time_school":true,"lon":8.353486,"lat":49.540529},{"name":"Tom-Mutters-Schule","id":"RP-31644","address":"Neumayerring 1, 67227 Frankenthal (Pfalz)","school_type":"Förderschule","school_type_entity":"Förderschule","legal_status":1,"fax":"(06233)298485","phone":"(06233)298484","website":"","email":"\tsekretariat@tom-mutters-schule.de\t","state":"RP","programs":{"programs":[]},"full_time_school":true,"lon":8.353693,"lat":49.531416},{"name":"Neumayer-Schule","id":"RP-31810","address":"Neumayerring 7, 67227 Frankenthal (Pfalz)","school_type":"Förderschule","school_type_entity":"Förderschule","legal_status":1,"fax":"(06233)239206","phone":"(06233)21070","website":"http://neumayerschule.de","email":"\tverwaltung@neumayerschule.de\t","state":"RP","programs":{"programs":[]},"full_time_school":true,"lon":8.352058,"lat":49.531935},{"name":"Nardini-/Bienwald Schule","id":"RP-31943","address":"Am Römerweg 2a, 76726 Germersheim","school_type":"Förderschule","school_type_entity":"Förderschule","legal_status":1,"fax":"(07274)3096","phone":"(07274)3095","website":"http://www.nardinischule.de","email":"\tnardinischule.germersheim@t-online.de\t","state":"RP","programs":{"programs":[]},"full_time_school":true,"lon":8.3639,"lat":49.2231},{"name":"Förderschule","id":"RP-31600","address":"Schulstr. 16, 76761 Rülzheim","school_type":"Förderschule","school_type_entity":"Förderschule","legal_status":1,"fax":"(07272)919050","phone":"(07272)6413","website":"www.sfs-ruelzheim.de","email":"\tinfo@sfs-ruelzheim.de\t","state":"RP","programs":{"programs":[]},"full_time_school":true,"lon":8.287198,"lat":49.148742},{"name":"Schule am Beilstein","id":"RP-30485","address":"Velmannstr. 13, 67657 Kaiserslautern","school_type":"Förderschule","school_type_entity":"Förderschule","legal_status":1,"fax":"(0631)3402553","phone":"(0631)3402552","website":"http://schule-am-beilstein.bildung-rp.de","email":"\tschuleambeilstein@kaiserslautern.de\t","state":"RP","programs":{"programs":[]},"full_time_school":true,"lon":7.814437,"lat":49.438329},{"name":"Fritz-Walter-Schule","id":"RP-31417","address":"Erfurter Str. 68 - 70, 67663 Kaiserslautern","school_type":"Förderschule","school_type_entity":"Förderschule","legal_status":1,"fax":"(0631)3505824","phone":"(0631)3505823","website":"http://www.fritz-walter-schule.bildung-rp.de","email":"\tfritz-walter-schule@live.de\t","state":"RP","programs":{"programs":[]},"full_time_school":true,"lon":7.728154,"lat":49.430368},{"name":"Hans-Zulliger-Schule","id":"RP-31480","address":"Neukircher Str. 4, 67677 Enkenbach-Alsenborn","school_type":"Förderschule","school_type_entity":"Förderschule","legal_status":1,"fax":"(06303)983445","phone":"(06303)983443","website":"http://Hans-Zulliger-Schule.bildung-rp.de","email":"\tHZS-Enkenbach@t-online.de\t","state":"RP","programs":{"programs":[]},"full_time_school":true,"lon":7.894983,"lat":49.488065},{"name":"Förderschule","id":"RP-30575","address":"Am Rothenborn, 66849 Landstuhl  Sickingenstadt","school_type":"Förderschule","school_type_entity":"Förderschule","legal_status":0,"fax":"(06371)934280","phone":"(06371)934263","website":"http://www.reha-westpfalz.de/rw/397.html","email":"\tschule@reha-westpfalz.de\t","state":"RP","programs":{"programs":[]},"full_time_school":true,"lon":7.58046,"lat":49.41476},{"name":"Jakob-Weber-Schule","id":"RP-31087","address":"Neugasse 2, 66849 Landstuhl  Sickingenstadt","school_type":"Förderschule","school_type_entity":"Förderschule","legal_status":1,"fax":"(06371)6181613","phone":"(06371)618160","website":"http://jakob-weber-schule.bildung-rp.de/","email":"\tJakob-Weber-Schule@web.de\t","state":"RP","programs":{"programs":[]},"full_time_school":true,"lon":7.58046,"lat":49.41476},{"name":"Schule am Bienhorntal","id":"RP-30409","address":"Lehrhohl 44, 56077 Koblenz","school_type":"Förderschule","school_type_entity":"Förderschule","legal_status":1,"fax":"(0261)79858","phone":"(0261)79851","website":"","email":"\tSchule-am-Bienhorntal@t-online.de\t","state":"RP","programs":{"programs":[]},"full_time_school":true,"lon":7.615849,"lat":50.346214},{"name":"Hans-Zulliger-Schule","id":"RP-30593","address":"Brenderweg 23, 56070 Koblenz","school_type":"Förderschule","school_type_entity":"Förderschule","legal_status":1,"fax":"(0261)  96 35 81 13","phone":"(0261) 96 35 810","website":"http://zulliger-schule-koblenz.bildung-rp.de","email":"\tHans-Zulliger-Schule@web.de\t","state":"RP","programs":{"programs":[]},"full_time_school":true,"lon":7.597288,"lat":50.367531},{"name":"Diesterweg-Schule","id":"RP-31300","address":"Kastorpfaffenstr. 9-11, 56068 Koblenz","school_type":"Förderschule","school_type_entity":"Förderschule","legal_status":1,"fax":"0261-91469055","phone":"(0261)34160","website":"http://www.diesterweg-schule.de","email":"\tdiesterweg-schule@gmx.de\t","state":"RP","programs":{"programs":[]},"full_time_school":true,"lon":7.602032,"lat":50.360512},{"name":"Jakob-Muth-Schule","id":"RP-30532","address":"Hollerstr. 4, 66869 Kusel","school_type":"Förderschule","school_type_entity":"Förderschule","legal_status":1,"fax":"06381 42864222","phone":"(06381)42864200","website":"www.jakobmuthschule.de","email":"\tbuerojms@web.de\t","state":"RP","programs":{"programs":[]},"full_time_school":true,"lon":7.412117,"lat":49.536838},{"name":"Jakob-Muth-Schule","id":"RP-31090","address":"Hollerstr. 2, 66869 Kusel","school_type":"Förderschule","school_type_entity":"Förderschule","legal_status":1,"fax":"(06381)42864-111","phone":"(06381)42864-100","website":"http://jakob-muth-schule.bildung-rp.de/","email":"\tsekretariat@jakob-muth-schule.de\t","state":"RP","programs":{"programs":[]},"full_time_school":true,"lon":7.411297,"lat":49.536583},{"name":"Janusz-Korczak-Schule","id":"RP-31720","address":"Schulstr. 14, 67742 Lauterecken","school_type":"Förderschule","school_type_entity":"Förderschule","legal_status":1,"fax":"(06382)993723","phone":"(06382)993689","website":"http://www.korczak-Schule-Lauterecken.de","email":"\tKorczak-Schule-Lauterecken@t-online.de\t","state":"RP","programs":{"programs":[]},"full_time_school":false,"lon":7.593628,"lat":49.651706},{"name":"Jakob-Reeb-Schule","id":"RP-30095","address":"Queichheimer Hauptstr. 231, 76829 Landau in der Pfalz","school_type":"Förderschule","school_type_entity":"Förderschule","legal_status":0,"fax":"(06341)9844303","phone":"(06341)9841300","website":"http://www.jugendwerk-landau.de","email":"\tsonja.schneider@jugendwerk-st-josef.de\t","state":"RP","programs":{"programs":[]},"full_time_school":true,"lon":8.154251,"lat":49.197092},{"name":"St. Paulusstift","id":"RP-30562","address":"Queichheimer Hauptstr. 235, 76829 Landau in der Pfalz","school_type":"Förderschule","school_type_entity":"Förderschule","legal_status":0,"fax":"(06341)599463","phone":"(06341)599441","website":"http://frderschule-landau.de","email":"\tStephanie.Daut@caritas-speyer.de\t","state":"RP","programs":{"programs":[]},"full_time_school":true,"lon":8.155826,"lat":49.19694},{"name":"Nordringschule","id":"RP-30953","address":"Nordring 4, 76829 Landau in der Pfalz","school_type":"Förderschule","school_type_entity":"Förderschule","legal_status":1,"fax":"(06341)898005","phone":"(06341)83102","website":"http://nordringschule.bildung-rp.de","email":"\tNordringschule-Landau@web.de\t","state":"RP","programs":{"programs":["UNESCO Projektschulen"]},"full_time_school":true,"lon":8.109119,"lat":49.200655},{"name":"Paul-Moor-Schule","id":"RP-31807","address":"Münchener Str. 11, 76829 Landau in der Pfalz","school_type":"Förderschule","school_type_entity":"Förderschule","legal_status":1,"fax":"(06341)5 59 00 20","phone":"(06341)50324","website":"http://www.paulmoor-schule.de","email":"\tsekretariat@paulmoor-schule.de\t","state":"RP","programs":{"programs":[]},"full_time_school":true,"lon":8.142138,"lat":49.204963},{"name":"Georgens-Schule","id":"RP-30052","address":"Rheinhorststr. 34/36, 67071 Ludwigshafen am Rhein","school_type":"Förderschule","school_type_entity":"Förderschule","legal_status":1,"fax":"(0621)504401298","phone":"(0621)504401210","website":"http://www.georgens-schule.de","email":"\tschulleitung@georgens-schule.de\t","state":"RP","programs":{"programs":[]},"full_time_school":true,"lon":8.37157,"lat":49.503295},{"name":"Schillerschule","id":"RP-31540","address":"Rheingönheimer Str. 103, 67065 Ludwigshafen am Rhein","school_type":"Förderschule","school_type_entity":"Förderschule","legal_status":1,"fax":"(0621)504423997","phone":"(0621)504423920","website":"http://www.schillerschule.com/","email":"\tSOSCHL-Schiller-LUMU@t-online.de\t","state":"RP","programs":{"programs":["Seniorpartner in School"]},"full_time_school":false,"lon":8.427233,"lat":49.459235},{"name":"Schloss-Schule","id":"RP-31554","address":"Schnabelbrunnengasse 41, 67071 Ludwigshafen am Rhein","school_type":"Förderschule","school_type_entity":"Förderschule","legal_status":1,"fax":"(0621)504401798","phone":"(0621)504401710","website":"http://www.schloss-schule-lu.bildung-rp.de","email":"\tinfo@sfl-schloss-lu.de\t","state":"RP","programs":{"programs":["Be smart - don't Start"]},"full_time_school":true,"lon":8.378555,"lat":49.492878},{"name":"Schule an der Blies","id":"RP-31583","address":"Krummlachstr. 10, 67059 Ludwigshafen am Rhein","school_type":"Förderschule","school_type_entity":"Förderschule","legal_status":1,"fax":"(0621)504420797","phone":"(0621)504420720","website":"http://bliesschule.bildung-rp.de","email":"\tsfl@bliesschulen.de\t","state":"RP","programs":{"programs":["Be smart - don't Start"]},"full_time_school":true,"lon":8.419006,"lat":49.47506},{"name":"Förderschule","id":"RP-31793","address":"Karl-Lochner-Str. 8, 67071 Ludwigshafen am Rhein","school_type":"Förderschule","school_type_entity":"Förderschule","legal_status":1,"fax":"(0621)67005170","phone":"(0621)67005171","website":"http://sfm-ludwigshafen.bildung-rp.de","email":"\tinfo@mosaikschule-LU.de\t","state":"RP","programs":{"programs":[]},"full_time_school":true,"lon":8.362874,"lat":49.485476},{"name":"Peter-Jordan-Schule","id":"RP-30245","address":"An der Bruchspitze 50, 55122 Mainz","school_type":"Förderschule","school_type_entity":"Förderschule","legal_status":1,"fax":"(06131)324734","phone":"(06131)324732","website":"http://peter-jordan-schule-mainz.de","email":"\tschule.peter-jordan@stadt.mainz.de\t","state":"RP","programs":{"programs":[]},"full_time_school":true,"lon":8.232295,"lat":50.005734},{"name":"Windmühlenschule","id":"RP-30979","address":"Generaloberst-Beck-Str. 1, 55129 Mainz","school_type":"Förderschule","school_type_entity":"Förderschule","legal_status":1,"fax":"(06131)53966","phone":"(06131)53966","website":"","email":"\tMalte.Daum@stadt.mainz.de\t","state":"RP","programs":{"programs":[]},"full_time_school":true,"lon":8.264675,"lat":49.976554},{"name":"Astrid-Lindgren-Schule","id":"RP-31717","address":"John F. Kennedy-Str. 5-7, 55122 Mainz","school_type":"Förderschule","school_type_entity":"Förderschule","legal_status":1,"fax":"(06131)324728","phone":"(06131)324726","website":"http://www.astrid-lindgren-schule-mainz.de","email":"\tschule.astrid-lindgren@stadt.mainz.de\t","state":"RP","programs":{"programs":[]},"full_time_school":true,"lon":8.24831,"lat":50.001667},{"name":"Rhein-Nahe-Schule","id":"RP-31134","address":"Burgstr. 17, 55411 Bingen am Rhein","school_type":"Förderschule","school_type_entity":"Förderschule","legal_status":1,"fax":"(06721)4087831","phone":"(06721)408780","website":"http://www.rhein-nahe-schule.de","email":"info@rhein-nahe-schule.de","state":"RP","programs":{"programs":[]},"full_time_school":true,"lon":7.908751,"lat":49.951847},{"name":"Albert-Schweitzer-Schule","id":"RP-31147","address":"Talstr. 153, 55218 Ingelheim am Rhein","school_type":"Förderschule","school_type_entity":"Förderschule","legal_status":1,"fax":"(06132)4354711","phone":"(06132)4354710","website":"http://www.assingelheim.de","email":"\tASS.Ingelheim@t-online.de\t","state":"RP","programs":{"programs":[]},"full_time_school":true,"lon":8.023674,"lat":49.986862},{"name":"Selztalschule","id":"RP-31150","address":"Oppenheimer Str. 69, 55268 Nieder-Olm","school_type":"Förderschule","school_type_entity":"Förderschule","legal_status":1,"fax":"(06136)924365","phone":"(06136)2395","website":"http://selztalschule.de","email":"\tinfo@selztalschule-no.de\t","state":"RP","programs":{"programs":["Be smart - don't Start"]},"full_time_school":true,"lon":8.201051,"lat":49.901972},{"name":"Förderschule","id":"RP-31314","address":"Maria-Montessori-Str. 2, 55268 Nieder-Olm","school_type":"Förderschule","school_type_entity":"Förderschule","legal_status":1,"fax":"(06136)758920","phone":"(06136)75890","website":"","email":"\tinfo@sfm-nieder-olm.de\t","state":"RP","programs":{"programs":[]},"full_time_school":true,"lon":8.194667,"lat":49.902521},{"name":"Landskronschule","id":"RP-31164","address":"Am Stadtbad 24, 55276 Oppenheim","school_type":"Förderschule","school_type_entity":"Förderschule","legal_status":1,"fax":"(06133)924320","phone":"(06133)92430","website":"http://www.Landskronschule.de","email":"Landskronschule@web.de\t","state":"RP","programs":{"programs":[]},"full_time_school":true,"lon":8.366808,"lat":49.851577},{"name":"Elisabethen-Schule","id":"RP-30559","address":"Stettiner Str. 3, 55576 Sprendlingen","school_type":"Förderschule","school_type_entity":"Förderschule","legal_status":1,"fax":"(06701)2007520","phone":"(06701)200750","website":"http://www.elisabethenschulesprendlingen.de/","email":"\tkontakt@elisabethenschulesprendlingen.com\t","state":"RP","programs":{"programs":[]},"full_time_school":true,"lon":7.99531,"lat":49.861384},{"name":"Elisabethschule","id":"RP-30725","address":"Taubentränke, 56626 Andernach","school_type":"Förderschule","school_type_entity":"Förderschule","legal_status":1,"fax":"(02632)987470-20","phone":"(02632)987470-0","website":"http://www.esa.my-myk.de","email":"\telisabeth-sfl-1@gmx.de\t","state":"RP","programs":{"programs":[]},"full_time_school":true,"lon":7.409582,"lat":50.426439},{"name":"Theodor-Heuss-Schule","id":"RP-30768","address":"Engerser Str. 33, 56170 Bendorf","school_type":"Förderschule","school_type_entity":"Förderschule","legal_status":1,"fax":"(02622)904989","phone":"(02622)904980","website":"","email":"\ttheodor-heuss-schule.bendorf@rz-online.de\t","state":"RP","programs":{"programs":[]},"full_time_school":true,"lon":7.57002,"lat":50.421},{"name":"Anne-Frank-Schule","id":"RP-30773","address":"Ochtendunger Str. 26, 56220 Kettig","school_type":"Förderschule","school_type_entity":"Förderschule","legal_status":1,"fax":"(02637)940236","phone":"(02637)940234","website":"","email":"\tinfo@afs-kettig.de\t","state":"RP","programs":{"programs":[]},"full_time_school":true,"lon":7.456647,"lat":50.390677},{"name":"Genoveva-Schule","id":"RP-30439","address":"Genovevastr. 48, 56727 Mayen","school_type":"Förderschule","school_type_entity":"Förderschule","legal_status":1,"fax":"(02651)900514","phone":"(02651)900513","website":"http://www.genoveva-schule.bildung-rp.de","email":"\tgenoveva-schule@freenet.de\t","state":"RP","programs":{"programs":[]},"full_time_school":true,"lon":7.221681,"lat":50.323826},{"name":"Elisabeth-Schule","id":"RP-30742","address":"St.-Veit-Str. 3, 56727 Mayen","school_type":"Förderschule","school_type_entity":"Förderschule","legal_status":1,"fax":"(02651)900517","phone":"(02651)900516","website":"http://elisabeth-schule.bildung-rp.de/","email":"\telisabeth-schule.Mayen@t-online.de\t","state":"RP","programs":{"programs":[]},"full_time_school":false,"lon":7.225417,"lat":50.327426},{"name":"Schule im Bernardshof","id":"RP-31900","address":"Polcher Str., 56727 Mayen","school_type":"Förderschule","school_type_entity":"Förderschule","legal_status":0,"fax":"(02651)8008-88","phone":"02651)8008-80/81","website":"","email":"\tschule@jhz-bernardshof.de\t","state":"RP","programs":{"programs":["UNESCO Projektschulen"]},"full_time_school":true,"lon":7.231088,"lat":50.320725},{"name":"Herz-Jesu-Haus Kühr","id":"RP-30322","address":"Markstr. 62, 56332 Niederfell","school_type":"Förderschule","school_type_entity":"Förderschule","legal_status":0,"fax":"(02607)69200","phone":"(02607)69176","website":"","email":"\tschule@herz-jesu-haus.de\t","state":"RP","programs":{"programs":[]},"full_time_school":true,"lon":7.458622,"lat":50.285528},{"name":"Stephanus-Schule","id":"RP-30755","address":"Ackerstr. 2-4, 56751 Polch","school_type":"Förderschule","school_type_entity":"Förderschule","legal_status":1,"fax":"(02654)88177520","phone":"(02654)8817750","website":"http://www.stephanus-schule-polch.de/","email":"\tstephanus-schule@t-online.de\t","state":"RP","programs":{"programs":[]},"full_time_school":true,"lon":7.306471,"lat":50.302977},{"name":"Schubert-Schule","id":"RP-30983","address":"Wiesenstr. 17, 67433 Neustadt an der Weinstraße","school_type":"Förderschule","school_type_entity":"Förderschule","legal_status":1,"fax":"(06321)921842","phone":"(06321)921841","website":"http://www.schubert-schule-nw.de","email":"\tschubert-schule@gmx.de\t","state":"RP","programs":{"programs":[]},"full_time_school":true,"lon":8.140571,"lat":49.352251},{"name":"Albert-Schweitzer-Schule","id":"RP-30786","address":"Laurentiusstraße 1, 53567 Asbach","school_type":"Förderschule","school_type_entity":"Förderschule","legal_status":1,"fax":"(02683)94050-20","phone":"(02683-940500","website":"http://www.albert-schweitzer-schule-asbach.de","email":"\tass-asbach@gmx.de\t","state":"RP","programs":{"programs":[]},"full_time_school":true,"lon":7.422558,"lat":50.666736},{"name":"Landesschule für Blinde und","id":"RP-30185","address":"Feldkircher Str. 100, 56567 Neuwied","school_type":"Förderschule","school_type_entity":"Förderschule","legal_status":1,"fax":"(02631)970180","phone":"(02631)970-0","website":"http://www.blindenschule-neuwied.de/","email":"\tblindenschule-neuwied@lbs-neuwied.lsjv.rlp.de\t","state":"RP","programs":{"programs":[]},"full_time_school":true,"lon":7.434007,"lat":50.454266},{"name":"Landesschule für Gehörlose und","id":"RP-30199","address":"Elisabethstr. 48, 56564 Neuwied","school_type":"Förderschule","school_type_entity":"Förderschule","legal_status":1,"fax":"(02631)3426-150","phone":"(02631)3426-0","website":"http://www.lgs-neuwied.de","email":"\tzentrale@lgs-neuwied.lsjv.rlp.de\t","state":"RP","programs":{"programs":[]},"full_time_school":true,"lon":7.471375,"lat":50.423841},{"name":"Paul-Schneider-Schule","id":"RP-30229","address":"Heimstr. 42, 56566 Neuwied","school_type":"Förderschule","school_type_entity":"Förderschule","legal_status":0,"fax":"40137","phone":"(02631)40130-35","website":"http://paul-schneider-schule.bildung-rp.de","email":"\tsekretariat@paulschneiderschule.de\t","state":"RP","programs":{"programs":[]},"full_time_school":false,"lon":7.50538,"lat":50.473274},{"name":"Christiane-Herzog-Schule","id":"RP-30379","address":"Neuwieder Str. 21b, 56566 Neuwied","school_type":"Förderschule","school_type_entity":"Förderschule","legal_status":0,"fax":"(02622)705125","phone":"(02622)705-153","website":"http://christiane-herzog-schule.bildung-rp.de","email":"\tchristiane-herzog-schule@heinrich-haus.de\t","state":"RP","programs":{"programs":[]},"full_time_school":true,"lon":7.539907,"lat":50.424821},{"name":"Carl-Orff-Schule","id":"RP-30442","address":"Orffstr. 37, 56566 Neuwied","school_type":"Förderschule","school_type_entity":"Förderschule","legal_status":1,"fax":"(02622)3055","phone":"(02622)3244","website":"http://www.carl-orff-schule-neuwied.de","email":"\tinfo@carl-orff-schule-neuwied.de\t","state":"RP","programs":{"programs":[]},"full_time_school":true,"lon":7.542933,"lat":50.430407},{"name":"Kinzing-Schule","id":"RP-30802","address":"Beverwijker Ring 5, 56564 Neuwied","school_type":"Förderschule","school_type_entity":"Förderschule","legal_status":1,"fax":"(02631)54766","phone":"(02631)96600","website":"http://kinzing-schule.bildung-rp.de/","email":"\tKinzing_Schule@gmx.de\t","state":"RP","programs":{"programs":[]},"full_time_school":true,"lon":7.474941,"lat":50.448257},{"name":"Brüder-Grimm-Schule","id":"RP-31194","address":"Schillerstr. 43, 56567 Neuwied","school_type":"Förderschule","school_type_entity":"Förderschule","legal_status":1,"fax":"(02631)9757020","phone":"(02631)975700","website":"http://bgs-neuwied.de","email":"\tbrueder-grimm-neuwied@t-online.de\t","state":"RP","programs":{"programs":[]},"full_time_school":true,"lon":7.423946,"lat":50.447853},{"name":"Gustav-W.-Heinemann-Schule","id":"RP-30815","address":"Schulstr. 2, 56316 Raubach","school_type":"Förderschule","school_type_entity":"Förderschule","legal_status":1,"fax":"(02684)9506016","phone":"(02684)950600","website":"","email":"\tsfl.raubach@web.de\t","state":"RP","programs":{"programs":[]},"full_time_school":true,"lon":7.586127,"lat":50.562626},{"name":"Maximilian-Kolbe-Schule","id":"RP-30799","address":"Arienhellerstr. 43, 56598 Rheinbrohl","school_type":"Förderschule","school_type_entity":"Förderschule","legal_status":1,"fax":"(02635)911037","phone":"(02635)911030","website":"http://www.maximilian-kolbe-schule.org","email":"\tinfo@maximilian-kolbe-schule.org\t","state":"RP","programs":{"programs":[]},"full_time_school":true,"lon":7.327579,"lat":50.503991},{"name":"Pirminiusschule","id":"RP-30498","address":"Heinrich-Kimmle-Weg 4, 66953 Pirmasens","school_type":"Förderschule","school_type_entity":"Förderschule","legal_status":0,"fax":"(06331)228688","phone":"(06331)64605","website":"http://www.heinrichkimmlestiftung.de","email":"\tpirminiusschule@hk-stiftung.de\t","state":"RP","programs":{"programs":[]},"full_time_school":true,"lon":7.609359,"lat":49.210007},{"name":"Matzenbergschule","id":"RP-31420","address":"Winzler Str. 36/40, 66955 Pirmasens","school_type":"Förderschule","school_type_entity":"Förderschule","legal_status":1,"fax":"06331-240520","phone":"(06331)24050","website":"","email":"\tfoerderschule.matzenberg@stadt-pirmasens.de\t","state":"RP","programs":{"programs":[]},"full_time_school":true,"lon":7.602323,"lat":49.196239},{"name":"Helene-Pagés-Schule","id":"RP-31374","address":"Buchenauerstr., 56154 Boppard","school_type":"Förderschule","school_type_entity":"Förderschule","legal_status":1,"fax":"(06742)8015923","phone":"(06742)801590","website":"http://www.hps-boppard.bildung-rp.de","email":"\thps-boppard@web.de\t","state":"RP","programs":{"programs":["Be smart - don't Start"]},"full_time_school":true,"lon":7.6086435,"lat":50.2131863},{"name":"Theodor-Heuss-Schule","id":"RP-30455","address":"Theodor-Heuss-Str. 8, 56288 Kastellaun","school_type":"Förderschule","school_type_entity":"Förderschule","legal_status":1,"fax":"(06762) 401 401","phone":"(06762)8551","website":"www.ths-kastellaun.de","email":"\tths-kastellaun@t-online.de\t","state":"RP","programs":{"programs":[]},"full_time_school":true,"lon":7.450621,"lat":50.069919},{"name":"Hunsrückschule","id":"RP-30845","address":"Herzog-Reichard-Str. 9, 55469 Simmern/ Hunsrück","school_type":"Förderschule","school_type_entity":"Förderschule","legal_status":1,"fax":"(06761)91618-13","phone":"(06761)91618-0","website":"","email":"\tHunsrueckschule@gmx.de\t","state":"RP","programs":{"programs":[]},"full_time_school":true,"lon":7.516244,"lat":49.983383},{"name":"Freiherr-vom-Stein-Schule","id":"RP-30858","address":"Gymnasialstr. 8, 56112 Lahnstein","school_type":"Förderschule","school_type_entity":"Förderschule","legal_status":1,"fax":"(02621)921720","phone":"(02621)92170","website":"http://www.freiherr-vom-stein-schule-lahnstein.de","email":"\tFSPLernen@hotmail.com\t","state":"RP","programs":{"programs":[]},"full_time_school":true,"lon":7.606974,"lat":50.303047},{"name":"Taunusschule","id":"RP-30863","address":"Schulstr. 18, 56355 Nastätten","school_type":"Förderschule","school_type_entity":"Förderschule","legal_status":1,"fax":"(06772)953415","phone":"(06772)1707","website":"http://www.taunus-schule.de","email":"\tverwaltung@taunus-schule.de\t","state":"RP","programs":{"programs":["Fairtrade Schools"]},"full_time_school":true,"lon":7.859453,"lat":50.197028},{"name":"Erich Kästner-Schule","id":"RP-31780","address":"Erich Kästner-Str. 5, 56379 Singhofen","school_type":"Förderschule","school_type_entity":"Förderschule","legal_status":1,"fax":"(02604)943715","phone":"(02604)9437-0","website":"http://www.eks-singhofen.de","email":"\tKaestner-Schule@eks-singhofen.de\t","state":"RP","programs":{"programs":[]},"full_time_school":true,"lon":7.832303,"lat":50.276558},{"name":"Oranienschule","id":"RP-31853","address":"Erich-Kästner-Str. 7, 56379 Singhofen","school_type":"Förderschule","school_type_entity":"Förderschule","legal_status":1,"fax":"(02604)9437-19","phone":"(02604)9437-12","website":"http://www.sfs-rlp.de","email":"\toranienschule@sfs-rlp.de\t","state":"RP","programs":{"programs":[]},"full_time_school":true,"lon":7.832289,"lat":50.276528},{"name":"Salierschule","id":"RP-31120","address":"Jägerstr. 18, 67105 Schifferstadt","school_type":"Förderschule","school_type_entity":"Förderschule","legal_status":1,"fax":"06235/490484","phone":"06235/49049","website":"http://www.salier.bildung-rp.de","email":"\tsekretariat.salier@gmx.de\t","state":"RP","programs":{"programs":["Be smart - don't Start"]},"full_time_school":true,"lon":8.377859,"lat":49.377737},{"name":"Johann-Heinrich-Pestalozzi","id":"RP-30049","address":"Kardinal-Wendel-Str. 9, 67346 Speyer","school_type":"Förderschule","school_type_entity":"Förderschule","legal_status":1,"fax":"(06232)539986","phone":"(06232)539985","website":"http://www.pestalozzi-speyer.bildung-rp.de","email":"\tpestalozzi.speyer@gmx.de.de\t","state":"RP","programs":{"programs":[]},"full_time_school":true,"lon":8.434642,"lat":49.30472},{"name":"Schule im Erlich","id":"RP-30996","address":"Im Erlich 67 A, 67346 Speyer","school_type":"Förderschule","school_type_entity":"Förderschule","legal_status":1,"fax":"06232/635374","phone":"(06232)635372","website":"http://www.schuleimerlich.de","email":"\tschuleimerlich@googlemail.com\t","state":"RP","programs":{"programs":["Schule ohne Rassismus - Schule mit Courage"]},"full_time_school":true,"lon":8.412989,"lat":49.328988},{"name":"Staufer-Schulzentrum","id":"RP-31117","address":"Herrenteich 2, 76855 Annweiler am Trifels","school_type":"Förderschule","school_type_entity":"Förderschule","legal_status":1,"fax":"(06346)965118","phone":"(06346)965120","website":"http://staufer-schulzentrum.de","email":"\tfoerderschule.annweiler@gmx.de\t","state":"RP","programs":{"programs":[]},"full_time_school":true,"lon":7.97475,"lat":49.203706},{"name":"Altenbergschule","id":"RP-31510","address":"Zeppelinstr. 55, 76887 Bad Bergzabern","school_type":"Förderschule","school_type_entity":"Förderschule","legal_status":1,"fax":"(06343)938520","phone":"(06343)8176","website":"http://www.altenbergschule.de","email":"\tinfo@altenbergschule.de\t","state":"RP","programs":{"programs":[]},"full_time_school":true,"lon":7.996343,"lat":49.104007},{"name":"St. Laurentius-Schule","id":"RP-30065","address":"Bussereaustr. 21, 76863 Herxheim bei Landau/ Pfalz","school_type":"Förderschule","school_type_entity":"Förderschule","legal_status":0,"fax":"(07276)970103","phone":"(07276)970140","website":"http://www.st-laurentius-herxheim.de","email":"\thttp://st.laurentius-schule@caritas-speyer.de\t","state":"RP","programs":{"programs":[]},"full_time_school":true,"lon":8.21855,"lat":49.149928},{"name":"Privatschule St. Josef","id":"RP-30139","address":"Schöndorfer Str. 2, 54292 Trier","school_type":"Förderschule","school_type_entity":"Förderschule","legal_status":0,"fax":"(0651)140451","phone":"(0651)28421","website":"http://www.sankt-josef-trier.de","email":"\tfoerderschule@sankt-josef-trier.de\t","state":"RP","programs":{"programs":[]},"full_time_school":false,"lon":6.650991,"lat":49.761081},{"name":"Wilhelm-Hubert-Cüppers-Schule","id":"RP-30202","address":"Am Trimmelter Hof 201, 54296 Trier","school_type":"Förderschule","school_type_entity":"Förderschule","legal_status":1,"fax":"(0651)9103534","phone":"(0651)910350","website":"http://www.whc-schule-trier.de","email":"\twhc@whc-schule-trier.de\t","state":"RP","programs":{"programs":["Fairtrade Schools"]},"full_time_school":true,"lon":6.691777,"lat":49.739139},{"name":"Porta-Nigra-Schule","id":"RP-31630","address":"Engelstr. 20, 54292 Trier","school_type":"Förderschule","school_type_entity":"Förderschule","legal_status":0,"fax":"0651-26392","phone":"(0651)28011","website":"http://porta-nigra-schule.bildung-rp.de/","email":"\tPorta-Nigra-Schule@Lebenshilfe-Trier.de\t","state":"RP","programs":{"programs":[]},"full_time_school":true,"lon":6.644439,"lat":49.761593},{"name":"Treverer-Schule","id":"RP-31777","address":"Trevererstr. 42, 54295 Trier","school_type":"Förderschule","school_type_entity":"Förderschule","legal_status":1,"fax":"(0651)9930490","phone":"(0651)32850","website":"http://www.treverer-schule.de","email":"\tbuero@treverer-schule.de\t","state":"RP","programs":{"programs":[]},"full_time_school":true,"lon":6.647032,"lat":49.733734},{"name":"Medard-Schule Trier","id":"RP-31930","address":"Medardstr. 2, 54294 Trier","school_type":"Förderschule","school_type_entity":"Förderschule","legal_status":1,"fax":"(0651)993796820","phone":"(0651)993796810","website":"http://www.medardschule.de","email":"\tsekretariat@medardschule.de\t","state":"RP","programs":{"programs":[]},"full_time_school":true,"lon":6.629798,"lat":49.738158},{"name":"St. Martinus-Schule","id":"RP-30922","address":"Schulstr. 1, 54421 Reinsfeld","school_type":"Förderschule","school_type_entity":"Förderschule","legal_status":1,"fax":"(06503)994493","phone":"(06503)7606","website":"http://www.st-martinus-schule.de","email":"\tmartinus.schule@t-online.de\t","state":"RP","programs":{"programs":[]},"full_time_school":true,"lon":6.873642,"lat":49.677578},{"name":"Levana-Schule","id":"RP-30472","address":"Bernhard-Becker-Str. 6, 54338 Schweich","school_type":"Förderschule","school_type_entity":"Förderschule","legal_status":1,"fax":"06502/995 401","phone":"(06502)930920","website":"http://levana-schule-schweich.de","email":"\tinfo@levana-schule-schweich.de\t","state":"RP","programs":{"programs":[]},"full_time_school":true,"lon":6.747899,"lat":49.819777},{"name":"Meulenwald-Schule","id":"RP-30876","address":"Isseler Str. 37, 54338 Schweich","school_type":"Förderschule","school_type_entity":"Förderschule","legal_status":1,"fax":"(06502)9109522","phone":"(06502)910950","website":"http://www.meulenwald-schule.de","email":"\tinfo@meulenwald-schule.de\t","state":"RP","programs":{"programs":[]},"full_time_school":true,"lon":6.749759,"lat":49.822362},{"name":"Valdocco-Schule","id":"RP-31914","address":"Puricellistr. 1, 54298 Welschbillig","school_type":"Förderschule","school_type_entity":"Förderschule","legal_status":0,"fax":"(06506)899109","phone":"(06506)899116","website":"http://www.helenenberg.de","email":"\tjakobs@helenenberg.de\t","state":"RP","programs":{"programs":[]},"full_time_school":true,"lon":6.545013,"lat":49.857259},{"name":"Don Bosco-Schule","id":"RP-31404","address":"Rosenbergerstr. 130 a, 54459 Wiltingen","school_type":"Förderschule","school_type_entity":"Förderschule","legal_status":1,"fax":"06501-601761","phone":"(06501)16432","website":"http://www.dobowi.de","email":"\tdobowi@gmx.de\t","state":"RP","programs":{"programs":[]},"full_time_school":true,"lon":6.6,"lat":49.6667},{"name":"St. Laurentius-Schule","id":"RP-30905","address":"Schulstr. 5, 54550 Daun","school_type":"Förderschule","school_type_entity":"Förderschule","legal_status":1,"fax":"(06592)985393","phone":"(06592)980113","website":"http://www.foerderzentrum-daun.de","email":"\tinfo@foerderzentrum-daun.de\t","state":"RP","programs":{"programs":[]},"full_time_school":true,"lon":6.825404,"lat":50.194323},{"name":"Hubertus-Rader-Förderzentrum","id":"RP-31897","address":"Waldstr. 17, 54568 Gerolstein","school_type":"Förderschule","school_type_entity":"Förderschule","legal_status":1,"fax":"(06591)985187","phone":"(06591)4177","website":"http://hrf-gerolstein.bildung-rp.de/","email":"\tmail@hrf-gerolstein.de\t","state":"RP","programs":{"programs":[]},"full_time_school":true,"lon":6.661972,"lat":50.217001},{"name":"Michael-Ende-Schule","id":"RP-30829","address":"Erlenweg 4a, 56470 Bad Marienberg (Westerwald)","school_type":"Förderschule","school_type_entity":"Förderschule","legal_status":1,"fax":"(02661)910890","phone":"(02661)91080","website":"http://mesbm.de","email":"\tmichael-ende-schule.bad-mbg@t-online.de\t","state":"RP","programs":{"programs":[]},"full_time_school":true,"lon":7.956172,"lat":50.658405},{"name":"Burggarten-Schule","id":"RP-30832","address":"Leipziger Str. 10, 57627 Hachenburg","school_type":"Förderschule","school_type_entity":"Förderschule","legal_status":1,"fax":"(02662)939373","phone":"(02662)7771","website":"http://burggartenschule.bildung-rp.de","email":"\tBurggartenschule@t-online.de\t","state":"RP","programs":{"programs":[]},"full_time_school":true,"lon":7.828757,"lat":50.661182},{"name":"Schule am Rothenberg","id":"RP-31867","address":"Lohmühle 2a, 57627 Hachenburg","school_type":"Förderschule","school_type_entity":"Förderschule","legal_status":1,"fax":"(02662)942231","phone":"(02662)939457","website":"http://www.schule-am-rothenberg.de","email":"\tSfSpr@t-online.de\t","state":"RP","programs":{"programs":[]},"full_time_school":true,"lon":7.82148,"lat":50.656883},{"name":"Wilhelm-Albrecht-Schule Höhn","id":"RP-31837","address":"Zehntgrafstr. 14, 56462 Höhn","school_type":"Förderschule","school_type_entity":"Förderschule","legal_status":0,"fax":"(02661)988340","phone":"(02661)98830","website":"http://www.waschule.de","email":"\twaschule@heinrich-haus.de\t","state":"RP","programs":{"programs":[]},"full_time_school":true,"lon":7.983244,"lat":50.615691},{"name":"Schiller-Schule","id":"RP-30155","address":"Rathausstr. 131, 56203 Höhr-Grenzhausen","school_type":"Förderschule","school_type_entity":"Förderschule","legal_status":1,"fax":"(02624)954420","phone":"(02624)95440","website":"","email":"\tVerwaltung@Schiller-Schule-HG.de\t","state":"RP","programs":{"programs":[]},"full_time_school":true,"lon":7.657555,"lat":50.438212},{"name":"Berggarten-Schule","id":"RP-31824","address":"Schillerstr. 22, 56427 Siershahn","school_type":"Förderschule","school_type_entity":"Förderschule","legal_status":1,"fax":"(02623)970213","phone":"(02623)5524","website":"http://berggartenschule.bildung-rp.de","email":"\tberggartenschule@t-online.de\t","state":"RP","programs":{"programs":[]},"full_time_school":true,"lon":7.787579,"lat":50.486709},{"name":"Friedrich-Schweitzer-Schule","id":"RP-30172","address":"Königsberger Str., 56457 Westerburg","school_type":"Förderschule","school_type_entity":"Förderschule","legal_status":1,"fax":"(02663)943511","phone":"(02663)94350","website":"","email":"\tF-Schweitzer-Schule@t-online.de\t","state":"RP","programs":{"programs":[]},"full_time_school":true,"lon":7.9761022,"lat":50.559894},{"name":"Katharina-Kasper-Schule","id":"RP-30142","address":"Theodor-Heuss-Ring, 56422 Wirges","school_type":"Förderschule","school_type_entity":"Förderschule","legal_status":0,"fax":"(02602)81420","phone":"(02602)6340","website":"http://www.katharina-kasper-schule.de","email":"\tinfo@kkswirges.de\t","state":"RP","programs":{"programs":[]},"full_time_school":true,"lon":7.80385,"lat":50.470995},{"name":"Geschwister-Scholl-Schule","id":"RP-31001","address":"Elisabeth-Groß-Platz 1, 67547 Worms","school_type":"Förderschule","school_type_entity":"Förderschule","legal_status":1,"fax":"(06241)411932","phone":"(06241)88329","website":"http://foerderzentrum-worms.bildung-rp.de","email":"\tfoerderzentrum.worms@freenet.de\t","state":"RP","programs":{"programs":[]},"full_time_school":true,"lon":8.353683,"lat":49.611697},{"name":"Mauritius-Schule","id":"RP-30352","address":"Schulacker 12, 66482 Zweibrücken","school_type":"Förderschule","school_type_entity":"Förderschule","legal_status":0,"fax":"(06332)8707-22","phone":"(06332)8707-0","website":"http://www.mauritiusschule-zw.de","email":"\tkweber@mauritiusschule-zw.de\t","state":"RP","programs":{"programs":[]},"full_time_school":true,"lon":7.320326,"lat":49.237057},{"name":"Canadaschule","id":"RP-31434","address":"Canadastr. 25, 66482 Zweibrücken","school_type":"Förderschule","school_type_entity":"Förderschule","legal_status":1,"fax":"(06332)9701011","phone":"(06332)970100","website":"http://canadaschule.bildung-rp.de/","email":"\tcanadaschule@schule-zw.de\t","state":"RP","programs":{"programs":[]},"full_time_school":false,"lon":7.384098,"lat":49.246999},{"name":"Freie Waldorfschule","id":"RP-79048","address":"Julius-Bettinger-Str. 1, 67227 Frankenthal (Pfalz)","school_type":"Freie Waldorfschule","school_type_entity":"Freie Waldorfschule","legal_status":0,"fax":"(06233)40133","phone":"(06233)47047","website":"","email":"\tFWS.FT@T-online.de\t","state":"RP","programs":{"programs":[]},"full_time_school":true,"lon":8.353261,"lat":49.521899},{"name":"Freie Waldorfschule","id":"RP-79064","address":"Schulstr. 4, 67697 Otterberg","school_type":"Freie Waldorfschule","school_type_entity":"Freie Waldorfschule","legal_status":0,"fax":"(06301)793340","phone":"(06301)793350","website":"http://www.fws-otterberg.de","email":"\tinfo@fws-otterberg.de\t","state":"RP","programs":{"programs":[]},"full_time_school":true,"lon":7.761547,"lat":49.500916},{"name":"Freie Waldorfschule Finthen","id":"RP-79005","address":"Merkurweg 2, 55126 Mainz","school_type":"Freie Waldorfschule","school_type_entity":"Freie Waldorfschule","legal_status":0,"fax":"(06131)474335","phone":"(06131)472077","website":"","email":"\tfws.mainz@web.de\t","state":"RP","programs":{"programs":[]},"full_time_school":true,"lon":8.175143,"lat":49.994573},{"name":"Freie Goetheschule","id":"RP-79081","address":"Konrad-Adenauer-Straße 14 - 16, 67433 Neustadt an der Weinstraße","school_type":"Freie Waldorfschule","school_type_entity":"Freie Waldorfschule","legal_status":0,"fax":"(06321)5790410","phone":"(06321)5790409","website":"http://www.freie-goetheschule.de/","email":"\tinfo@freie-goetheschule.de\t","state":"RP","programs":{"programs":[]},"full_time_school":false,"lon":8.142379,"lat":49.353406},{"name":"Rudolf-Steiner-Schule Mittel-","id":"RP-79021","address":"Augustenthaler Str. 25, 56567 Neuwied","school_type":"Freie Waldorfschule","school_type_entity":"Freie Waldorfschule","legal_status":0,"fax":"(02631)964211","phone":"(02631)96420","website":"http://www.waldorfschule-neuwied.de#","email":"\twaldorfschule-neuwied@onlinehome.de\t","state":"RP","programs":{"programs":["Fairtrade Schools"]},"full_time_school":true,"lon":7.467718,"lat":50.466404},{"name":"Freie Waldorfschule Kastellaun","id":"RP-79078","address":"An der Molkerei 15, 56288 Kastellaun","school_type":"Freie Waldorfschule","school_type_entity":"Freie Waldorfschule","legal_status":0,"fax":"(06762)963849","phone":"(06762)963851","website":"http://www.fws-kastellaun.de/","email":"\tsekretariat@fws-kastellaun.de\t","state":"RP","programs":{"programs":[]},"full_time_school":false,"lon":7.449955,"lat":50.06583},{"name":"Freie Waldorfschule Diez","id":"RP-79034","address":"Wilhelm-von-Nassau-Str. 19, 65582 Diez","school_type":"Freie Waldorfschule","school_type_entity":"Freie Waldorfschule","legal_status":0,"fax":"(06432)800822","phone":"(06432)80080","website":"http://www.waldorfschule-diez.de","email":"\tinfo@waldorfschule-diez.de\t","state":"RP","programs":{"programs":[]},"full_time_school":true,"lon":8.005145,"lat":50.3755252},{"name":"Freie Waldorfschule Trier","id":"RP-79018","address":"Montessoriweg 7, 54296 Trier","school_type":"Freie Waldorfschule","school_type_entity":"Freie Waldorfschule","legal_status":0,"fax":"(0651)9930139","phone":"(0651)9930136","website":"http://www.waldorfschule-trier.de/","email":"\twaldorfschule-trier@t-online.de\t","state":"RP","programs":{"programs":[]},"full_time_school":true,"lon":6.647168,"lat":49.729486},{"name":"Grundschule Adenau","id":"RP-11725","address":"Schulstr., 53518 Adenau","school_type":"Grundschule","school_type_entity":"Grundschule","legal_status":1,"fax":"(02691)930306","phone":"(02691)546","website":"","email":"\tgsadenau@t-online.de\t","state":"RP","programs":{"programs":[]},"full_time_school":true,"lon":6.932542,"lat":50.382554},{"name":"Denntal Grundschule","id":"RP-11739","address":"Kesslinger Str. 8, 53506 Ahrbrück","school_type":"Grundschule","school_type_entity":"Grundschule","legal_status":1,"fax":"(02643)940123","phone":"(02643)6774","website":"","email":"\tgs-ahrbrueck@gmx.de\t","state":"RP","programs":{"programs":[]},"full_time_school":false,"lon":6.9725,"lat":50.4851},{"name":"Grundschule Altenahr","id":"RP-26883","address":"Schulstr. 5, 53505 Altenahr","school_type":"Grundschule","school_type_entity":"Grundschule","legal_status":1,"fax":"(02643)901657","phone":"(02643)901859","website":"","email":"\tGrundschule-Altenahr@t-online.de\t","state":"RP","programs":{"programs":[]},"full_time_school":false,"lon":6.988954,"lat":50.508332},{"name":"Margaretha-von-Arenberg-Schule","id":"RP-11863","address":"Eichenbacher Weg 36, 53533 Antweiler","school_type":"Grundschule","school_type_entity":"Grundschule","legal_status":1,"fax":"(02693)930017","phone":"(02693)930016","website":"","email":"\tmva-grundschule@gmx.de\t","state":"RP","programs":{"programs":[]},"full_time_school":false,"lon":6.825916,"lat":50.406871},{"name":"Lindenschule","id":"RP-11996","address":"Rheintalstr. 35-39, 53498 Bad Breisig","school_type":"Grundschule","school_type_entity":"Grundschule","legal_status":1,"fax":"(02633)95421","phone":"(02633)9467","website":"http://Lindenschule-gs.bildung-rp.de/","email":"\tinfo@lindenschule-breisig.de\t","state":"RP","programs":{"programs":[]},"full_time_school":true,"lon":7.295975,"lat":50.514882},{"name":"Grundschule Bad Neuenahr","id":"RP-12060","address":"Weststr. 27, 53474 Bad Neuenahr-Ahrweiler  Stadt","school_type":"Grundschule","school_type_entity":"Grundschule","legal_status":1,"fax":"(02641)203455","phone":"(02641)28359","website":"http://www.gsbadneuenahr.bildung-rp.de","email":"\tgs-bad-neuenahr@gmx.de\t","state":"RP","programs":{"programs":[]},"full_time_school":true,"lon":7.131912,"lat":50.544252},{"name":"Grundschule an der Landskrone","id":"RP-22062","address":"Vehner Weg 31, 53474 Bad Neuenahr-Ahrweiler  Stadt","school_type":"Grundschule","school_type_entity":"Grundschule","legal_status":1,"fax":"(02641)203878","phone":"(02641)25375","website":"http://www.gsanderlandskrone.bildung-rp.de","email":"\tgs-heimersheim@gmx.de\t","state":"RP","programs":{"programs":[]},"full_time_school":false,"lon":7.09501,"lat":50.5424},{"name":"Ganztagsgrundschule Ahrweiler","id":"RP-23880","address":"Blankartstr. 13, 53474 Bad Neuenahr-Ahrweiler  Stadt","school_type":"Grundschule","school_type_entity":"Grundschule","legal_status":1,"fax":"(02641)900894","phone":"(02641)3386","website":"http://aloisiusschule.de","email":"\tgs-ahrweiler@gmx.de\t","state":"RP","programs":{"programs":[]},"full_time_school":true,"lon":7.09501,"lat":50.5424},{"name":"Vischeltalschule","id":"RP-12237","address":"Ahrstr. 87, 53505 Berg","school_type":"Grundschule","school_type_entity":"Grundschule","legal_status":1,"fax":"(02643)1089","phone":"(02643)1089","website":"http://www.vischeltalschule.berg-aw.de","email":"\tinfo@vischeltalschule.berg-aw.de\t","state":"RP","programs":{"programs":[]},"full_time_school":false,"lon":6.936236,"lat":50.522565},{"name":"Leo-Stausberg-Schule","id":"RP-12630","address":"Quellenstr. 15, 56656 Brohl-Lützing","school_type":"Grundschule","school_type_entity":"Grundschule","legal_status":1,"fax":"(02633)440217","phone":"(02633)1581","website":"http://leo-stausberg-schule.de","email":"\tLeo-Stausberg-Schule@Bad-Breisig.de\t","state":"RP","programs":{"programs":[]},"full_time_school":false,"lon":7.327303,"lat":50.485977},{"name":"Grundschule Burgbrohl","id":"RP-26537","address":"Greimerstalweg 19, 56659 Burgbrohl","school_type":"Grundschule","school_type_entity":"Grundschule","legal_status":1,"fax":"(02636)3606","phone":"(02636)2056","website":"http://Grundschule-Burgbrohl.bei.t-online.de","email":"\tgs_burgbrohl@t-online.de\t","state":"RP","programs":{"programs":[]},"full_time_school":false,"lon":7.270293,"lat":50.456798},{"name":"Grundschule Dernau","id":"RP-26357","address":"Römerstr., 53507 Dernau","school_type":"Grundschule","school_type_entity":"Grundschule","legal_status":1,"fax":"(02643)902662","phone":"(02643)1551","website":"","email":"\tgs.dernau@t-online.de\t","state":"RP","programs":{"programs":[]},"full_time_school":false,"lon":7.046781,"lat":50.53537},{"name":"Grundschule Obere Grafschaft","id":"RP-21955","address":"Grünstr. 9, 53501 Grafschaft","school_type":"Grundschule","school_type_entity":"Grundschule","legal_status":1,"fax":"(02225)707606","phone":"(02225)10463","website":"http://www.Grundschule-Gelsdorf.de","email":"\tGrundschule-Gelsdorf@web.de\t","state":"RP","programs":{"programs":[]},"full_time_school":false,"lon":7.032312,"lat":50.584917},{"name":"Grundschule Leimersdorf","id":"RP-22482","address":"An der Arche 10, 53501 Grafschaft","school_type":"Grundschule","school_type_entity":"Grundschule","legal_status":1,"fax":"02641/208920","phone":"(02641)27336","website":"http://www.grundschule-leimersdorf.wg.am","email":"\tGrundschule-Leimersdorf@web.de\t","state":"RP","programs":{"programs":[]},"full_time_school":true,"lon":7.131921,"lat":50.585002},{"name":"Grundschule Grafschaft-Ringen","id":"RP-23126","address":"Im Kreuzerfeld 6, 53501 Grafschaft","school_type":"Grundschule","school_type_entity":"Grundschule","legal_status":1,"fax":"(02641)208917","phone":"(02641)28363","website":"http://gs-ringen.bildung-rp.de/","email":"\tGrundschule-Ringen@web.de\t","state":"RP","programs":{"programs":[]},"full_time_school":true,"lon":7.09043,"lat":50.571005},{"name":"Grundschule Kempenich","id":"RP-14476","address":"Hardtstr. 2, 56746 Kempenich","school_type":"Grundschule","school_type_entity":"Grundschule","legal_status":1,"fax":"(02655)941422","phone":"(02655)1595","website":"","email":"\thttp://gs_kempenich@t-online.de\t","state":"RP","programs":{"programs":[]},"full_time_school":false,"lon":7.118175,"lat":50.419187},{"name":"Grundschule am Maar","id":"RP-15933","address":"In der Hohl 16, 56651 Niederdürenbach","school_type":"Grundschule","school_type_entity":"Grundschule","legal_status":1,"fax":"(02636)800495","phone":"(02636)6305","website":"","email":"\tgs_niederdürenbach@t-online.de\t","state":"RP","programs":{"programs":[]},"full_time_school":false,"lon":7.178276,"lat":50.458756},{"name":"Grundschule Reifferscheid","id":"RP-16637","address":"Fuchshofener Str. 12, 53520 Reifferscheid","school_type":"Grundschule","school_type_entity":"Grundschule","legal_status":1,"fax":"02691/2644","phone":"(02691)2644","website":"http://www.grundschule-reifferscheid.de","email":"\tGS.Reifferscheid@hocheifel.de\t","state":"RP","programs":{"programs":[]},"full_time_school":false,"lon":6.87958,"lat":50.405683},{"name":"Grundschule Kripp","id":"RP-16667","address":"Pastor-Keller-Str. 9, 53424 Remagen","school_type":"Grundschule","school_type_entity":"Grundschule","legal_status":1,"fax":"(02642)993875","phone":"(02642)44328","website":"","email":"\tgskripp@googlemail.com\t","state":"RP","programs":{"programs":[]},"full_time_school":false,"lon":7.264705,"lat":50.559282},{"name":"Grundschule Oberwinter","id":"RP-24631","address":"Pfarrer-Sachsse-Str. 1, 53424 Remagen","school_type":"Grundschule","school_type_entity":"Grundschule","legal_status":1,"fax":"02228 - 912889","phone":"(02228)7124","website":"http://www.grundschule-oberwinter.de","email":"\tmail@gsoberwinter.de\t","state":"RP","programs":{"programs":[]},"full_time_school":false,"lon":7.209385,"lat":50.612822},{"name":"Grundschule St. Martin Remagen","id":"RP-24645","address":"Alte Str., 53424 Remagen","school_type":"Grundschule","school_type_entity":"Grundschule","legal_status":1,"fax":"(02642)905307","phone":"(02642)22370","website":"http://www.grundschule-remagen.de","email":"\tst.martin.remagen@t-online.de\t","state":"RP","programs":{"programs":[]},"full_time_school":true,"lon":7.2391744,"lat":50.5769913},{"name":"Regenbogenschule","id":"RP-16955","address":"Schulstr. 35, 53426 Schalkenbach","school_type":"Grundschule","school_type_entity":"Grundschule","legal_status":1,"fax":"(02646)914615","phone":"(02646)513","website":"http://www.grundschuleschalkenbach.de","email":"\tGS-Schalkenbach@gmx.de\t","state":"RP","programs":{"programs":[]},"full_time_school":false,"lon":7.143017,"lat":50.493592},{"name":"Regenbogenschule","id":"RP-17182","address":"Dreifaltigkeitsweg 37, 53489 Sinzig","school_type":"Grundschule","school_type_entity":"Grundschule","legal_status":1,"fax":"(02642)994517","phone":"(02642)994511","website":"http://www.regenbogenschule-sinzig.de","email":"\tinfo@regenbogensschule-sinzig.de\t","state":"RP","programs":{"programs":[]},"full_time_school":true,"lon":7.249932,"lat":50.547923},{"name":"Hellenbachschule","id":"RP-17196","address":"Lerchenweg 2, 53489 Sinzig","school_type":"Grundschule","school_type_entity":"Grundschule","legal_status":1,"fax":"(02642)981771","phone":"(02642)981770","website":"http://www.grundschule-sinzig-westum.de/","email":"\tHellenbachschule@t-online.de\t","state":"RP","programs":{"programs":[]},"full_time_school":false,"lon":7.228504,"lat":50.535973},{"name":"Grundschule Bad Bodendorf","id":"RP-21217","address":"Schulstr. 30, 53489 Sinzig","school_type":"Grundschule","school_type_entity":"Grundschule","legal_status":1,"fax":"(02642)993537","phone":"(02642)41780","website":"","email":"\tgrundschule@bad-bodendorf.de\t","state":"RP","programs":{"programs":[]},"full_time_school":false,"lon":7.222234,"lat":50.556869},{"name":"Grundschule Wassenach","id":"RP-18160","address":"Zehntgasse 16, 56653 Wassenach","school_type":"Grundschule","school_type_entity":"Grundschule","legal_status":1,"fax":"(02636)941532","phone":"(02636)1226","website":"","email":"\tgs_wassenach@t-online.de\t","state":"RP","programs":{"programs":[]},"full_time_school":false,"lon":7.280698,"lat":50.433919},{"name":"Grundschule Wehr","id":"RP-18173","address":"Kellerei 2, 56653 Wehr","school_type":"Grundschule","school_type_entity":"Grundschule","legal_status":1,"fax":"(02636)800616","phone":"(02636)7030","website":"http://www.grundschule-wehr.de","email":"\tgs_wehr@t-online.de\t","state":"RP","programs":{"programs":[]},"full_time_school":false,"lon":7.210235,"lat":50.421446},{"name":"Grundschule Weibern","id":"RP-18186","address":"Schulstr. 3, 56745 Weibern","school_type":"Grundschule","school_type_entity":"Grundschule","legal_status":1,"fax":"-","phone":"(02655)1313","website":"http://www.grundschule-weibern.de","email":"\tgs_weibern@t-online.de\t","state":"RP","programs":{"programs":[]},"full_time_school":false,"lon":7.14819,"lat":50.406486},{"name":"Herzog-Ludwig-Engelbert-Schule","id":"RP-18310","address":"Hauptstr. 42, 53520 Wershofen","school_type":"Grundschule","school_type_entity":"Grundschule","legal_status":1,"fax":"(02694)911874","phone":"(02694)1344","website":"","email":"\tGrundschule.Wershofen@T-Online.de\t","state":"RP","programs":{"programs":[]},"full_time_school":false,"lon":6.814079,"lat":50.444543},{"name":"Grundschule Hellertal","id":"RP-11802","address":"Hauptstr. 53, 57518 Alsdorf","school_type":"Grundschule","school_type_entity":"Grundschule","legal_status":1,"fax":"(02741)970991","phone":"(02741)23134","website":"","email":"\tHellertal-Grundschule@web.de\t","state":"RP","programs":{"programs":[]},"full_time_school":false,"lon":7.880889,"lat":50.778332},{"name":"Pestalozzi-Schule","id":"RP-14102","address":"Ziegelweg 4, 57610 Altenkirchen (Westerwald)","school_type":"Grundschule","school_type_entity":"Grundschule","legal_status":1,"fax":"(02681)989709","phone":"(02681)6136","website":"http://www.pestalozzi-ak.de","email":"\tinfo@pestalozzi-ak.de\t","state":"RP","programs":{"programs":[]},"full_time_school":true,"lon":7.638689,"lat":50.687937},{"name":"Erich-Kästner-Schule","id":"RP-14176","address":"Siegener Str. 26, 57610 Altenkirchen (Westerwald)","school_type":"Grundschule","school_type_entity":"Grundschule","legal_status":1,"fax":"(02681)6188","phone":"(02681)6148","website":"http://www.eks-altenkirchen.de","email":"\tkaestner.grundschuleak@t-online.de\t","state":"RP","programs":{"programs":[]},"full_time_school":false,"lon":7.650764,"lat":50.690079},{"name":"Freie Ev. Bekenntnisschule","id":"RP-26327","address":"Heinestr. 12, 57610 Altenkirchen (Westerwald)","school_type":"Grundschule","school_type_entity":"Grundschule","legal_status":0,"fax":"(02681)70009","phone":"(02681)3909","website":"http://Feba-AK.de","email":"\tVelten.Feba-Ak@t-online.de\t","state":"RP","programs":{"programs":[]},"full_time_school":false,"lon":7.645627,"lat":50.701699},{"name":"Martin-Luther-Schule","id":"RP-26134","address":"Martin-Luther-Str. 31, 57518 Betzdorf","school_type":"Grundschule","school_type_entity":"Grundschule","legal_status":1,"fax":"(02741)9107119","phone":"(02741)910710","website":"http://gsbetzdorf1.bildung-rp.de/","email":"\tgsbetzdorf1@gmx.de\t","state":"RP","programs":{"programs":[]},"full_time_school":false,"lon":7.867335,"lat":50.79372},{"name":"Christophorus-Schule","id":"RP-26147","address":"Johannes-Krell-Str. 17, 57518 Betzdorf","school_type":"Grundschule","school_type_entity":"Grundschule","legal_status":1,"fax":"(02741)9107314","phone":"(02741)910730","website":"http://www.cgs-betzdorf.de","email":"\tchristophorus.betzdorf@gmail.com\t","state":"RP","programs":{"programs":[]},"full_time_school":true,"lon":7.851153,"lat":50.790865},{"name":"Christophorus-Schule","id":"RP-13981","address":"Hauptstr. 134, 57587 Birken-Honigsessen","school_type":"Grundschule","school_type_entity":"Grundschule","legal_status":1,"fax":"(02742)969101","phone":"(02742)969100","website":"","email":"\tgs-christobiho@freenet.de\t","state":"RP","programs":{"programs":[]},"full_time_school":false,"lon":7.740693,"lat":50.821491},{"name":"Petrus-Canisius-Schule","id":"RP-21131","address":"Konrad-Adenauer-Str. 1, 57555 Brachbach","school_type":"Grundschule","school_type_entity":"Grundschule","legal_status":1,"fax":"(02745)930027","phone":"(02745)405","website":"www.grundschule-brachbach.de","email":"\tgs.brachbach@gmail.com\t","state":"RP","programs":{"programs":[]},"full_time_school":true,"lon":7.942675,"lat":50.819002},{"name":"Grundschule Daaden","id":"RP-12810","address":"Hachenburger Str. 3, 57567 Daaden","school_type":"Grundschule","school_type_entity":"Grundschule","legal_status":1,"fax":"(02743)4377","phone":"(02743)2288","website":"http://www.daadetal-grundschule.de","email":"\tinfo@daadetal-grundschule.de\t","state":"RP","programs":{"programs":[]},"full_time_school":false,"lon":7.966648,"lat":50.736703},{"name":"Grundschule Biersdorf","id":"RP-12824","address":"Friedhofstr. 6, 57567 Daaden","school_type":"Grundschule","school_type_entity":"Grundschule","legal_status":1,"fax":"(02743)4940","phone":"(02743)2239","website":"http://www.grundschule-biersdorf.de","email":"\tinfo@grundschule-biersdorf.de\t","state":"RP","programs":{"programs":[]},"full_time_school":false,"lon":7.95151,"lat":50.746955},{"name":"St. Martin-Schule","id":"RP-13078","address":"Jahnstr., 57578 Elkenroth","school_type":"Grundschule","school_type_entity":"Grundschule","legal_status":1,"fax":"(02747)915719","phone":"(02747)91570","website":"http://grundschule-elkenroth.bildung-rp.","email":"\tsankt-martin-grundschule@t-online.de\t","state":"RP","programs":{"programs":[]},"full_time_school":true,"lon":7.883638,"lat":50.731576},{"name":"Grundschule Etzbach","id":"RP-13201","address":"Wiesenstr. 21, 57539 Etzbach","school_type":"Grundschule","school_type_entity":"Grundschule","legal_status":1,"fax":"(02682)968399","phone":"(02682)573","website":"http://www.grundschule-etzbach.de","email":"\tinfo@grundschule-etzbach.de\t","state":"RP","programs":{"programs":[]},"full_time_school":false,"lon":7.688206,"lat":50.77554},{"name":"Grundschule Flammersfeld","id":"RP-13261","address":"Südstr. 1, 57632 Flammersfeld","school_type":"Grundschule","school_type_entity":"Grundschule","legal_status":1,"fax":"(02685)989657","phone":"(02685)466","website":"","email":"\tgs-flammersfeld@gmx.de\t","state":"RP","programs":{"programs":[]},"full_time_school":false,"lon":7.525166,"lat":50.645135},{"name":"Grundschule Friedewald","id":"RP-13364","address":"Kaiser-Ludwig-Str. 2, 57520 Friedewald","school_type":"Grundschule","school_type_entity":"Grundschule","legal_status":1,"fax":"(02743)932928","phone":"(02743)1250","website":"","email":"\tinfo@grundschule-friedewald.de\t","state":"RP","programs":{"programs":[]},"full_time_school":false,"lon":7.962245,"lat":50.710613},{"name":"St. Franziskus-Schule","id":"RP-26039","address":"Klosterstr. 7, 51598 Friesenhagen","school_type":"Grundschule","school_type_entity":"Grundschule","legal_status":1,"fax":"(02734)438474","phone":"(02734)7376","website":"","email":"\tGS.Friesenhagen@t-online.de\t","state":"RP","programs":{"programs":[]},"full_time_school":false,"lon":7.808991,"lat":50.905099},{"name":"Astrid-Lindgren-Schule","id":"RP-13408","address":"Schulstr., 57580 Gebhardshain","school_type":"Grundschule","school_type_entity":"Grundschule","legal_status":1,"fax":"(02747)7469","phone":"(02747)3550","website":"http://www.grundschule-gebhardshain.bildung-rp.de","email":"\tinfo@grundschule-gebhardshain.de\t","state":"RP","programs":{"programs":[]},"full_time_school":false,"lon":7.825726,"lat":50.745351},{"name":"Friedrich-W.-Raiffeisen-Schule","id":"RP-10435","address":"Martin-Luther-Str. 4, 57577 Hamm (Sieg)","school_type":"Grundschule","school_type_entity":"Grundschule","legal_status":1,"fax":"(02682)969661","phone":"(02682)969422","website":"http://www.grundschule-hamm.de","email":"\tgshamm@grundschule-hamm.de\t","state":"RP","programs":{"programs":[]},"full_time_school":true,"lon":7.671222,"lat":50.76206},{"name":"Grundschule Herdorf","id":"RP-13844","address":"Schneiderstr. 11, 57562 Herdorf","school_type":"Grundschule","school_type_entity":"Grundschule","legal_status":1,"fax":"(02744)6172","phone":"(02744)1693","website":"http://www.grundschule-herdorf.de","email":"\tGrundschule-Herdorf@t-online.de\t","state":"RP","programs":{"programs":[]},"full_time_school":true,"lon":7.958069,"lat":50.781841},{"name":"Glück auf!-Schule","id":"RP-14025","address":"Steinstr. 3, 56593 Horhausen (Westerwald)","school_type":"Grundschule","school_type_entity":"Grundschule","legal_status":1,"fax":"(02687)929185","phone":"(02687)929183","website":"http://www.grundschule-horhausen.de","email":"\tbender@grundschule-horhausen.de\t","state":"RP","programs":{"programs":[]},"full_time_school":true,"lon":7.524959,"lat":50.596117},{"name":"Barbaraschule","id":"RP-14428","address":"Knappenstr. 55a, 57581 Katzwinkel (Sieg)","school_type":"Grundschule","school_type_entity":"Grundschule","legal_status":1,"fax":"(02741)933902","phone":"(02741)8812","website":"","email":"\tgs-katzwinkel@gmx.de\t","state":"RP","programs":{"programs":[]},"full_time_school":false,"lon":7.822666,"lat":50.812678},{"name":"Michaelschule","id":"RP-14549","address":"Auf dem Molzberg 8, 57548 Kirchen (Sieg)","school_type":"Grundschule","school_type_entity":"Grundschule","legal_status":1,"fax":"(02741)931104","phone":"(02741)6604","website":"","email":"\tMichaelgrundschule@web.de\t","state":"RP","programs":{"programs":[]},"full_time_school":true,"lon":7.874023,"lat":50.803105},{"name":"Martin-Luther-Schule","id":"RP-21127","address":"Am Erlenwald 31, 57555 Mudersbach","school_type":"Grundschule","school_type_entity":"Grundschule","legal_status":1,"fax":"(0271)3829859","phone":"(0271)353768","website":"http://GSMudersbach.bildung-rp.de/","email":"\tgsmudersbach@t-online.de\t","state":"RP","programs":{"programs":[]},"full_time_school":true,"lon":7.96033,"lat":50.842096},{"name":"W.E. Ketteler-Schule","id":"RP-15950","address":"Rothenbergstr. 15, 57572 Niederfischbach","school_type":"Grundschule","school_type_entity":"Grundschule","legal_status":1,"fax":"(02734)6396","phone":"(02734)61258","website":"","email":"\tketteler-schule@freenet.de\t","state":"RP","programs":{"programs":[]},"full_time_school":true,"lon":7.878612,"lat":50.854271},{"name":"Schule Lahrer Herrlichkeit","id":"RP-16101","address":"Hauptstr. 10, 57641 Oberlahr","school_type":"Grundschule","school_type_entity":"Grundschule","legal_status":1,"fax":"(02685)987380","phone":"(02685)613","website":"http://www.grundschule-oberlahr.de","email":"\tgrundschule.oberlahr@gmx.de\t","state":"RP","programs":{"programs":[]},"full_time_school":false,"lon":7.516172,"lat":50.623171},{"name":"Maximilian-Kolbe-Schule","id":"RP-16998","address":"Schulstr. 36, 57584 Scheuerfeld","school_type":"Grundschule","school_type_entity":"Grundschule","legal_status":1,"fax":"(02741)971895","phone":"(02741)23638","website":"","email":"\tgs-scheuerfeld@gmx.de\t","state":"RP","programs":{"programs":[]},"full_time_school":false,"lon":7.84699,"lat":50.786384},{"name":"Grundschule Weitefeld","id":"RP-18263","address":"Schulstr. 3, 57586 Weitefeld","school_type":"Grundschule","school_type_entity":"Grundschule","legal_status":1,"fax":"(02743)932370","phone":"(02743)6310","website":"http://www.grundschule.weitefeld.de","email":"\tgrundschule@weitefeld.de\t","state":"RP","programs":{"programs":[]},"full_time_school":false,"lon":7.884851,"lat":50.698221},{"name":"Bürgerm.-Raiffeisen-Schule","id":"RP-10105","address":"Schulstr., 57635 Weyerbusch","school_type":"Grundschule","school_type_entity":"Grundschule","legal_status":1,"fax":"(02686)988217","phone":"(02686)295","website":"http://www.gs-weyerbusch.de","email":"\tgrundschule@gs-weyerbusch.de\t","state":"RP","programs":{"programs":[]},"full_time_school":true,"lon":7.550318,"lat":50.711513},{"name":"Franziskus-Grundschule","id":"RP-18443","address":"Schulstr. 12, 57537 Wissen","school_type":"Grundschule","school_type_entity":"Grundschule","legal_status":1,"fax":"(02742)4731","phone":"(02742)2921","website":"http://www.gs-wissen.bildung-rp.de","email":"\tinfo-gswissen@online.de\t","state":"RP","programs":{"programs":[]},"full_time_school":true,"lon":7.73467,"lat":50.779943},{"name":"Grundschule Albig","id":"RP-25006","address":"Ardennenstr. 20, 55234 Albig","school_type":"Grundschule","school_type_entity":"Grundschule","legal_status":1,"fax":"06731/908217","phone":"(06731)7558","website":"","email":"\tGS-Albig@web.de\t","state":"RP","programs":{"programs":[]},"full_time_school":false,"lon":8.123443,"lat":49.776495},{"name":"Grundschule am Sonnenberg","id":"RP-23954","address":"Schulstr. 10, 67577 Alsheim","school_type":"Grundschule","school_type_entity":"Grundschule","legal_status":1,"fax":"(06249)8056992","phone":"(06249)8056990","website":"http://www.grundschule-alsheim.de","email":"\tmail@grundschule-alsheim.de\t","state":"RP","programs":{"programs":[]},"full_time_school":true,"lon":8.33522,"lat":49.761363},{"name":"Albert-Schweitzer-Schule","id":"RP-20647","address":"Donnersbergstr. 32, 55232 Alzey","school_type":"Grundschule","school_type_entity":"Grundschule","legal_status":1,"fax":"(06731)992755","phone":"(06731)3193","website":"http://www.ass-alzey.de.vu","email":"\tgsassalzey@gmx.de\t","state":"RP","programs":{"programs":[]},"full_time_school":false,"lon":8.111593,"lat":49.740834},{"name":"Nibelungenschule","id":"RP-20886","address":"Nibelungenstr. 14, 55232 Alzey","school_type":"Grundschule","school_type_entity":"Grundschule","legal_status":1,"fax":"(06731)992722","phone":"(06731)3180","website":"http://www.nibelungenschule-alzey.de","email":"\tNibelungenschule.Alzey@web.de\t","state":"RP","programs":{"programs":[]},"full_time_school":true,"lon":8.119697,"lat":49.745817},{"name":"Private Grundschule St. Marien","id":"RP-21188","address":"Schulgässchen 7, 55232 Alzey","school_type":"Grundschule","school_type_entity":"Grundschule","legal_status":0,"fax":"(06731)999957","phone":"(06731)6749","website":"http://www.st.marien-schule-alzey.de","email":"\tst.marien-schule@t-online.de\t","state":"RP","programs":{"programs":[]},"full_time_school":false,"lon":8.112043,"lat":49.743963},{"name":"Grundschule Weinheim","id":"RP-25019","address":"Rathausstr. 36, 55232 Alzey","school_type":"Grundschule","school_type_entity":"Grundschule","legal_status":1,"fax":"(06731)996319","phone":"(06731)41994","website":"","email":"\tgrundschule-weinheim@web.de\t","state":"RP","programs":{"programs":[]},"full_time_school":false,"lon":8.063147,"lat":49.737588},{"name":"Wiesbachtalgrundschule Armshei","id":"RP-11893","address":"Keltenweg 15, 55288 Armsheim","school_type":"Grundschule","school_type_entity":"Grundschule","legal_status":1,"fax":"(06734) 960601","phone":"(06734)8728","website":"","email":"\tinfo@gs-armsheim.de\t","state":"RP","programs":{"programs":[]},"full_time_school":false,"lon":8.061187,"lat":49.812004},{"name":"Grundschule Bechtheim","id":"RP-12164","address":"Am Markt 7, 67595 Bechtheim","school_type":"Grundschule","school_type_entity":"Grundschule","legal_status":1,"fax":"(06242)990734","phone":"(06242)2407","website":"http://grundschule-bechtheim.de","email":"\tgrundschule-bechtheim@t-online.de\t","state":"RP","programs":{"programs":[]},"full_time_school":false,"lon":8.29534,"lat":49.727798},{"name":"Grundschule Bechtolsheim","id":"RP-12177","address":"Bahnhofstr.11, 55234 Bechtolsheim","school_type":"Grundschule","school_type_entity":"Grundschule","legal_status":1,"fax":"(06733)949725","phone":"(06733)6829","website":"http://gs-bechtolsheim.de","email":"\tbechtolsheim@t-online.de\t","state":"RP","programs":{"programs":[]},"full_time_school":false,"lon":8.1939,"lat":49.8042},{"name":"Von-Dalberg-Schule","id":"RP-12943","address":"Kämmerergasse 12, 67596 Dittelsheim-Heßloch","school_type":"Grundschule","school_type_entity":"Grundschule","legal_status":1,"fax":"(06244)907758","phone":"(06244)4510","website":"http://von-dalberg-schule.de","email":"\tdieter.gutzler@web.de\t","state":"RP","programs":{"programs":[]},"full_time_school":false,"lon":8.246285,"lat":49.743556},{"name":"Grundschule Eich","id":"RP-27051","address":"Schulstr. 2, 67575 Eich","school_type":"Grundschule","school_type_entity":"Grundschule","legal_status":1,"fax":"(06246)90679132","phone":"(06246)906790","website":"http://www.grundschule-eich.de","email":"\tgrundschule.eich@web.de\t","state":"RP","programs":{"programs":[]},"full_time_school":true,"lon":8.407615,"lat":49.747484},{"name":"Grundschule Erbes-Büdesheim","id":"RP-21432","address":"Nackerstr. 22, 55234 Erbes-Büdesheim","school_type":"Grundschule","school_type_entity":"Grundschule","legal_status":1,"fax":"(06731)999613","phone":"(06731)908321","website":"http://www.gs-eb.de","email":"\tgs-erbes-buedesheim@web.de\t","state":"RP","programs":{"programs":[]},"full_time_school":false,"lon":8.028658,"lat":49.754494},{"name":"Grundschule","id":"RP-10898","address":"Schulstr., 55234 Flomborn","school_type":"Grundschule","school_type_entity":"Grundschule","legal_status":1,"fax":"(06735)960166","phone":"(06735)411","website":"http://www.grundschule-flomborn.de","email":"\tinfo@grundschule-flomborn.de\t","state":"RP","programs":{"programs":[]},"full_time_school":true,"lon":8.155295,"lat":49.689835},{"name":"Grundschule Flonheim","id":"RP-10901","address":"Bahnhofstr. 5, 55237 Flonheim","school_type":"Grundschule","school_type_entity":"Grundschule","legal_status":1,"fax":"(06734)960636","phone":"(06734)475","website":"http://www.lernen-in-flonheim.de","email":"\tgsflonheim@t-online.de\t","state":"RP","programs":{"programs":[]},"full_time_school":true,"lon":8.039889,"lat":49.784328},{"name":"Grundschule St. Martin","id":"RP-11683","address":"Pestalozzistr. 5, 55599 Gau-Bickelheim","school_type":"Grundschule","school_type_entity":"Grundschule","legal_status":1,"fax":"06701/961979","phone":"(06701)2892","website":"","email":"\tgs-gaubickelheim@woellstein.de\t","state":"RP","programs":{"programs":[]},"full_time_school":false,"lon":8.015673,"lat":49.83784},{"name":"Grundschule Gau-Odernheim","id":"RP-10931","address":"Freiherr-vom-Stein-Str. 49, 55239 Gau-Odernheim","school_type":"Grundschule","school_type_entity":"Grundschule","legal_status":1,"fax":"(06733)929677","phone":"(06733)929676","website":"http://www.gs-go.de","email":"\tinfo@gs-go.de\t","state":"RP","programs":{"programs":[]},"full_time_school":true,"lon":8.186667,"lat":49.77983},{"name":"Prof. Jakob Muth Grundschule","id":"RP-23949","address":"Goethestr. 7, 67578 Gimbsheim","school_type":"Grundschule","school_type_entity":"Grundschule","legal_status":1,"fax":"-","phone":"(06249)5926","website":"http://www.gimbsheim.de","email":"\tgs-gimbsheim@web.de\t","state":"RP","programs":{"programs":[]},"full_time_school":false,"lon":8.374711,"lat":49.781183},{"name":"Grundschule Gundersheim","id":"RP-13618","address":"Am Schulberg 2, 67598 Gundersheim","school_type":"Grundschule","school_type_entity":"Grundschule","legal_status":1,"fax":"(06244)907759","phone":"(06244)5285","website":"http://www.grundschule-gundersheim.de","email":"\tgrundschule@gundersheim.de\t","state":"RP","programs":{"programs":[]},"full_time_school":false,"lon":8.201946,"lat":49.69447},{"name":"Grundschule Mauchenheim","id":"RP-22585","address":"Schulstr. 6, 67294 Mauchenheim","school_type":"Grundschule","school_type_entity":"Grundschule","legal_status":1,"fax":"(06352)7070116","phone":"(06352)4862","website":"","email":"\tgs-mauchenheim@gmx.de\t","state":"RP","programs":{"programs":[]},"full_time_school":false,"lon":8.043564,"lat":49.716097},{"name":"Grundschule Monsheim","id":"RP-15590","address":"Moltkestr. 5, 67590 Monsheim","school_type":"Grundschule","school_type_entity":"Grundschule","legal_status":1,"fax":"(06243) 905845","phone":"(06243)7533","website":"http://grundschule-monsheim.de","email":"\tGrundschule.Monsheim@web.de\t","state":"RP","programs":{"programs":[]},"full_time_school":true,"lon":8.211861,"lat":49.634411},{"name":"Grundschule am Engelsberg","id":"RP-16187","address":"Johann-Peter-Schneider-Str. 1, 67591 Offstein","school_type":"Grundschule","school_type_entity":"Grundschule","legal_status":1,"fax":"(06243)7185","phone":"(06243)7185","website":"","email":"\tGrundschule-Offstein@t-online.de\t","state":"RP","programs":{"programs":[]},"full_time_school":false,"lon":8.240715,"lat":49.608502},{"name":"Seebachschule","id":"RP-21114","address":"Memelstr. 2, 67574 Osthofen","school_type":"Grundschule","school_type_entity":"Grundschule","legal_status":1,"fax":"(06242)915965","phone":"(06242)3679","website":"http://www.seebachschule.de","email":"\tschulleitung@seebachschule.de\t","state":"RP","programs":{"programs":[]},"full_time_school":true,"lon":8.328488,"lat":49.707209},{"name":"Grundschule Partenheim","id":"RP-24991","address":"Am Sportplatz 2, 55288 Partenheim","school_type":"Grundschule","school_type_entity":"Grundschule","legal_status":1,"fax":"(06732)933348","phone":"(06732)7201","website":"","email":"\tinfo-gspartenheim@kabelmail.de\t","state":"RP","programs":{"programs":[]},"full_time_school":false,"lon":8.072249,"lat":49.883327},{"name":"Grundschule Saulheim","id":"RP-24988","address":"Kapellenberg 1, 55291 Saulheim","school_type":"Grundschule","school_type_entity":"Grundschule","legal_status":1,"fax":"06732/9384620","phone":"(06732)938460","website":"http://www.grundschule-saulheim.de","email":"\tinfo@gs-saulheim.de\t","state":"RP","programs":{"programs":[]},"full_time_school":true,"lon":8.147979,"lat":49.873131},{"name":"Grundschule Schornsheim","id":"RP-17062","address":"Goethestr. 1, 55288 Schornsheim","school_type":"Grundschule","school_type_entity":"Grundschule","legal_status":1,"fax":"(06732)9336907","phone":"(06732)3968","website":"http://gs-schornsheim.bildung-rp.de","email":"\tinfo@gs-schornsheim.de\t","state":"RP","programs":{"programs":[]},"full_time_school":false,"lon":8.169712,"lat":49.846828},{"name":"Grundschule Am Martinsberg","id":"RP-17166","address":"In der Heidenhecke 1, 55599 Siefersheim","school_type":"Grundschule","school_type_entity":"Grundschule","legal_status":1,"fax":"(06703)961148","phone":"(06703)1663","website":"http://www.gs-siefersheim.de","email":"\tgs-siefersheim@woellstein.de\t","state":"RP","programs":{"programs":[]},"full_time_school":false,"lon":7.961106,"lat":49.796866},{"name":"Grundschule Wallertheim","id":"RP-18126","address":"Schulstr. 6, 55578 Wallertheim","school_type":"Grundschule","school_type_entity":"Grundschule","legal_status":1,"fax":"(06732)960075","phone":"(06732)7594","website":"http://www.grundschule-wallertheim.homepage.t-online.de","email":"\tinfo@gs-wallertheim.de\t","state":"RP","programs":{"programs":[]},"full_time_school":false,"lon":8.047908,"lat":49.834525},{"name":"Grundschule Wöllstein","id":"RP-27065","address":"Eleonorenstr. 83, 55597 Wöllstein","school_type":"Grundschule","school_type_entity":"Grundschule","legal_status":1,"fax":"(06703)690","phone":"(06703)301425","website":"","email":"\tgs-woellstein@woellstein.de\t","state":"RP","programs":{"programs":[]},"full_time_school":true,"lon":7.950726,"lat":49.810114},{"name":"Neubornschule","id":"RP-24961","address":"Obere Schulstr. 16, 55286 Wörrstadt","school_type":"Grundschule","school_type_entity":"Grundschule","legal_status":1,"fax":"(06732)951426","phone":"(06732)7512","website":"http://neubornschule.de","email":"\tinfo@gs-woerrstadt.de\t","state":"RP","programs":{"programs":[]},"full_time_school":true,"lon":8.112177,"lat":49.840869},{"name":"Grundschule Altleiningen","id":"RP-25875","address":"Hauptstr.50, 67317 Altleiningen","school_type":"Grundschule","school_type_entity":"Grundschule","legal_status":1,"fax":"(06356)989941","phone":"(06356)8539","website":"","email":"\tgsaltleiningen@gmx.de\t","state":"RP","programs":{"programs":[]},"full_time_school":false,"lon":8.0733,"lat":49.5075},{"name":"Pestalozzischule","id":"RP-12001","address":"Schulplatz 7, 67098 Bad Dürkheim","school_type":"Grundschule","school_type_entity":"Grundschule","legal_status":1,"fax":"(06322)980686","phone":"(06322)980683","website":"http://www.pesta-gs.de","email":"\tpesta@pesta-gs.de\t","state":"RP","programs":{"programs":[]},"full_time_school":false,"lon":8.16629,"lat":49.460895},{"name":"Grundschule Grethen","id":"RP-12014","address":"Bürgermeister-Gropp-Str. 69, 67098 Bad Dürkheim","school_type":"Grundschule","school_type_entity":"Grundschule","legal_status":1,"fax":"(06322)793690","phone":"(06322)7414","website":"","email":"\tphilipp.gs-grethen@bad-duerkheim.de\t","state":"RP","programs":{"programs":[]},"full_time_school":false,"lon":8.143969,"lat":49.459086},{"name":"Valentin-Ostertag-Schule","id":"RP-21278","address":"Eduard-Jost-Str. 24, 67098 Bad Dürkheim","school_type":"Grundschule","school_type_entity":"Grundschule","legal_status":1,"fax":"(06322)4001","phone":"(06322) 980695","website":"http://Valentin-Ostertag-Schule.de","email":"\tvos@bad-duerkheim.de\t","state":"RP","programs":{"programs":[]},"full_time_school":true,"lon":8.159234,"lat":49.454783},{"name":"Salierschule","id":"RP-24751","address":"Wellsring 182, 67098 Bad Dürkheim","school_type":"Grundschule","school_type_entity":"Grundschule","legal_status":1,"fax":"(06322)989554","phone":"(06322)8142","website":"http://www.salierschule.de","email":"\tsalier@bad-duerkheim.de\t","state":"RP","programs":{"programs":[]},"full_time_school":true,"lon":8.185558,"lat":49.467944},{"name":"Jakob Böshenz-Schule","id":"RP-25888","address":"Pestalozzistr. 10, 67278 Bockenheim an der Weinstraße","school_type":"Grundschule","school_type_entity":"Grundschule","legal_status":1,"fax":"(06359)949844","phone":"(06359)4111","website":"http://gs-bockenheim.bildung-rp.de/","email":"\tgs.bockenheim@gmail.com\t","state":"RP","programs":{"programs":[]},"full_time_school":false,"lon":8.1849,"lat":49.6067},{"name":"Grundschule am Atzenberg","id":"RP-21758","address":"Lindenstr.45, 67316 Carlsberg","school_type":"Grundschule","school_type_entity":"Grundschule","legal_status":1,"fax":"(06356)989176","phone":"(06356)989175","website":"","email":"\tgrundschule@carlsberger.de\t","state":"RP","programs":{"programs":[]},"full_time_school":false,"lon":8.0417,"lat":49.5039},{"name":"Grundschule Deidesheim","id":"RP-12870","address":"Heumarktstr. 8, 67146 Deidesheim","school_type":"Grundschule","school_type_entity":"Grundschule","legal_status":1,"fax":"(06326) 982865","phone":"(06326) 8288","website":"http://www.grundschule-deidesheim.de","email":"\thttp://GS.Deidesheim@web.de\t","state":"RP","programs":{"programs":[]},"full_time_school":false,"lon":8.185934,"lat":49.407769},{"name":"Grundschule Dirmstein","id":"RP-25892","address":"Bahnhofstr. 7, 67246 Dirmstein","school_type":"Grundschule","school_type_entity":"Grundschule","legal_status":1,"fax":"06238 989541","phone":"(06238)2028","website":"","email":"\tgs-dirmstein@gmx.de\t","state":"RP","programs":{"programs":[]},"full_time_school":true,"lon":8.24921,"lat":49.565515},{"name":"Grundschule Ebertsheim","id":"RP-13021","address":"Rodenbacherstr. 4, 67280 Ebertsheim","school_type":"Grundschule","school_type_entity":"Grundschule","legal_status":1,"fax":"(06359)810487","phone":"(06359)3764","website":"http://GsEbertsheim.bildung-rp.de/","email":"\tgs-ebertsheim@gmx.de\t","state":"RP","programs":{"programs":[]},"full_time_school":false,"lon":8.108595,"lat":49.568536},{"name":"Grundschule Ellerstadt-","id":"RP-13081","address":"Bahnstr. 92, 67158 Ellerstadt","school_type":"Grundschule","school_type_entity":"Grundschule","legal_status":1,"fax":"(06237)403260","phone":"(06237)3180","website":"http://home.t-online.de/home/grundschule","email":"\tgrundschule-ellerstadt@t-online.de\t","state":"RP","programs":{"programs":[]},"full_time_school":false,"lon":8.265835,"lat":49.463612},{"name":"Heinrich-Weintz-Schule","id":"RP-26690","address":"Feldpfad 2, 67471 Elmstein","school_type":"Grundschule","school_type_entity":"Grundschule","legal_status":1,"fax":"(06328)989258","phone":"(06328)1500","website":"","email":"\tschule@elmstein.de\t","state":"RP","programs":{"programs":[]},"full_time_school":false,"lon":7.935941,"lat":49.350648},{"name":"Grundschule Esthal","id":"RP-13198","address":"Hauptstr. 63, 67472 Esthal","school_type":"Grundschule","school_type_entity":"Grundschule","legal_status":1,"fax":"(06325)184164","phone":"(06325)8674","website":"http://nachhaltigkeit.bildung-rp.de","email":"\tgrundschule-esthal@gmx.de\t","state":"RP","programs":{"programs":[]},"full_time_school":false,"lon":7.986471,"lat":49.377251},{"name":"Hermann-Sinsheimer-Grundschule","id":"RP-21938","address":"Haintorstr. 27, 67251 Freinsheim","school_type":"Grundschule","school_type_entity":"Grundschule","legal_status":1,"fax":"(06353)3661","phone":"(06353)4209","website":"http://www.hsg-freinsheim.bildung-rp.de","email":"\tgrundschule.freinsheim@t-online.de\t","state":"RP","programs":{"programs":[]},"full_time_school":false,"lon":8.209608,"lat":49.505565},{"name":"Grundschule I Grünstadt","id":"RP-14115","address":"Langgasse 74, 67269 Grünstadt","school_type":"Grundschule","school_type_entity":"Grundschule","legal_status":1,"fax":"(06359)808548","phone":"(06359)960242","website":"","email":"\tTHS-Gruenstadt@t-online.de\t","state":"RP","programs":{"programs":[]},"full_time_school":false,"lon":8.160473,"lat":49.581344},{"name":"Dekan-Ernst-Schule","id":"RP-14163","address":"Südring 7, 67269 Grünstadt","school_type":"Grundschule","school_type_entity":"Grundschule","legal_status":1,"fax":"(06359)937735","phone":"(06359)937730","website":"http://www.des.bildung-rp.de","email":"\tDekan-Ernst-Schule@t-online.de\t","state":"RP","programs":{"programs":[]},"full_time_school":true,"lon":8.167621,"lat":49.559269},{"name":"Grundschule III Grünstadt","id":"RP-26840","address":"Krummlandweg, 67269 Grünstadt","school_type":"Grundschule","school_type_entity":"Grundschule","legal_status":1,"fax":"(06359)209574","phone":"(06359)209573","website":"","email":"\tGS-Sausenheim@arcor.de\t","state":"RP","programs":{"programs":[]},"full_time_school":false,"lon":8.1535993,"lat":49.5505301},{"name":"Ernst-Reuter-Schule","id":"RP-10331","address":"Martin-Luther-Str. 25, 67454 Haßloch","school_type":"Grundschule","school_type_entity":"Grundschule","legal_status":1,"fax":"(06324)925125","phone":"(06324)92510","website":"http://www.ernst-reuter-schule.com","email":"\ternst-reuter-schule@hassloch.de\t","state":"RP","programs":{"programs":[]},"full_time_school":true,"lon":8.248367,"lat":49.359379},{"name":"Schillerschule","id":"RP-11319","address":"Schillerstr. 1a, 67454 Haßloch","school_type":"Grundschule","school_type_entity":"Grundschule","legal_status":1,"fax":"(06324)925225","phone":"(06324)92520","website":"http://www.schillerschule-hassloch.de/","email":"\tGS.Schillerschule.Hassloch@t-online.de\t","state":"RP","programs":{"programs":[]},"full_time_school":false,"lon":8.260346,"lat":49.361771},{"name":"Grundschule","id":"RP-27245","address":"Siemensstr. 2a, 67454 Haßloch","school_type":"Grundschule","school_type_entity":"Grundschule","legal_status":0,"fax":"06324-7080871","phone":"(06324-7080878","website":"http://www.maria-montessori-schule-hassloch.de/","email":"\tschulleitung@montessori-hassloch.de\t","state":"RP","programs":{"programs":[]},"full_time_school":true,"lon":8.237248,"lat":49.346497},{"name":"Luitpoldschule","id":"RP-22119","address":"Hauptstr. 27, 67310 Hettenleidelheim","school_type":"Grundschule","school_type_entity":"Grundschule","legal_status":1,"fax":"(06351)123614","phone":"(06351)8191","website":"http://www.grundschule-hettenleidelheim.de","email":"\tgs-hettenleidelheim@arcor.de\t","state":"RP","programs":{"programs":[]},"full_time_school":true,"lon":8.068549,"lat":49.535205},{"name":"Grundschule Kallstadt","id":"RP-26447","address":"Weinstr. 79, 67169 Kallstadt","school_type":"Grundschule","school_type_entity":"Grundschule","legal_status":1,"fax":"(06322)989699","phone":"(06322)1881","website":"http://www.gskallstadt.de","email":"\tgskallstadt@t-online.de\t","state":"RP","programs":{"programs":[]},"full_time_school":true,"lon":8.174012,"lat":49.49104},{"name":"Grundschule An der Pforte","id":"RP-25845","address":"Kleinkarlbacher Str. 2, 67281 Kirchheim an der Weinstraße","school_type":"Grundschule","school_type_entity":"Grundschule","legal_status":1,"fax":"(06359)924269","phone":"(06359)3650","website":"http://www.gs-kirchheim.de","email":"\tgskirchheim@gmx.de\t","state":"RP","programs":{"programs":[]},"full_time_school":false,"lon":8.179775,"lat":49.538129},{"name":"Grundschule Burgenländchen","id":"RP-25858","address":"Bachweg 7, 67271 Kleinkarlbach","school_type":"Grundschule","school_type_entity":"Grundschule","legal_status":1,"fax":"-","phone":"(06359)3135","website":"http://grundschule-burgenlaendchen.de","email":"\tschulleitung@grundschule-burgenlaendchen.de\t","state":"RP","programs":{"programs":[]},"full_time_school":false,"lon":8.155132,"lat":49.540868},{"name":"Grundschule Lambrecht","id":"RP-19674","address":"Schulstr. 7, 67466 Lambrecht (Pfalz)","school_type":"Grundschule","school_type_entity":"Grundschule","legal_status":1,"fax":"06325/980584","phone":"(06325)8227","website":"http://www.grundschule-lambrecht.de","email":"\tinfo@grundschule-lambrecht.de\t","state":"RP","programs":{"programs":[]},"full_time_school":false,"lon":8.071023,"lat":49.371901},