[{"address":"St. Piusstr. 23, 53474 Bad Neuenahr-Ahrweiler  Stadt","fax":"(02641)359492","full_time_school":true,"id":"RP-31327","lat":50.542244,"lon":7.117009,"name":"Don-Bosco-Schule","official_id":"31327","phone":"(02641)34778","school_type":"Förderschule","school_type_entity":"Förderschule","state":"RP"},{"address":"St. Pius-Str. 25, 53474 Bad Neuenahr-Ahrweiler  Stadt","fax":"(02641)900899","full_time_school":true,"id":"RP-31687","lat":50.542287,"lon":7.117605,"name":"Levana-Schule","official_id":"31687","phone":"(02641)36611","school_type":"Förderschule","school_type_entity":"Förderschule","state":"RP"},{"address":"Burgweg 6, 56659 Burgbrohl","fax":"(02636)929592","full_time_school":true,"id":"RP-30622","lat":50.456382,"lon":7.273487,"name":"Burgweg-Schule","official_id":"30622","phone":"(02636)929590","school_type":"Förderschule","school_type_entity":"Förderschule","state":"RP"},{"address":"Beethovenstr. 3, 53489 Sinzig","fax":"(02642)9790-22","full_time_school":true,"id":"RP-30605","lat":50.54674,"lon":7.254255,"name":"Janusz-Korczak-Schule","official_id":"30605","phone":"(02642)9790-0","school_type":"Förderschule","school_type_entity":"Förderschule","state":"RP"},{"address":"Maximilian-Kolbe-Str. 1, 57584 Scheuerfeld","fax":"(02741)971892","full_time_school":true,"id":"RP-31344","lat":50.786605,"lon":7.84653,"name":"Maximilian-Kolbe-Schule","official_id":"31344","phone":"(02741)22391","school_type":"Förderschule","school_type_entity":"Förderschule","state":"RP"},{"address":"Holschbacher Str. 87, 57537 Wissen","fax":"(02742) 911245","full_time_school":true,"id":"RP-31224","lat":50.788676,"lon":7.720588,"name":"Förderschule am Alserberg","official_id":"31224","phone":"(02742)3642","school_type":"Förderschule","school_type_entity":"Förderschule","state":"RP"},{"address":"Böhmer-Str. 14, 57537 Wissen","fax":"(02742)910704","full_time_school":true,"id":"RP-31357","lat":50.778096,"lon":7.734543,"name":"Wilhelm-Busch-Schule","official_id":"31357","phone":"(02742)910703","school_type":"Förderschule","school_type_entity":"Förderschule","state":"RP"},{"address":"Kirchenplatz 6a, 55232 Alzey","fax":"(06731) 9909519","full_time_school":true,"id":"RP-31270","lat":49.743913,"lon":8.113122,"name":"Löwenschule Alzey","official_id":"31270","phone":"(06731)990950","school_type":"Förderschule","school_type_entity":"Förderschule","state":"RP"},{"address":"Dr.-Georg-Durst-Str. 30, 55232 Alzey","fax":"06731/943341","full_time_school":true,"id":"RP-31447","lat":49.740377,"lon":8.120824,"name":"Volkerschule","official_id":"31447","phone":"(06731)7168","school_type":"Förderschule","school_type_entity":"Förderschule","state":"RP"},{"address":"Heinrich-Heine-Str. 13, 67574 Osthofen","fax":"(06242)990910","full_time_school":true,"id":"RP-31673","lat":49.700112,"lon":8.321824,"name":"Wonnegauschule","official_id":"31673","phone":"(06242)7997","school_type":"Förderschule","school_type_entity":"Förderschule","state":"RP"},{"address":"Schloßmühle, 67317 Altleiningen","fax":"(06356)963625","full_time_school":true,"id":"RP-30289","lat":49.511269,"lon":8.084908,"name":"Heimschule St. Rafael","official_id":"30289","phone":"(06356)963670","school_type":"Förderschule","school_type_entity":"Förderschule","state":"RP"},{"address":"Sägmühle 4, 67098 Bad Dürkheim","fax":"(06322)938292","full_time_school":true,"id":"RP-30335","lat":49.468377,"lon":8.178914,"name":"Siegmund-Crämer-Schule","official_id":"30335","phone":"(06322)938290","school_type":"Förderschule","school_type_entity":"Förderschule","state":"RP"},{"address":"Friedelsheimerstr. 18, 67098 Bad Dürkheim","fax":"(06322)947299","full_time_school":true,"id":"RP-31014","lat":49.456025,"lon":8.175489,"name":"Limburgschule","official_id":"31014","phone":"(06322)947272","school_type":"Förderschule","school_type_entity":"Förderschule","state":"RP"},{"address":"Westring 62, 67269 Grünstadt","fax":"(06359)92217","full_time_school":true,"id":"RP-30515","lat":49.566171,"lon":8.158989,"name":"Hans-Zulliger-Schule","official_id":"30515","phone":"(06359)2777","school_type":"Förderschule","school_type_entity":"Förderschule","state":"RP"},{"address":"Jahnstr. 2, 67269 Grünstadt","fax":"(06359)968415","full_time_school":true,"id":"RP-31464","lat":49.572089,"lon":8.163568,"name":"Käthe-Kollwitz-Schule","official_id":"31464","phone":"(06359)96840","school_type":"Förderschule","school_type_entity":"Förderschule","state":"RP"},{"address":"Meckenheimer Str. 10, 67454 Haßloch","fax":"(06324)82336","full_time_school":true,"id":"RP-31027","lat":49.37298,"lon":8.253695,"name":"Gottlieb-Wenz-Schule","official_id":"31027","phone":"(06324)2121","school_type":"Förderschule","school_type_entity":"Förderschule","state":"RP"},{"address":"Waldemarstr. 26, 55543 Bad Kreuznach","fax":"(0671)6053552","full_time_school":true,"id":"RP-30109","lat":49.836574,"lon":7.866296,"name":"Bethesda Schule","official_id":"30109","phone":"(0671)6053352","school_type":"Förderschule","school_type_entity":"Förderschule","state":"RP"},{"address":"Ellerbachstr. 17, 55545 Bad Kreuznach","fax":"(0671)29844528","full_time_school":true,"id":"RP-30649","lat":49.846238,"lon":7.842974,"name":"Schule am Ellerbach","official_id":"30649","phone":"(0671)2984450","school_type":"Förderschule","school_type_entity":"Förderschule","state":"RP"},{"address":"Ellerbachstr., 55545 Bad Kreuznach","fax":"(0671)4832266","full_time_school":true,"id":"RP-31690","lat":49.8467122,"lon":7.844548,"name":"Don-Bosco-Schule","official_id":"31690","phone":"(0671)32211","school_type":"Förderschule","school_type_entity":"Förderschule","state":"RP"},{"address":"Berliner Platz 1, 55606 Kirn","fax":"(06752)963228","full_time_school":true,"id":"RP-30652","lat":49.784875,"lon":7.476871,"name":"Wilhelm-Dröscher-Schule","official_id":"30652","phone":"(06752)2046","school_type":"Förderschule","school_type_entity":"Förderschule","state":"RP"},{"address":"Talweg 16, 55590 Meisenheim","fax":"(06753)10299","full_time_school":true,"id":"RP-30082","lat":49.697204,"lon":7.665068,"name":"Bodelschwingh Schule","official_id":"30082","phone":"(06753)10298","school_type":"Förderschule","school_type_entity":"Förderschule","state":"RP"},{"address":"Schulstr. 2, 55596 Schloßböckelheim","fax":"(06758)804350","full_time_school":true,"id":"RP-30665","lat":49.815093,"lon":7.719029,"name":"Burgschule","official_id":"30665","phone":"(06758)1345","school_type":"Förderschule","school_type_entity":"Förderschule","state":"RP"},{"address":"In der Bornwiese, 54470 Bernkastel-Kues","fax":"(06531)94720","full_time_school":true,"id":"RP-30889","lat":49.91611,"lon":7.06944,"name":"Burg-Landshut-Schule","official_id":"30889","phone":"(06531)3939","school_type":"Förderschule","school_type_entity":"Förderschule","state":"RP"},{"address":"Am Rosenberg 32, 54470 Bernkastel-Kues","fax":"(06531)9719219","full_time_school":true,"id":"RP-31627","lat":49.919732,"lon":7.05819,"name":"Rosenberg-Schule","official_id":"31627","phone":"(06531)9719210","school_type":"Förderschule","school_type_entity":"Förderschule","state":"RP"},{"address":"Maiweg 140, 56841 Traben-Trarbach","fax":"(06541)816731","full_time_school":true,"id":"RP-31210","lat":49.971313,"lon":7.101418,"name":"Martin-Luther-King-Schule","official_id":"31210","phone":"(06541)816730","school_type":"Förderschule","school_type_entity":"Förderschule","state":"RP"},{"address":"Franziskusstr., 54516 Wittlich","fax":"(06571)695300","full_time_school":true,"id":"RP-30305","lat":49.98694,"lon":6.88972,"name":"Maria-Grünewald-Schule","official_id":"30305","phone":"(06571)695302","school_type":"Förderschule","school_type_entity":"Förderschule","state":"RP"},{"address":"Petrusstr. 28, 54516 Wittlich","fax":"(06571)915720","full_time_school":true,"id":"RP-30893","lat":49.975154,"lon":6.932112,"name":"Liesertal-Schule","official_id":"30893","phone":"(06571)91570","school_type":"Förderschule","school_type_entity":"Förderschule","state":"RP"},{"address":"Brechkaul, 55765 Birkenfeld","fax":"(06782)988221","full_time_school":true,"id":"RP-30683","lat":49.646273,"lon":7.173579,"name":"Förderschule","official_id":"30683","phone":"(06782)2188","school_type":"Förderschule","school_type_entity":"Förderschule","state":"RP"},{"address":"Auf Weißborr 15, 55743 Idar-Oberstein","fax":"(06781)450362","full_time_school":true,"id":"RP-30395","lat":49.720512,"lon":7.320909,"name":"Peter-Caesar-Schule","official_id":"30395","phone":"(06781)27842","school_type":"Förderschule","school_type_entity":"Förderschule","state":"RP"},{"address":"Auf der Bein 7, 55743 Idar-Oberstein","fax":"(06784)981289","full_time_school":true,"id":"RP-31360","lat":49.718755,"lon":7.389442,"name":"Förderschule","official_id":"31360","phone":"(06784)8915","school_type":"Förderschule","school_type_entity":"Förderschule","state":"RP"},{"address":"Auf der Bein 7, 55743 Idar-Oberstein","fax":"(06784)981289","full_time_school":true,"id":"RP-31870","lat":49.718755,"lon":7.389442,"name":"Förderschule","official_id":"31870","phone":"(06784)2372","school_type":"Förderschule","school_type_entity":"Förderschule","state":"RP"},{"address":"Hauptstr., 56812 Dohr","fax":"(02671)987150","full_time_school":true,"id":"RP-30382","lat":50.1307399,"lon":7.1225976,"name":"Astrid-Lindgren-Schule","official_id":"30382","phone":"02671/987110","school_type":"Förderschule","school_type_entity":"Förderschule","state":"RP"},{"address":"St. Martin-Str. 33, 56761 Düngenheim","fax":"(02653)598281","full_time_school":true,"id":"RP-31704","lat":50.265403,"lon":7.153014,"name":"St. Martin-Heimschule","official_id":"31704","phone":"(02653)598190","school_type":"Förderschule","school_type_entity":"Förderschule","state":"RP"},{"address":"Im Haag, 56759 Kaisersesch","fax":"(02653)7682","full_time_school":false,"id":"RP-30709","lat":50.2328441,"lon":7.1398609,"name":"Pommerbachschule","official_id":"30709","phone":"(02653)6631","school_type":"Förderschule","school_type_entity":"Förderschule","state":"RP"},{"address":"Dannenfelser Str. 29, 67292 Kirchheimbolanden","fax":"(06352)740235","full_time_school":true,"id":"RP-31030","lat":49.65991,"lon":8.011729,"name":"Mathilde-Hitzfeld-Schule","official_id":"31030","phone":"(06352)1262","school_type":"Förderschule","school_type_entity":"Förderschule","state":"RP"},{"address":"Schillerhain, 67292 Kirchheimbolanden","fax":"(06352)408114","full_time_school":true,"id":"RP-31747","lat":49.661027,"lon":8.004284,"name":"Herman-Nohl-Schule","official_id":"31747","phone":"(06352)408112","school_type":"Förderschule","school_type_entity":"Förderschule","state":"RP"},{"address":"Mühlackerweg 25a, 67806 Rockenhausen","fax":"(06361)994870","full_time_school":true,"id":"RP-31057","lat":49.624818,"lon":7.822076,"name":"Förderschule","official_id":"31057","phone":"(06361)5562","school_type":"Förderschule","school_type_entity":"Förderschule","state":"RP"},{"address":"Kölner Str. 14, 54634 Bitburg","fax":"(06561)961420","full_time_school":true,"id":"RP-30469","lat":49.978015,"lon":6.525014,"name":"St. Martin-Schule","official_id":"30469","phone":"(06561)96140","school_type":"Förderschule","school_type_entity":"Förderschule","state":"RP"},{"address":"Nansenstr. 25, 54634 Bitburg","fax":"(06561)94478-18","full_time_school":true,"id":"RP-31390","lat":49.976171,"lon":6.539476,"name":"Maximin-Schule","official_id":"31390","phone":"(06561)94478-0","school_type":"Förderschule","school_type_entity":"Förderschule","state":"RP"},{"address":"Kolpingstr. 30, 54595 Prüm","fax":"(06551)9516-40","full_time_school":true,"id":"RP-31927","lat":50.20517,"lon":6.412804,"name":"Astrid-Lindgren-Schule","official_id":"31927","phone":"(06551)9516-0","school_type":"Förderschule","school_type_entity":"Förderschule","state":"RP"},{"address":"Holzhofstr. 21, 67227 Frankenthal (Pfalz)","fax":"(06233)4909200","full_time_school":true,"id":"RP-30019","lat":49.53156,"lon":8.35673,"name":"Augustin-Violet-Schule","official_id":"30019","phone":"(06233)49090","school_type":"Förderschule","school_type_entity":"Förderschule","state":"RP"},{"address":"Wormser Str. 59, 67227 Frankenthal (Pfalz)","fax":"06233 220443","full_time_school":true,"id":"RP-30948","lat":49.540529,"lon":8.353486,"name":"Albert-Schweitzer-Schule","official_id":"30948","phone":"(06233)220439","school_type":"Förderschule","school_type_entity":"Förderschule","state":"RP"},{"address":"Neumayerring 1, 67227 Frankenthal (Pfalz)","fax":"(06233)298485","full_time_school":true,"id":"RP-31644","lat":49.531416,"lon":8.353693,"name":"Tom-Mutters-Schule","official_id":"31644","phone":"(06233)298484","school_type":"Förderschule","school_type_entity":"Förderschule","state":"RP"},{"address":"Neumayerring 7, 67227 Frankenthal (Pfalz)","fax":"(06233)239206","full_time_school":true,"id":"RP-31810","lat":49.531935,"lon":8.352058,"name":"Neumayer-Schule","official_id":"31810","phone":"(06233)21070","school_type":"Förderschule","school_type_entity":"Förderschule","state":"RP"},{"address":"Am Römerweg 2a, 76726 Germersheim","fax":"(07274)3096","full_time_school":true,"id":"RP-31943","lat":49.21667,"lon":8.36667,"name":"Nardini-/Bienwald Schule","official_id":"31943","phone":"(07274)3095","school_type":"Förderschule","school_type_entity":"Förderschule","state":"RP"},{"address":"Schulstr. 16, 76761 Rülzheim","fax":"(07272)919050","full_time_school":true,"id":"RP-31600","lat":49.148742,"lon":8.287198,"name":"Förderschule","official_id":"31600","phone":"(07272)6413","school_type":"Förderschule","school_type_entity":"Förderschule","state":"RP"},{"address":"Velmannstr. 13, 67657 Kaiserslautern","fax":"(0631)3402553","full_time_school":true,"id":"RP-30485","lat":49.438329,"lon":7.814437,"name":"Schule am Beilstein","official_id":"30485","phone":"(0631)3402552","school_type":"Förderschule","school_type_entity":"Förderschule","state":"RP"},{"address":"Erfurter Str. 68 - 70, 67663 Kaiserslautern","fax":"(0631)3505824","full_time_school":true,"id":"RP-31417","lat":49.430368,"lon":7.728154,"name":"Fritz-Walter-Schule","official_id":"31417","phone":"(0631)3505823","school_type":"Förderschule","school_type_entity":"Förderschule","state":"RP"},{"address":"Neukircher Str. 4, 67677 Enkenbach-Alsenborn","fax":"(06303)983445","full_time_school":true,"id":"RP-31480","lat":49.488065,"lon":7.894983,"name":"Hans-Zulliger-Schule","official_id":"31480","phone":"(06303)983443","school_type":"Förderschule","school_type_entity":"Förderschule","state":"RP"},{"address":"Am Rothenborn, 66849 Landstuhl  Sickingenstadt","fax":"(06371)934280","full_time_school":true,"id":"RP-30575","lat":49.41476,"lon":7.58046,"name":"Förderschule","official_id":"30575","phone":"(06371)934263","school_type":"Förderschule","school_type_entity":"Förderschule","state":"RP"},{"address":"Neugasse 2, 66849 Landstuhl  Sickingenstadt","fax":"(06371)6181613","full_time_school":true,"id":"RP-31087","lat":49.41476,"lon":7.58046,"name":"Jakob-Weber-Schule","official_id":"31087","phone":"(06371)618160","school_type":"Förderschule","school_type_entity":"Förderschule","state":"RP"},{"address":"Lehrhohl 44, 56077 Koblenz","fax":"(0261)79858","full_time_school":true,"id":"RP-30409","lat":50.346214,"lon":7.615849,"name":"Schule am Bienhorntal","official_id":"30409","phone":"(0261)79851","school_type":"Förderschule","school_type_entity":"Förderschule","state":"RP"},{"address":"Brenderweg 23, 56070 Koblenz","fax":"(0261)  96 35 81 13","full_time_school":true,"id":"RP-30593","lat":50.367531,"lon":7.597288,"name":"Hans-Zulliger-Schule","official_id":"30593","phone":"(0261) 96 35 810","school_type":"Förderschule","school_type_entity":"Förderschule","state":"RP"},{"address":"Kastorpfaffenstr. 9-11, 56068 Koblenz","fax":"0261-91469055","full_time_school":true,"id":"RP-31300","lat":50.360512,"lon":7.602032,"name":"Diesterweg-Schule","official_id":"31300","phone":"(0261)34160","school_type":"Förderschule","school_type_entity":"Förderschule","state":"RP"},{"address":"Hollerstr. 4, 66869 Kusel","fax":"06381 42864222","full_time_school":true,"id":"RP-30532","lat":49.536838,"lon":7.412117,"name":"Jakob-Muth-Schule","official_id":"30532","phone":"(06381)42864200","school_type":"Förderschule","school_type_entity":"Förderschule","state":"RP"},{"address":"Hollerstr. 2, 66869 Kusel","fax":"(06381)42864-111","full_time_school":true,"id":"RP-31090","lat":49.536583,"lon":7.411297,"name":"Jakob-Muth-Schule","official_id":"31090","phone":"(06381)42864-100","school_type":"Förderschule","school_type_entity":"Förderschule","state":"RP"},{"address":"Schulstr. 14, 67742 Lauterecken","fax":"(06382)993723","full_time_school":false,"id":"RP-31720","lat":49.651706,"lon":7.593628,"name":"Janusz-Korczak-Schule","official_id":"31720","phone":"(06382)993689","school_type":"Förderschule","school_type_entity":"Förderschule","state":"RP"},{"address":"Queichheimer Hauptstr. 231, 76829 Landau in der Pfalz","fax":"(06341)9844303","full_time_school":true,"id":"RP-30095","lat":49.197092,"lon":8.154251,"name":"Jakob-Reeb-Schule","official_id":"30095","phone":"(06341)9841300","school_type":"Förderschule","school_type_entity":"Förderschule","state":"RP"},{"address":"Queichheimer Hauptstr. 235, 76829 Landau in der Pfalz","fax":"(06341)599463","full_time_school":true,"id":"RP-30562","lat":49.19694,"lon":8.155826,"name":"St. Paulusstift","official_id":"30562","phone":"(06341)599441","school_type":"Förderschule","school_type_entity":"Förderschule","state":"RP"},{"address":"Nordring 4, 76829 Landau in der Pfalz","fax":"(06341)898005","full_time_school":true,"id":"RP-30953","lat":49.200655,"lon":8.109119,"name":"Nordringschule","official_id":"30953","phone":"(06341)83102","school_type":"Förderschule","school_type_entity":"Förderschule","state":"RP"},{"address":"Münchener Str. 11, 76829 Landau in der Pfalz","fax":"(06341)5 59 00 20","full_time_school":true,"id":"RP-31807","lat":49.204963,"lon":8.142138,"name":"Paul-Moor-Schule","official_id":"31807","phone":"(06341)50324","school_type":"Förderschule","school_type_entity":"Förderschule","state":"RP"},{"address":"Rheinhorststr. 34/36, 67071 Ludwigshafen am Rhein","fax":"(0621)504401298","full_time_school":true,"id":"RP-30052","lat":49.503295,"lon":8.37157,"name":"Georgens-Schule","official_id":"30052","phone":"(0621)504401210","school_type":"Förderschule","school_type_entity":"Förderschule","state":"RP"},{"address":"Rheingönheimer Str. 103, 67065 Ludwigshafen am Rhein","fax":"(0621)504423997","full_time_school":false,"id":"RP-31540","lat":49.459235,"lon":8.427233,"name":"Schillerschule","official_id":"31540","phone":"(0621)504423920","school_type":"Förderschule","school_type_entity":"Förderschule","state":"RP"},{"address":"Schnabelbrunnengasse 41, 67071 Ludwigshafen am Rhein","fax":"(0621)504401798","full_time_school":true,"id":"RP-31554","lat":49.492878,"lon":8.378555,"name":"Schloss-Schule","official_id":"31554","phone":"(0621)504401710","school_type":"Förderschule","school_type_entity":"Förderschule","state":"RP"},{"address":"Krummlachstr. 10, 67059 Ludwigshafen am Rhein","fax":"(0621)504420797","full_time_school":true,"id":"RP-31583","lat":49.47506,"lon":8.419006,"name":"Schule an der Blies","official_id":"31583","phone":"(0621)504420720","school_type":"Förderschule","school_type_entity":"Förderschule","state":"RP"},{"address":"Karl-Lochner-Str. 8, 67071 Ludwigshafen am Rhein","fax":"(0621)67005170","full_time_school":true,"id":"RP-31793","lat":49.485476,"lon":8.362874,"name":"Förderschule","official_id":"31793","phone":"(0621)67005171","school_type":"Förderschule","school_type_entity":"Förderschule","state":"RP"},{"address":"An der Bruchspitze 50, 55122 Mainz","fax":"(06131)324734","full_time_school":true,"id":"RP-30245","lat":50.005734,"lon":8.232295,"name":"Peter-Jordan-Schule","official_id":"30245","phone":"(06131)324732","school_type":"Förderschule","school_type_entity":"Förderschule","state":"RP"},{"address":"Generaloberst-Beck-Str. 1, 55129 Mainz","fax":"(06131)53966","full_time_school":true,"id":"RP-30979","lat":49.976554,"lon":8.264675,"name":"Windmühlenschule","official_id":"30979","phone":"(06131)53966","school_type":"Förderschule","school_type_entity":"Förderschule","state":"RP"},{"address":"John F. Kennedy-Str. 5-7, 55122 Mainz","fax":"(06131)324728","full_time_school":true,"id":"RP-31717","lat":50.001667,"lon":8.24831,"name":"Astrid-Lindgren-Schule","official_id":"31717","phone":"(06131)324726","school_type":"Förderschule","school_type_entity":"Förderschule","state":"RP"},{"address":"Burgstr. 17, 55411 Bingen am Rhein","fax":"(06721)4087831","full_time_school":true,"id":"RP-31134","lat":49.951847,"lon":7.908751,"name":"Rhein-Nahe-Schule","official_id":"31134","phone":"(06721)408780","school_type":"Förderschule","school_type_entity":"Förderschule","state":"RP"},{"address":"Talstr. 153, 55218 Ingelheim am Rhein","fax":"(06132)4354711","full_time_school":true,"id":"RP-31147","lat":49.986862,"lon":8.023674,"name":"Albert-Schweitzer-Schule","official_id":"31147","phone":"(06132)4354710","school_type":"Förderschule","school_type_entity":"Förderschule","state":"RP"},{"address":"Oppenheimer Str. 69, 55268 Nieder-Olm","fax":"(06136)924365","full_time_school":true,"id":"RP-31150","lat":49.901972,"lon":8.201051,"name":"Selztalschule","official_id":"31150","phone":"(06136)2395","school_type":"Förderschule","school_type_entity":"Förderschule","state":"RP"},{"address":"Maria-Montessori-Str. 2, 55268 Nieder-Olm","fax":"(06136)758920","full_time_school":true,"id":"RP-31314","lat":49.902521,"lon":8.194667,"name":"Förderschule","official_id":"31314","phone":"(06136)75890","school_type":"Förderschule","school_type_entity":"Förderschule","state":"RP"},{"address":"Am Stadtbad 24, 55276 Oppenheim","fax":"(06133)924320","full_time_school":true,"id":"RP-31164","lat":49.851577,"lon":8.366808,"name":"Landskronschule","official_id":"31164","phone":"(06133)92430","school_type":"Förderschule","school_type_entity":"Förderschule","state":"RP"},{"address":"Stettiner Str. 3, 55576 Sprendlingen","fax":"(06701)2007520","full_time_school":true,"id":"RP-30559","lat":49.861384,"lon":7.99531,"name":"Elisabethen-Schule","official_id":"30559","phone":"(06701)200750","school_type":"Förderschule","school_type_entity":"Förderschule","state":"RP"},{"address":"Taubentränke, 56626 Andernach","fax":"(02632)987470-20","full_time_school":true,"id":"RP-30725","lat":50.426439,"lon":7.409582,"name":"Elisabethschule","official_id":"30725","phone":"(02632)987470-0","school_type":"Förderschule","school_type_entity":"Förderschule","state":"RP"},{"address":"Engerser Str. 33, 56170 Bendorf","fax":"(02622)904989","full_time_school":true,"id":"RP-30768","lat":50.421,"lon":7.57002,"name":"Theodor-Heuss-Schule","official_id":"30768","phone":"(02622)904980","school_type":"Förderschule","school_type_entity":"Förderschule","state":"RP"},{"address":"Ochtendunger Str. 26, 56220 Kettig","fax":"(02637)940236","full_time_school":true,"id":"RP-30773","lat":50.390677,"lon":7.456647,"name":"Anne-Frank-Schule","official_id":"30773","phone":"(02637)940234","school_type":"Förderschule","school_type_entity":"Förderschule","state":"RP"},{"address":"Genovevastr. 48, 56727 Mayen","fax":"(02651)900514","full_time_school":true,"id":"RP-30439","lat":50.323826,"lon":7.221681,"name":"Genoveva-Schule","official_id":"30439","phone":"(02651)900513","school_type":"Förderschule","school_type_entity":"Förderschule","state":"RP"},{"address":"St.-Veit-Str. 3, 56727 Mayen","fax":"(02651)900517","full_time_school":false,"id":"RP-30742","lat":50.327426,"lon":7.225417,"name":"Elisabeth-Schule","official_id":"30742","phone":"(02651)900516","school_type":"Förderschule","school_type_entity":"Förderschule","state":"RP"},{"address":"Polcher Str., 56727 Mayen","fax":"(02651)8008-88","full_time_school":true,"id":"RP-31900","lat":50.320725,"lon":7.231088,"name":"Schule im Bernardshof","official_id":"31900","phone":"02651)8008-80/81","school_type":"Förderschule","school_type_entity":"Förderschule","state":"RP"},{"address":"Markstr. 62, 56332 Niederfell","fax":"(02607)69200","full_time_school":true,"id":"RP-30322","lat":50.285528,"lon":7.458622,"name":"Herz-Jesu-Haus Kühr","official_id":"30322","phone":"(02607)69176","school_type":"Förderschule","school_type_entity":"Förderschule","state":"RP"},{"address":"Ackerstr. 2-4, 56751 Polch","fax":"(02654)88177520","full_time_school":true,"id":"RP-30755","lat":50.302977,"lon":7.306471,"name":"Stephanus-Schule","official_id":"30755","phone":"(02654)8817750","school_type":"Förderschule","school_type_entity":"Förderschule","state":"RP"},{"address":"Wiesenstr. 17, 67433 Neustadt an der Weinstraße","fax":"(06321)921842","full_time_school":true,"id":"RP-30983","lat":49.35,"lon":8.15,"name":"Schubert-Schule","official_id":"30983","phone":"(06321)921841","school_type":"Förderschule","school_type_entity":"Förderschule","state":"RP"},{"address":"Laurentiusstraße 1, 53567 Asbach","fax":"(02683)94050-20","full_time_school":true,"id":"RP-30786","lat":50.666736,"lon":7.422558,"name":"Albert-Schweitzer-Schule","official_id":"30786","phone":"(02683-940500","school_type":"Förderschule","school_type_entity":"Förderschule","state":"RP"},{"address":"Feldkircher Str. 100, 56567 Neuwied","fax":"(02631)970180","full_time_school":true,"id":"RP-30185","lat":50.454266,"lon":7.434007,"name":"Landesschule für Blinde und","official_id":"30185","phone":"(02631)970-0","school_type":"Förderschule","school_type_entity":"Förderschule","state":"RP"},{"address":"Elisabethstr. 48, 56564 Neuwied","fax":"(02631)3426-150","full_time_school":true,"id":"RP-30199","lat":50.423841,"lon":7.471375,"name":"Landesschule für Gehörlose und","official_id":"30199","phone":"(02631)3426-0","school_type":"Förderschule","school_type_entity":"Förderschule","state":"RP"},{"address":"Heimstr. 42, 56566 Neuwied","fax":"40137","full_time_school":false,"id":"RP-30229","lat":50.473274,"lon":7.50538,"name":"Paul-Schneider-Schule","official_id":"30229","phone":"(02631)40130-35","school_type":"Förderschule","school_type_entity":"Förderschule","state":"RP"},{"address":"Neuwieder Str. 21b, 56566 Neuwied","fax":"(02622)705125","full_time_school":true,"id":"RP-30379","lat":50.424821,"lon":7.539907,"name":"Christiane-Herzog-Schule","official_id":"30379","phone":"(02622)705-153","school_type":"Förderschule","school_type_entity":"Förderschule","state":"RP"},{"address":"Orffstr. 37, 56566 Neuwied","fax":"(02622)3055","full_time_school":true,"id":"RP-30442","lat":50.430407,"lon":7.542933,"name":"Carl-Orff-Schule","official_id":"30442","phone":"(02622)3244","school_type":"Förderschule","school_type_entity":"Förderschule","state":"RP"},{"address":"Beverwijker Ring 5, 56564 Neuwied","fax":"(02631)54766","full_time_school":true,"id":"RP-30802","lat":50.448257,"lon":7.474941,"name":"Kinzing-Schule","official_id":"30802","phone":"(02631)96600","school_type":"Förderschule","school_type_entity":"Förderschule","state":"RP"},{"address":"Schillerstr. 43, 56567 Neuwied","fax":"(02631)9757020","full_time_school":true,"id":"RP-31194","lat":50.447853,"lon":7.423946,"name":"Brüder-Grimm-Schule","official_id":"31194","phone":"(02631)975700","school_type":"Förderschule","school_type_entity":"Förderschule","state":"RP"},{"address":"Schulstr. 2, 56316 Raubach","fax":"(02684)9506016","full_time_school":true,"id":"RP-30815","lat":50.562626,"lon":7.586127,"name":"Gustav-W.-Heinemann-Schule","official_id":"30815","phone":"(02684)950600","school_type":"Förderschule","school_type_entity":"Förderschule","state":"RP"},{"address":"Arienhellerstr. 43, 56598 Rheinbrohl","fax":"(02635)911037","full_time_school":true,"id":"RP-30799","lat":50.503991,"lon":7.327579,"name":"Maximilian-Kolbe-Schule","official_id":"30799","phone":"(02635)911030","school_type":"Förderschule","school_type_entity":"Förderschule","state":"RP"},{"address":"Heinrich-Kimmle-Weg 4, 66953 Pirmasens","fax":"(06331)228688","full_time_school":true,"id":"RP-30498","lat":49.210007,"lon":7.609359,"name":"Pirminiusschule","official_id":"30498","phone":"(06331)64605","school_type":"Förderschule","school_type_entity":"Förderschule","state":"RP"},{"address":"Winzler Str. 36/40, 66955 Pirmasens","fax":"06331-240520","full_time_school":true,"id":"RP-31420","lat":49.196239,"lon":7.602323,"name":"Matzenbergschule","official_id":"31420","phone":"(06331)24050","school_type":"Förderschule","school_type_entity":"Förderschule","state":"RP"},{"address":"Buchenauerstr., 56154 Boppard","fax":"(06742)8015923","full_time_school":true,"id":"RP-31374","lat":50.2131863,"lon":7.6086435,"name":"Helene-Pagés-Schule","official_id":"31374","phone":"(06742)801590","school_type":"Förderschule","school_type_entity":"Förderschule","state":"RP"},{"address":"Theodor-Heuss-Str. 8, 56288 Kastellaun","fax":"(06762) 401 401","full_time_school":true,"id":"RP-30455","lat":50.069919,"lon":7.450621,"name":"Theodor-Heuss-Schule","official_id":"30455","phone":"(06762)8551","school_type":"Förderschule","school_type_entity":"Förderschule","state":"RP"},{"address":"Herzog-Reichard-Str. 9, 55469 Simmern/ Hunsrück","fax":"(06761)91618-13","full_time_school":true,"id":"RP-30845","lat":49.983383,"lon":7.516244,"name":"Hunsrückschule","official_id":"30845","phone":"(06761)91618-0","school_type":"Förderschule","school_type_entity":"Förderschule","state":"RP"},{"address":"Gymnasialstr. 8, 56112 Lahnstein","fax":"(02621)921720","full_time_school":true,"id":"RP-30858","lat":50.303047,"lon":7.606974,"name":"Freiherr-vom-Stein-Schule","official_id":"30858","phone":"(02621)92170","school_type":"Förderschule","school_type_entity":"Förderschule","state":"RP"},{"address":"Schulstr. 18, 56355 Nastätten","fax":"(06772)953415","full_time_school":true,"id":"RP-30863","lat":50.197028,"lon":7.859453,"name":"Taunusschule","official_id":"30863","phone":"(06772)1707","school_type":"Förderschule","school_type_entity":"Förderschule","state":"RP"},{"address":"Erich Kästner-Str. 5, 56379 Singhofen","fax":"(02604)943715","full_time_school":true,"id":"RP-31780","lat":50.276558,"lon":7.832303,"name":"Erich Kästner-Schule","official_id":"31780","phone":"(02604)9437-0","school_type":"Förderschule","school_type_entity":"Förderschule","state":"RP"},{"address":"Erich-Kästner-Str. 7, 56379 Singhofen","fax":"(02604)9437-19","full_time_school":true,"id":"RP-31853","lat":50.276528,"lon":7.832289,"name":"Oranienschule","official_id":"31853","phone":"(02604)9437-12","school_type":"Förderschule","school_type_entity":"Förderschule","state":"RP"},{"address":"Jägerstr. 18, 67105 Schifferstadt","fax":"06235/490484","full_time_school":true,"id":"RP-31120","lat":49.377737,"lon":8.377859,"name":"Salierschule","official_id":"31120","phone":"06235/49049","school_type":"Förderschule","school_type_entity":"Förderschule","state":"RP"},{"address":"Kardinal-Wendel-Str. 9, 67346 Speyer","fax":"(06232)539986","full_time_school":true,"id":"RP-30049","lat":49.30472,"lon":8.434642,"name":"Johann-Heinrich-Pestalozzi","official_id":"30049","phone":"(06232)539985","school_type":"Förderschule","school_type_entity":"Förderschule","state":"RP"},{"address":"Im Erlich 67 A, 67346 Speyer","fax":"06232/635374","full_time_school":true,"id":"RP-30996","lat":49.328988,"lon":8.412989,"name":"Schule im Erlich","official_id":"30996","phone":"(06232)635372","school_type":"Förderschule","school_type_entity":"Förderschule","state":"RP"},{"address":"Herrenteich 2, 76855 Annweiler am Trifels","fax":"(06346)965118","full_time_school":true,"id":"RP-31117","lat":49.203706,"lon":7.97475,"name":"Staufer-Schulzentrum","official_id":"31117","phone":"(06346)965120","school_type":"Förderschule","school_type_entity":"Förderschule","state":"RP"},{"address":"Zeppelinstr. 55, 76887 Bad Bergzabern","fax":"(06343)938520","full_time_school":true,"id":"RP-31510","lat":49.104007,"lon":7.996343,"name":"Altenbergschule","official_id":"31510","phone":"(06343)8176","school_type":"Förderschule","school_type_entity":"Förderschule","state":"RP"},{"address":"Bussereaustr. 21, 76863 Herxheim bei Landau/ Pfalz","fax":"(07276)970103","full_time_school":true,"id":"RP-30065","lat":49.149928,"lon":8.21855,"name":"St. Laurentius-Schule","official_id":"30065","phone":"(07276)970140","school_type":"Förderschule","school_type_entity":"Förderschule","state":"RP"},{"address":"Schöndorfer Str. 2, 54292 Trier","fax":"(0651)140451","full_time_school":false,"id":"RP-30139","lat":49.761081,"lon":6.650991,"name":"Privatschule St. Josef","official_id":"30139","phone":"(0651)28421","school_type":"Förderschule","school_type_entity":"Förderschule","state":"RP"},{"address":"Am Trimmelter Hof 201, 54296 Trier","fax":"(0651)9103534","full_time_school":true,"id":"RP-30202","lat":49.739139,"lon":6.691777,"name":"Wilhelm-Hubert-Cüppers-Schule","official_id":"30202","phone":"(0651)910350","school_type":"Förderschule","school_type_entity":"Förderschule","state":"RP"},{"address":"Engelstr. 20, 54292 Trier","fax":"0651-26392","full_time_school":true,"id":"RP-31630","lat":49.761593,"lon":6.644439,"name":"Porta-Nigra-Schule","official_id":"31630","phone":"(0651)28011","school_type":"Förderschule","school_type_entity":"Förderschule","state":"RP"},{"address":"Trevererstr. 42, 54295 Trier","fax":"(0651)9930490","full_time_school":true,"id":"RP-31777","lat":49.733734,"lon":6.647032,"name":"Treverer-Schule","official_id":"31777","phone":"(0651)32850","school_type":"Förderschule","school_type_entity":"Förderschule","state":"RP"},{"address":"Medardstr. 2, 54294 Trier","fax":"(0651)993796820","full_time_school":true,"id":"RP-31930","lat":49.738158,"lon":6.629798,"name":"Medard-Schule Trier","official_id":"31930","phone":"(0651)993796810","school_type":"Förderschule","school_type_entity":"Förderschule","state":"RP"},{"address":"Schulstr. 1, 54421 Reinsfeld","fax":"(06503)994493","full_time_school":true,"id":"RP-30922","lat":49.677578,"lon":6.873642,"name":"St. Martinus-Schule","official_id":"30922","phone":"(06503)7606","school_type":"Förderschule","school_type_entity":"Förderschule","state":"RP"},{"address":"Bernhard-Becker-Str. 6, 54338 Schweich","fax":"06502/995 401","full_time_school":true,"id":"RP-30472","lat":49.819777,"lon":6.747899,"name":"Levana-Schule","official_id":"30472","phone":"(06502)930920","school_type":"Förderschule","school_type_entity":"Förderschule","state":"RP"},{"address":"Isseler Str. 37, 54338 Schweich","fax":"(06502)9109522","full_time_school":true,"id":"RP-30876","lat":49.822362,"lon":6.749759,"name":"Meulenwald-Schule","official_id":"30876","phone":"(06502)910950","school_type":"Förderschule","school_type_entity":"Förderschule","state":"RP"},{"address":"Puricellistr. 1, 54298 Welschbillig","fax":"(06506)899109","full_time_school":true,"id":"RP-31914","lat":49.857259,"lon":6.545013,"name":"Valdocco-Schule","official_id":"31914","phone":"(06506)899116","school_type":"Förderschule","school_type_entity":"Förderschule","state":"RP"},{"address":"Rosenbergerstr. 130 a, 54459 Wiltingen","fax":"06501-601761","full_time_school":true,"id":"RP-31404","lat":49.65889,"lon":6.59,"name":"Don Bosco-Schule","official_id":"31404","phone":"(06501)16432","school_type":"Förderschule","school_type_entity":"Förderschule","state":"RP"},{"address":"Schulstr. 5, 54550 Daun","fax":"(06592)985393","full_time_school":true,"id":"RP-30905","lat":50.194323,"lon":6.825404,"name":"St. Laurentius-Schule","official_id":"30905","phone":"(06592)980113","school_type":"Förderschule","school_type_entity":"Förderschule","state":"RP"},{"address":"Waldstr. 17, 54568 Gerolstein","fax":"(06591)985187","full_time_school":true,"id":"RP-31897","lat":50.217001,"lon":6.661972,"name":"Hubertus-Rader-Förderzentrum","official_id":"31897","phone":"(06591)4177","school_type":"Förderschule","school_type_entity":"Förderschule","state":"RP"},{"address":"Erlenweg 4a, 56470 Bad Marienberg (Westerwald)","fax":"(02661)910890","full_time_school":true,"id":"RP-30829","lat":50.658405,"lon":7.956172,"name":"Michael-Ende-Schule","official_id":"30829","phone":"(02661)91080","school_type":"Förderschule","school_type_entity":"Förderschule","state":"RP"},{"address":"Leipziger Str. 10, 57627 Hachenburg","fax":"(02662)939373","full_time_school":true,"id":"RP-30832","lat":50.661182,"lon":7.828757,"name":"Burggarten-Schule","official_id":"30832","phone":"(02662)7771","school_type":"Förderschule","school_type_entity":"Förderschule","state":"RP"},{"address":"Lohmühle 2a, 57627 Hachenburg","fax":"(02662)942231","full_time_school":true,"id":"RP-31867","lat":50.656883,"lon":7.82148,"name":"Schule am Rothenberg","official_id":"31867","phone":"(02662)939457","school_type":"Förderschule","school_type_entity":"Förderschule","state":"RP"},{"address":"Zehntgrafstr. 14, 56462 Höhn","fax":"(02661)988340","full_time_school":true,"id":"RP-31837","lat":50.615691,"lon":7.983244,"name":"Wilhelm-Albrecht-Schule Höhn","official_id":"31837","phone":"(02661)98830","school_type":"Förderschule","school_type_entity":"Förderschule","state":"RP"},{"address":"Rathausstr. 131, 56203 Höhr-Grenzhausen","fax":"(02624)954420","full_time_school":true,"id":"RP-30155","lat":50.438212,"lon":7.657555,"name":"Schiller-Schule","official_id":"30155","phone":"(02624)95440","school_type":"Förderschule","school_type_entity":"Förderschule","state":"RP"},{"address":"Schillerstr. 22, 56427 Siershahn","fax":"(02623)970213","full_time_school":true,"id":"RP-31824","lat":50.486709,"lon":7.787579,"name":"Berggarten-Schule","official_id":"31824","phone":"(02623)5524","school_type":"Förderschule","school_type_entity":"Förderschule","state":"RP"},{"address":"Königsberger Str., 56457 Westerburg","fax":"(02663)943511","full_time_school":true,"id":"RP-30172","lat":50.559894,"lon":7.9761022,"name":"Friedrich-Schweitzer-Schule","official_id":"30172","phone":"(02663)94350","school_type":"Förderschule","school_type_entity":"Förderschule","state":"RP"},{"address":"Theodor-Heuss-Ring, 56422 Wirges","fax":"(02602)81420","full_time_school":true,"id":"RP-30142","lat":50.470995,"lon":7.80385,"name":"Katharina-Kasper-Schule","official_id":"30142","phone":"(02602)6340","school_type":"Förderschule","school_type_entity":"Förderschule","state":"RP"},{"address":"Elisabeth-Groß-Platz 1, 67547 Worms","fax":"(06241)411932","full_time_school":true,"id":"RP-31001","lat":49.611697,"lon":8.353683,"name":"Geschwister-Scholl-Schule","official_id":"31001","phone":"(06241)88329","school_type":"Förderschule","school_type_entity":"Förderschule","state":"RP"},{"address":"Schulacker 12, 66482 Zweibrücken","fax":"(06332)8707-22","full_time_school":true,"id":"RP-30352","lat":49.237057,"lon":7.320326,"name":"Mauritius-Schule","official_id":"30352","phone":"(06332)8707-0","school_type":"Förderschule","school_type_entity":"Förderschule","state":"RP"},{"address":"Canadastr. 25, 66482 Zweibrücken","fax":"(06332)9701011","full_time_school":false,"id":"RP-31434","lat":49.246999,"lon":7.384098,"name":"Canadaschule","official_id":"31434","phone":"(06332)970100","school_type":"Förderschule","school_type_entity":"Förderschule","state":"RP"},{"address":"Julius-Bettinger-Str. 1, 67227 Frankenthal (Pfalz)","fax":"(06233)40133","full_time_school":true,"id":"RP-79048","lat":49.521899,"lon":8.353261,"name":"Freie Waldorfschule","official_id":"79048","phone":"(06233)47047","school_type":"Freie Waldorfschule","school_type_entity":"Waldorfschule","state":"RP"},{"address":"Schulstr. 4, 67697 Otterberg","fax":"(06301)793340","full_time_school":true,"id":"RP-79064","lat":49.500916,"lon":7.761547,"name":"Freie Waldorfschule","official_id":"79064","phone":"(06301)793350","school_type":"Freie Waldorfschule","school_type_entity":"Waldorfschule","state":"RP"},{"address":"Merkurweg 2, 55126 Mainz","fax":"(06131)474335","full_time_school":true,"id":"RP-79005","lat":49.994573,"lon":8.175143,"name":"Freie Waldorfschule Finthen","official_id":"79005","phone":"(06131)472077","school_type":"Freie Waldorfschule","school_type_entity":"Waldorfschule","state":"RP"},{"address":"Konrad-Adenauer-Straße 14 - 16, 67433 Neustadt an der Weinstraße","fax":"(06321)5790410","full_time_school":false,"id":"RP-79081","lat":49.353406,"lon":8.142379,"name":"Freie Goetheschule","official_id":"79081","phone":"(06321)5790409","school_type":"Freie Waldorfschule","school_type_entity":"Waldorfschule","state":"RP"},{"address":"Augustenthaler Str. 25, 56567 Neuwied","fax":"(02631)964211","full_time_school":true,"id":"RP-79021","lat":50.466404,"lon":7.467718,"name":"Rudolf-Steiner-Schule Mittel-","official_id":"79021","phone":"(02631)96420","school_type":"Freie Waldorfschule","school_type_entity":"Waldorfschule","state":"RP"},{"address":"An der Molkerei 15, 56288 Kastellaun","fax":"(06762)963849","full_time_school":false,"id":"RP-79078","lat":50.06583,"lon":7.449955,"name":"Freie Waldorfschule Kastellaun","official_id":"79078","phone":"(06762)963851","school_type":"Freie Waldorfschule","school_type_entity":"Waldorfschule","state":"RP"},{"address":"Wilhelm-von-Nassau-Str. 19, 65582 Diez","fax":"(06432)800822","full_time_school":true,"id":"RP-79034","lat":50.3755252,"lon":8.005145,"name":"Freie Waldorfschule Diez","official_id":"79034","phone":"(06432)80080","school_type":"Freie Waldorfschule","school_type_entity":"Waldorfschule","state":"RP"},{"address":"Montessoriweg 7, 54296 Trier","fax":"(0651)9930139","full_time_school":true,"id":"RP-79018","lat":49.729486,"lon":6.647168,"name":"Freie Waldorfschule Trier","official_id":"79018","phone":"(0651)9930136","school_type":"Freie Waldorfschule","school_type_entity":"Waldorfschule","state":"RP"},{"address":"Schulstr., 53518 Adenau","fax":"(02691)930306","full_time_school":true,"id":"RP-11725","lat":50.382554,"lon":6.932542,"name":"Grundschule Adenau","official_id":"11725","phone":"(02691)546","school_type":"Grundschule","school_type_entity":"Grundschule","state":"RP"},{"address":"Kesslinger Str. 8, 53506 Ahrbrück","fax":"(02643)940123","full_time_school":false,"id":"RP-11739","lat":50.4825,"lon":6.98917,"name":"Denntal Grundschule","official_id":"11739","phone":"(02643)6774","school_type":"Grundschule","school_type_entity":"Grundschule","state":"RP"},{"address":"Schulstr. 5, 53505 Altenahr","fax":"(02643)901657","full_time_school":false,"id":"RP-26883","lat":50.508332,"lon":6.988954,"name":"Grundschule Altenahr","official_id":"26883","phone":"(02643)901859","school_type":"Grundschule","school_type_entity":"Grundschule","state":"RP"},{"address":"Eichenbacher Weg 36, 53533 Antweiler","fax":"(02693)930017","full_time_school":false,"id":"RP-11863","lat":50.406871,"lon":6.825916,"name":"Margaretha-von-Arenberg-Schule","official_id":"11863","phone":"(02693)930016","school_type":"Grundschule","school_type_entity":"Grundschule","state":"RP"},{"address":"Rheintalstr. 35-39, 53498 Bad Breisig","fax":"(02633)95421","full_time_school":true,"id":"RP-11996","lat":50.514882,"lon":7.295975,"name":"Lindenschule","official_id":"11996","phone":"(02633)9467","school_type":"Grundschule","school_type_entity":"Grundschule","state":"RP"},{"address":"Weststr. 27, 53474 Bad Neuenahr-Ahrweiler  Stadt","fax":"(02641)203455","full_time_school":true,"id":"RP-12060","lat":50.544252,"lon":7.131912,"name":"Grundschule Bad Neuenahr","official_id":"12060","phone":"(02641)28359","school_type":"Grundschule","school_type_entity":"Grundschule","state":"RP"},{"address":"Vehner Weg 31, 53474 Bad Neuenahr-Ahrweiler  Stadt","fax":"(02641)203878","full_time_school":false,"id":"RP-22062","lat":50.5424,"lon":7.09501,"name":"Grundschule an der Landskrone","official_id":"22062","phone":"(02641)25375","school_type":"Grundschule","school_type_entity":"Grundschule","state":"RP"},{"address":"Blankartstr. 13, 53474 Bad Neuenahr-Ahrweiler  Stadt","fax":"(02641)900894","full_time_school":true,"id":"RP-23880","lat":50.5424,"lon":7.09501,"name":"Ganztagsgrundschule Ahrweiler","official_id":"23880","phone":"(02641)3386","school_type":"Grundschule","school_type_entity":"Grundschule","state":"RP"},{"address":"Ahrstr. 87, 53505 Berg","fax":"(02643)1089","full_time_school":false,"id":"RP-12237","lat":50.522565,"lon":6.936236,"name":"Vischeltalschule","official_id":"12237","phone":"(02643)1089","school_type":"Grundschule","school_type_entity":"Grundschule","state":"RP"},{"address":"Quellenstr. 15, 56656 Brohl-Lützing","fax":"(02633)440217","full_time_school":false,"id":"RP-12630","lat":50.485977,"lon":7.327303,"name":"Leo-Stausberg-Schule","official_id":"12630","phone":"(02633)1581","school_type":"Grundschule","school_type_entity":"Grundschule","state":"RP"},{"address":"Greimerstalweg 19, 56659 Burgbrohl","fax":"(02636)3606","full_time_school":false,"id":"RP-26537","lat":50.456798,"lon":7.270293,"name":"Grundschule Burgbrohl","official_id":"26537","phone":"(02636)2056","school_type":"Grundschule","school_type_entity":"Grundschule","state":"RP"},{"address":"Römerstr., 53507 Dernau","fax":"(02643)902662","full_time_school":false,"id":"RP-26357","lat":50.53537,"lon":7.046781,"name":"Grundschule Dernau","official_id":"26357","phone":"(02643)1551","school_type":"Grundschule","school_type_entity":"Grundschule","state":"RP"},{"address":"Grünstr. 9, 53501 Grafschaft","fax":"(02225)707606","full_time_school":false,"id":"RP-21955","lat":50.584917,"lon":7.032312,"name":"Grundschule Obere Grafschaft","official_id":"21955","phone":"(02225)10463","school_type":"Grundschule","school_type_entity":"Grundschule","state":"RP"},{"address":"An der Arche 10, 53501 Grafschaft","fax":"02641/208920","full_time_school":true,"id":"RP-22482","lat":50.585002,"lon":7.131921,"name":"Grundschule Leimersdorf","official_id":"22482","phone":"(02641)27336","school_type":"Grundschule","school_type_entity":"Grundschule","state":"RP"},{"address":"Im Kreuzerfeld 6, 53501 Grafschaft","fax":"(02641)208917","full_time_school":true,"id":"RP-23126","lat":50.571005,"lon":7.09043,"name":"Grundschule Grafschaft-Ringen","official_id":"23126","phone":"(02641)28363","school_type":"Grundschule","school_type_entity":"Grundschule","state":"RP"},{"address":"Hardtstr. 2, 56746 Kempenich","fax":"(02655)941422","full_time_school":false,"id":"RP-14476","lat":50.419187,"lon":7.118175,"name":"Grundschule Kempenich","official_id":"14476","phone":"(02655)1595","school_type":"Grundschule","school_type_entity":"Grundschule","state":"RP"},{"address":"In der Hohl 16, 56651 Niederdürenbach","fax":"(02636)800495","full_time_school":false,"id":"RP-15933","lat":50.458756,"lon":7.178276,"name":"Grundschule am Maar","official_id":"15933","phone":"(02636)6305","school_type":"Grundschule","school_type_entity":"Grundschule","state":"RP"},{"address":"Fuchshofener Str. 12, 53520 Reifferscheid","fax":"02691/2644","full_time_school":false,"id":"RP-16637","lat":50.405683,"lon":6.87958,"name":"Grundschule Reifferscheid","official_id":"16637","phone":"(02691)2644","school_type":"Grundschule","school_type_entity":"Grundschule","state":"RP"},{"address":"Pastor-Keller-Str. 9, 53424 Remagen","fax":"(02642)993875","full_time_school":false,"id":"RP-16667","lat":50.559282,"lon":7.264705,"name":"Grundschule Kripp","official_id":"16667","phone":"(02642)44328","school_type":"Grundschule","school_type_entity":"Grundschule","state":"RP"},{"address":"Pfarrer-Sachsse-Str. 1, 53424 Remagen","fax":"02228 - 912889","full_time_school":false,"id":"RP-24631","lat":50.612822,"lon":7.209385,"name":"Grundschule Oberwinter","official_id":"24631","phone":"(02228)7124","school_type":"Grundschule","school_type_entity":"Grundschule","state":"RP"},{"address":"Alte Str., 53424 Remagen","fax":"(02642)905307","full_time_school":true,"id":"RP-24645","lat":50.5769913,"lon":7.2391744,"name":"Grundschule St. Martin Remagen","official_id":"24645","phone":"(02642)22370","school_type":"Grundschule","school_type_entity":"Grundschule","state":"RP"},{"address":"Schulstr. 35, 53426 Schalkenbach","fax":"(02646)914615","full_time_school":false,"id":"RP-16955","lat":50.493592,"lon":7.143017,"name":"Regenbogenschule","official_id":"16955","phone":"(02646)513","school_type":"Grundschule","school_type_entity":"Grundschule","state":"RP"},{"address":"Dreifaltigkeitsweg 37, 53489 Sinzig","fax":"(02642)994517","full_time_school":true,"id":"RP-17182","lat":50.547923,"lon":7.249932,"name":"Regenbogenschule","official_id":"17182","phone":"(02642)994511","school_type":"Grundschule","school_type_entity":"Grundschule","state":"RP"},{"address":"Lerchenweg 2, 53489 Sinzig","fax":"(02642)981771","full_time_school":false,"id":"RP-17196","lat":50.535973,"lon":7.228504,"name":"Hellenbachschule","official_id":"17196","phone":"(02642)981770","school_type":"Grundschule","school_type_entity":"Grundschule","state":"RP"},{"address":"Schulstr. 30, 53489 Sinzig","fax":"(02642)993537","full_time_school":false,"id":"RP-21217","lat":50.556869,"lon":7.222234,"name":"Grundschule Bad Bodendorf","official_id":"21217","phone":"(02642)41780","school_type":"Grundschule","school_type_entity":"Grundschule","state":"RP"},{"address":"Zehntgasse 16, 56653 Wassenach","fax":"(02636)941532","full_time_school":false,"id":"RP-18160","lat":50.433919,"lon":7.280698,"name":"Grundschule Wassenach","official_id":"18160","phone":"(02636)1226","school_type":"Grundschule","school_type_entity":"Grundschule","state":"RP"},{"address":"Kellerei 2, 56653 Wehr","fax":"(02636)800616","full_time_school":false,"id":"RP-18173","lat":50.421446,"lon":7.210235,"name":"Grundschule Wehr","official_id":"18173","phone":"(02636)7030","school_type":"Grundschule","school_type_entity":"Grundschule","state":"RP"},{"address":"Schulstr. 3, 56745 Weibern","fax":"-","full_time_school":false,"id":"RP-18186","lat":50.406486,"lon":7.14819,"name":"Grundschule Weibern","official_id":"18186","phone":"(02655)1313","school_type":"Grundschule","school_type_entity":"Grundschule","state":"RP"},{"address":"Hauptstr. 42, 53520 Wershofen","fax":"(02694)911874","full_time_school":false,"id":"RP-18310","lat":50.444543,"lon":6.814079,"name":"Herzog-Ludwig-Engelbert-Schule","official_id":"18310","phone":"(02694)1344","school_type":"Grundschule","school_type_entity":"Grundschule","state":"RP"},{"address":"Hauptstr. 53, 57518 Alsdorf","fax":"(02741)970991","full_time_school":false,"id":"RP-11802","lat":50.778332,"lon":7.880889,"name":"Grundschule Hellertal","official_id":"11802","phone":"(02741)23134","school_type":"Grundschule","school_type_entity":"Grundschule","state":"RP"},{"address":"Ziegelweg 4, 57610 Altenkirchen (Westerwald)","fax":"(02681)989709","full_time_school":true,"id":"RP-14102","lat":50.687937,"lon":7.638689,"name":"Pestalozzi-Schule","official_id":"14102","phone":"(02681)6136","school_type":"Grundschule","school_type_entity":"Grundschule","state":"RP"},{"address":"Siegener Str. 26, 57610 Altenkirchen (Westerwald)","fax":"(02681)6188","full_time_school":false,"id":"RP-14176","lat":50.690079,"lon":7.650764,"name":"Erich-Kästner-Schule","official_id":"14176","phone":"(02681)6148","school_type":"Grundschule","school_type_entity":"Grundschule","state":"RP"},{"address":"Heinestr. 12, 57610 Altenkirchen (Westerwald)","fax":"(02681)70009","full_time_school":false,"id":"RP-26327","lat":50.701699,"lon":7.645627,"name":"Freie Ev. Bekenntnisschule","official_id":"26327","phone":"(02681)3909","school_type":"Grundschule","school_type_entity":"Grundschule","state":"RP"},{"address":"Martin-Luther-Str. 31, 57518 Betzdorf","fax":"(02741)9107119","full_time_school":false,"id":"RP-26134","lat":50.79372,"lon":7.867335,"name":"Martin-Luther-Schule","official_id":"26134","phone":"(02741)910710","school_type":"Grundschule","school_type_entity":"Grundschule","state":"RP"},{"address":"Johannes-Krell-Str. 17, 57518 Betzdorf","fax":"(02741)9107314","full_time_school":true,"id":"RP-26147","lat":50.790865,"lon":7.851153,"name":"Christophorus-Schule","official_id":"26147","phone":"(02741)910730","school_type":"Grundschule","school_type_entity":"Grundschule","state":"RP"},{"address":"Hauptstr. 134, 57587 Birken-Honigsessen","fax":"(02742)969101","full_time_school":false,"id":"RP-13981","lat":50.821491,"lon":7.740693,"name":"Christophorus-Schule","official_id":"13981","phone":"(02742)969100","school_type":"Grundschule","school_type_entity":"Grundschule","state":"RP"},{"address":"Konrad-Adenauer-Str. 1, 57555 Brachbach","fax":"(02745)930027","full_time_school":true,"id":"RP-21131","lat":50.819002,"lon":7.942675,"name":"Petrus-Canisius-Schule","official_id":"21131","phone":"(02745)405","school_type":"Grundschule","school_type_entity":"Grundschule","state":"RP"},{"address":"Hachenburger Str. 3, 57567 Daaden","fax":"(02743)4377","full_time_school":false,"id":"RP-12810","lat":50.736703,"lon":7.966648,"name":"Grundschule Daaden","official_id":"12810","phone":"(02743)2288","school_type":"Grundschule","school_type_entity":"Grundschule","state":"RP"},{"address":"Friedhofstr. 6, 57567 Daaden","fax":"(02743)4940","full_time_school":false,"id":"RP-12824","lat":50.746955,"lon":7.95151,"name":"Grundschule Biersdorf","official_id":"12824","phone":"(02743)2239","school_type":"Grundschule","school_type_entity":"Grundschule","state":"RP"},{"address":"Jahnstr., 57578 Elkenroth","fax":"(02747)915719","full_time_school":true,"id":"RP-13078","lat":50.731576,"lon":7.883638,"name":"St. Martin-Schule","official_id":"13078","phone":"(02747)91570","school_type":"Grundschule","school_type_entity":"Grundschule","state":"RP"},{"address":"Wiesenstr. 21, 57539 Etzbach","fax":"(02682)968399","full_time_school":false,"id":"RP-13201","lat":50.77554,"lon":7.688206,"name":"Grundschule Etzbach","official_id":"13201","phone":"(02682)573","school_type":"Grundschule","school_type_entity":"Grundschule","state":"RP"},{"address":"Südstr. 1, 57632 Flammersfeld","fax":"(02685)989657","full_time_school":false,"id":"RP-13261","lat":50.645135,"lon":7.525166,"name":"Grundschule Flammersfeld","official_id":"13261","phone":"(02685)466","school_type":"Grundschule","school_type_entity":"Grundschule","state":"RP"},{"address":"Kaiser-Ludwig-Str. 2, 57520 Friedewald","fax":"(02743)932928","full_time_school":false,"id":"RP-13364","lat":50.710613,"lon":7.962245,"name":"Grundschule Friedewald","official_id":"13364","phone":"(02743)1250","school_type":"Grundschule","school_type_entity":"Grundschule","state":"RP"},{"address":"Klosterstr. 7, 51598 Friesenhagen","fax":"(02734)438474","full_time_school":false,"id":"RP-26039","lat":50.905099,"lon":7.808991,"name":"St. Franziskus-Schule","official_id":"26039","phone":"(02734)7376","school_type":"Grundschule","school_type_entity":"Grundschule","state":"RP"},{"address":"Schulstr., 57580 Gebhardshain","fax":"(02747)7469","full_time_school":false,"id":"RP-13408","lat":50.745351,"lon":7.825726,"name":"Astrid-Lindgren-Schule","official_id":"13408","phone":"(02747)3550","school_type":"Grundschule","school_type_entity":"Grundschule","state":"RP"},{"address":"Martin-Luther-Str. 4, 57577 Hamm (Sieg)","fax":"(02682)969661","full_time_school":true,"id":"RP-10435","lat":50.76206,"lon":7.671222,"name":"Friedrich-W.-Raiffeisen-Schule","official_id":"10435","phone":"(02682)969422","school_type":"Grundschule","school_type_entity":"Grundschule","state":"RP"},{"address":"Schneiderstr. 11, 57562 Herdorf","fax":"(02744)6172","full_time_school":true,"id":"RP-13844","lat":50.781841,"lon":7.958069,"name":"Grundschule Herdorf","official_id":"13844","phone":"(02744)1693","school_type":"Grundschule","school_type_entity":"Grundschule","state":"RP"},{"address":"Steinstr. 3, 56593 Horhausen (Westerwald)","fax":"(02687)929185","full_time_school":true,"id":"RP-14025","lat":50.596117,"lon":7.524959,"name":"Glück auf!-Schule","official_id":"14025","phone":"(02687)929183","school_type":"Grundschule","school_type_entity":"Grundschule","state":"RP"},{"address":"Knappenstr. 55a, 57581 Katzwinkel (Sieg)","fax":"(02741)933902","full_time_school":false,"id":"RP-14428","lat":50.812678,"lon":7.822666,"name":"Barbaraschule","official_id":"14428","phone":"(02741)8812","school_type":"Grundschule","school_type_entity":"Grundschule","state":"RP"},{"address":"Auf dem Molzberg 8, 57548 Kirchen (Sieg)","fax":"(02741)931104","full_time_school":true,"id":"RP-14549","lat":50.803105,"lon":7.874023,"name":"Michaelschule","official_id":"14549","phone":"(02741)6604","school_type":"Grundschule","school_type_entity":"Grundschule","state":"RP"},{"address":"Am Erlenwald 31, 57555 Mudersbach","fax":"(0271)3829859","full_time_school":true,"id":"RP-21127","lat":50.842096,"lon":7.96033,"name":"Martin-Luther-Schule","official_id":"21127","phone":"(0271)353768","school_type":"Grundschule","school_type_entity":"Grundschule","state":"RP"},{"address":"Rothenbergstr. 15, 57572 Niederfischbach","fax":"(02734)6396","full_time_school":true,"id":"RP-15950","lat":50.854271,"lon":7.878612,"name":"W.E. Ketteler-Schule","official_id":"15950","phone":"(02734)61258","school_type":"Grundschule","school_type_entity":"Grundschule","state":"RP"},{"address":"Hauptstr. 10, 57641 Oberlahr","fax":"(02685)987380","full_time_school":false,"id":"RP-16101","lat":50.623171,"lon":7.516172,"name":"Schule Lahrer Herrlichkeit","official_id":"16101","phone":"(02685)613","school_type":"Grundschule","school_type_entity":"Grundschule","state":"RP"},{"address":"Schulstr. 36, 57584 Scheuerfeld","fax":"(02741)971895","full_time_school":false,"id":"RP-16998","lat":50.786384,"lon":7.84699,"name":"Maximilian-Kolbe-Schule","official_id":"16998","phone":"(02741)23638","school_type":"Grundschule","school_type_entity":"Grundschule","state":"RP"},{"address":"Schulstr. 3, 57586 Weitefeld","fax":"(02743)932370","full_time_school":false,"id":"RP-18263","lat":50.698221,"lon":7.884851,"name":"Grundschule Weitefeld","official_id":"18263","phone":"(02743)6310","school_type":"Grundschule","school_type_entity":"Grundschule","state":"RP"},{"address":"Schulstr., 57635 Weyerbusch","fax":"(02686)988217","full_time_school":true,"id":"RP-10105","lat":50.711513,"lon":7.550318,"name":"Bürgerm.-Raiffeisen-Schule","official_id":"10105","phone":"(02686)295","school_type":"Grundschule","school_type_entity":"Grundschule","state":"RP"},{"address":"Schulstr. 12, 57537 Wissen","fax":"(02742)4731","full_time_school":true,"id":"RP-18443","lat":50.779943,"lon":7.73467,"name":"Franziskus-Grundschule","official_id":"18443","phone":"(02742)2921","school_type":"Grundschule","school_type_entity":"Grundschule","state":"RP"},{"address":"Ardennenstr. 20, 55234 Albig","fax":"06731/908217","full_time_school":false,"id":"RP-25006","lat":49.776495,"lon":8.123443,"name":"Grundschule Albig","official_id":"25006","phone":"(06731)7558","school_type":"Grundschule","school_type_entity":"Grundschule","state":"RP"},{"address":"Schulstr. 10, 67577 Alsheim","fax":"(06249)8056992","full_time_school":true,"id":"RP-23954","lat":49.761363,"lon":8.33522,"name":"Grundschule am Sonnenberg","official_id":"23954","phone":"(06249)8056990","school_type":"Grundschule","school_type_entity":"Grundschule","state":"RP"},{"address":"Donnersbergstr. 32, 55232 Alzey","fax":"(06731)992755","full_time_school":false,"id":"RP-20647","lat":49.740834,"lon":8.111593,"name":"Albert-Schweitzer-Schule","official_id":"20647","phone":"(06731)3193","school_type":"Grundschule","school_type_entity":"Grundschule","state":"RP"},{"address":"Nibelungenstr. 14, 55232 Alzey","fax":"(06731)992722","full_time_school":true,"id":"RP-20886","lat":49.745817,"lon":8.119697,"name":"Nibelungenschule","official_id":"20886","phone":"(06731)3180","school_type":"Grundschule","school_type_entity":"Grundschule","state":"RP"},{"address":"Schulgässchen 7, 55232 Alzey","fax":"(06731)999957","full_time_school":false,"id":"RP-21188","lat":49.743963,"lon":8.112043,"name":"Private Grundschule St. Marien","official_id":"21188","phone":"(06731)6749","school_type":"Grundschule","school_type_entity":"Grundschule","state":"RP"},{"address":"Rathausstr. 36, 55232 Alzey","fax":"(06731)996319","full_time_school":false,"id":"RP-25019","lat":49.737588,"lon":8.063147,"name":"Grundschule Weinheim","official_id":"25019","phone":"(06731)41994","school_type":"Grundschule","school_type_entity":"Grundschule","state":"RP"},{"address":"Keltenweg 15, 55288 Armsheim","fax":"(06734) 960601","full_time_school":false,"id":"RP-11893","lat":49.812004,"lon":8.061187,"name":"Wiesbachtalgrundschule Armshei","official_id":"11893","phone":"(06734)8728","school_type":"Grundschule","school_type_entity":"Grundschule","state":"RP"},{"address":"Am Markt 7, 67595 Bechtheim","fax":"(06242)990734","full_time_school":false,"id":"RP-12164","lat":49.727798,"lon":8.29534,"name":"Grundschule Bechtheim","official_id":"12164","phone":"(06242)2407","school_type":"Grundschule","school_type_entity":"Grundschule","state":"RP"},{"address":"Bahnhofstr.11, 55234 Bechtolsheim","fax":"(06733)949725","full_time_school":false,"id":"RP-12177","lat":49.80417,"lon":8.19389,"name":"Grundschule Bechtolsheim","official_id":"12177","phone":"(06733)6829","school_type":"Grundschule","school_type_entity":"Grundschule","state":"RP"},{"address":"Kämmerergasse 12, 67596 Dittelsheim-Heßloch","fax":"(06244)907758","full_time_school":false,"id":"RP-12943","lat":49.743556,"lon":8.246285,"name":"Von-Dalberg-Schule","official_id":"12943","phone":"(06244)4510","school_type":"Grundschule","school_type_entity":"Grundschule","state":"RP"},{"address":"Schulstr. 2, 67575 Eich","fax":"(06246)90679132","full_time_school":true,"id":"RP-27051","lat":49.747484,"lon":8.407615,"name":"Grundschule Eich","official_id":"27051","phone":"(06246)906790","school_type":"Grundschule","school_type_entity":"Grundschule","state":"RP"},{"address":"Nackerstr. 22, 55234 Erbes-Büdesheim","fax":"(06731)999613","full_time_school":false,"id":"RP-21432","lat":49.754494,"lon":8.028658,"name":"Grundschule Erbes-Büdesheim","official_id":"21432","phone":"(06731)908321","school_type":"Grundschule","school_type_entity":"Grundschule","state":"RP"},{"address":"Schulstr., 55234 Flomborn","fax":"(06735)960166","full_time_school":true,"id":"RP-10898","lat":49.689835,"lon":8.155295,"name":"Grundschule","official_id":"10898","phone":"(06735)411","school_type":"Grundschule","school_type_entity":"Grundschule","state":"RP"},{"address":"Bahnhofstr. 5, 55237 Flonheim","fax":"(06734)960636","full_time_school":true,"id":"RP-10901","lat":49.784328,"lon":8.039889,"name":"Grundschule Flonheim","official_id":"10901","phone":"(06734)475","school_type":"Grundschule","school_type_entity":"Grundschule","state":"RP"},{"address":"Pestalozzistr. 5, 55599 Gau-Bickelheim","fax":"06701/961979","full_time_school":false,"id":"RP-11683","lat":49.83784,"lon":8.015673,"name":"Grundschule St. Martin","official_id":"11683","phone":"(06701)2892","school_type":"Grundschule","school_type_entity":"Grundschule","state":"RP"},{"address":"Freiherr-vom-Stein-Str. 49, 55239 Gau-Odernheim","fax":"(06733)929677","full_time_school":true,"id":"RP-10931","lat":49.77983,"lon":8.186667,"name":"Grundschule Gau-Odernheim","official_id":"10931","phone":"(06733)929676","school_type":"Grundschule","school_type_entity":"Grundschule","state":"RP"},{"address":"Goethestr. 7, 67578 Gimbsheim","fax":"-","full_time_school":false,"id":"RP-23949","lat":49.781183,"lon":8.374711,"name":"Prof. Jakob Muth Grundschule","official_id":"23949","phone":"(06249)5926","school_type":"Grundschule","school_type_entity":"Grundschule","state":"RP"},{"address":"Am Schulberg 2, 67598 Gundersheim","fax":"(06244)907759","full_time_school":false,"id":"RP-13618","lat":49.69447,"lon":8.201946,"name":"Grundschule Gundersheim","official_id":"13618","phone":"(06244)5285","school_type":"Grundschule","school_type_entity":"Grundschule","state":"RP"},{"address":"Schulstr. 6, 67294 Mauchenheim","fax":"(06352)7070116","full_time_school":false,"id":"RP-22585","lat":49.716097,"lon":8.043564,"name":"Grundschule Mauchenheim","official_id":"22585","phone":"(06352)4862","school_type":"Grundschule","school_type_entity":"Grundschule","state":"RP"},{"address":"Moltkestr. 5, 67590 Monsheim","fax":"(06243) 905845","full_time_school":true,"id":"RP-15590","lat":49.634411,"lon":8.211861,"name":"Grundschule Monsheim","official_id":"15590","phone":"(06243)7533","school_type":"Grundschule","school_type_entity":"Grundschule","state":"RP"},{"address":"Johann-Peter-Schneider-Str. 1, 67591 Offstein","fax":"(06243)7185","full_time_school":false,"id":"RP-16187","lat":49.608502,"lon":8.240715,"name":"Grundschule am Engelsberg","official_id":"16187","phone":"(06243)7185","school_type":"Grundschule","school_type_entity":"Grundschule","state":"RP"},{"address":"Memelstr. 2, 67574 Osthofen","fax":"(06242)915965","full_time_school":true,"id":"RP-21114","lat":49.707209,"lon":8.328488,"name":"Seebachschule","official_id":"21114","phone":"(06242)3679","school_type":"Grundschule","school_type_entity":"Grundschule","state":"RP"},{"address":"Am Sportplatz 2, 55288 Partenheim","fax":"(06732)933348","full_time_school":false,"id":"RP-24991","lat":49.883327,"lon":8.072249,"name":"Grundschule Partenheim","official_id":"24991","phone":"(06732)7201","school_type":"Grundschule","school_type_entity":"Grundschule","state":"RP"},{"address":"Kapellenberg 1, 55291 Saulheim","fax":"06732/9384620","full_time_school":true,"id":"RP-24988","lat":49.873131,"lon":8.147979,"name":"Grundschule Saulheim","official_id":"24988","phone":"(06732)938460","school_type":"Grundschule","school_type_entity":"Grundschule","state":"RP"},{"address":"Goethestr. 1, 55288 Schornsheim","fax":"(06732)9336907","full_time_school":false,"id":"RP-17062","lat":49.846828,"lon":8.169712,"name":"Grundschule Schornsheim","official_id":"17062","phone":"(06732)3968","school_type":"Grundschule","school_type_entity":"Grundschule","state":"RP"},{"address":"In der Heidenhecke 1, 55599 Siefersheim","fax":"(06703)961148","full_time_school":false,"id":"RP-17166","lat":49.796866,"lon":7.961106,"name":"Grundschule Am Martinsberg","official_id":"17166","phone":"(06703)1663","school_type":"Grundschule","school_type_entity":"Grundschule","state":"RP"},{"address":"Schulstr. 6, 55578 Wallertheim","fax":"(06732)960075","full_time_school":false,"id":"RP-18126","lat":49.834525,"lon":8.047908,"name":"Grundschule Wallertheim","official_id":"18126","phone":"(06732)7594","school_type":"Grundschule","school_type_entity":"Grundschule","state":"RP"},{"address":"Eleonorenstr. 83, 55597 Wöllstein","fax":"(06703)690","full_time_school":true,"id":"RP-27065","lat":49.810114,"lon":7.950726,"name":"Grundschule Wöllstein","official_id":"27065","phone":"(06703)301425","school_type":"Grundschule","school_type_entity":"Grundschule","state":"RP"},{"address":"Obere Schulstr. 16, 55286 Wörrstadt","fax":"(06732)951426","full_time_school":true,"id":"RP-24961","lat":49.840869,"lon":8.112177,"name":"Neubornschule","official_id":"24961","phone":"(06732)7512","school_type":"Grundschule","school_type_entity":"Grundschule","state":"RP"},{"address":"Hauptstr.50, 67317 Altleiningen","fax":"(06356)989941","full_time_school":false,"id":"RP-25875","lat":49.50806,"lon":8.07444,"name":"Grundschule Altleiningen","official_id":"25875","phone":"(06356)8539","school_type":"Grundschule","school_type_entity":"Grundschule","state":"RP"},{"address":"Schulplatz 7, 67098 Bad Dürkheim","fax":"(06322)980686","full_time_school":false,"id":"RP-12001","lat":49.460895,"lon":8.16629,"name":"Pestalozzischule","official_id":"12001","phone":"(06322)980683","school_type":"Grundschule","school_type_entity":"Grundschule","state":"RP"},{"address":"Bürgermeister-Gropp-Str. 69, 67098 Bad Dürkheim","fax":"(06322)793690","full_time_school":false,"id":"RP-12014","lat":49.459086,"lon":8.143969,"name":"Grundschule Grethen","official_id":"12014","phone":"(06322)7414","school_type":"Grundschule","school_type_entity":"Grundschule","state":"RP"},{"address":"Eduard-Jost-Str. 24, 67098 Bad Dürkheim","fax":"(06322)4001","full_time_school":true,"id":"RP-21278","lat":49.454783,"lon":8.159234,"name":"Valentin-Ostertag-Schule","official_id":"21278","phone":"(06322) 980695","school_type":"Grundschule","school_type_entity":"Grundschule","state":"RP"},{"address":"Wellsring 182, 67098 Bad Dürkheim","fax":"(06322)989554","full_time_school":true,"id":"RP-24751","lat":49.467944,"lon":8.185558,"name":"Salierschule","official_id":"24751","phone":"(06322)8142","school_type":"Grundschule","school_type_entity":"Grundschule","state":"RP"},{"address":"Pestalozzistr. 10, 67278 Bockenheim an der Weinstraße","fax":"(06359)949844","full_time_school":false,"id":"RP-25888","lat":49.60472,"lon":8.1825,"name":"Jakob Böshenz-Schule","official_id":"25888","phone":"(06359)4111","school_type":"Grundschule","school_type_entity":"Grundschule","state":"RP"},{"address":"Lindenstr.45, 67316 Carlsberg","fax":"(06356)989176","full_time_school":false,"id":"RP-21758","lat":49.50389,"lon":8.04167,"name":"Grundschule am Atzenberg","official_id":"21758","phone":"(06356)989175","school_type":"Grundschule","school_type_entity":"Grundschule","state":"RP"},{"address":"Heumarktstr. 8, 67146 Deidesheim","fax":"(06326) 982865","full_time_school":false,"id":"RP-12870","lat":49.407769,"lon":8.185934,"name":"Grundschule Deidesheim","official_id":"12870","phone":"(06326) 8288","school_type":"Grundschule","school_type_entity":"Grundschule","state":"RP"},{"address":"Bahnhofstr. 7, 67246 Dirmstein","fax":"06238 989541","full_time_school":true,"id":"RP-25892","lat":49.565515,"lon":8.24921,"name":"Grundschule Dirmstein","official_id":"25892","phone":"(06238)2028","school_type":"Grundschule","school_type_entity":"Grundschule","state":"RP"},{"address":"Rodenbacherstr. 4, 67280 Ebertsheim","fax":"(06359)810487","full_time_school":false,"id":"RP-13021","lat":49.568536,"lon":8.108595,"name":"Grundschule Ebertsheim","official_id":"13021","phone":"(06359)3764","school_type":"Grundschule","school_type_entity":"Grundschule","state":"RP"},{"address":"Bahnstr. 92, 67158 Ellerstadt","fax":"(06237)403260","full_time_school":false,"id":"RP-13081","lat":49.463612,"lon":8.265835,"name":"Grundschule Ellerstadt-","official_id":"13081","phone":"(06237)3180","school_type":"Grundschule","school_type_entity":"Grundschule","state":"RP"},{"address":"Feldpfad 2, 67471 Elmstein","fax":"(06328)989258","full_time_school":false,"id":"RP-26690","lat":49.350648,"lon":7.935941,"name":"Heinrich-Weintz-Schule","official_id":"26690","phone":"(06328)1500","school_type":"Grundschule","school_type_entity":"Grundschule","state":"RP"},{"address":"Hauptstr. 63, 67472 Esthal","fax":"(06325)184164","full_time_school":false,"id":"RP-13198","lat":49.377251,"lon":7.986471,"name":"Grundschule Esthal","official_id":"13198","phone":"(06325)8674","school_type":"Grundschule","school_type_entity":"Grundschule","state":"RP"},{"address":"Haintorstr. 27, 67251 Freinsheim","fax":"(06353)3661","full_time_school":false,"id":"RP-21938","lat":49.505565,"lon":8.209608,"name":"Hermann-Sinsheimer-Grundschule","official_id":"21938","phone":"(06353)4209","school_type":"Grundschule","school_type_entity":"Grundschule","state":"RP"},{"address":"Langgasse 74, 67269 Grünstadt","fax":"(06359)808548","full_time_school":false,"id":"RP-14115","lat":49.581344,"lon":8.160473,"name":"Grundschule I Grünstadt","official_id":"14115","phone":"(06359)960242","school_type":"Grundschule","school_type_entity":"Grundschule","state":"RP"},{"address":"Südring 7, 67269 Grünstadt","fax":"(06359)937735","full_time_school":true,"id":"RP-14163","lat":49.559269,"lon":8.167621,"name":"Dekan-Ernst-Schule","official_id":"14163","phone":"(06359)937730","school_type":"Grundschule","school_type_entity":"Grundschule","state":"RP"},{"address":"Krummlandweg, 67269 Grünstadt","fax":"(06359)209574","full_time_school":false,"id":"RP-26840","lat":49.5505301,"lon":8.1535993,"name":"Grundschule III Grünstadt","official_id":"26840","phone":"(06359)209573","school_type":"Grundschule","school_type_entity":"Grundschule","state":"RP"},{"address":"Martin-Luther-Str. 25, 67454 Haßloch","fax":"(06324)925125","full_time_school":true,"id":"RP-10331","lat":49.359379,"lon":8.248367,"name":"Ernst-Reuter-Schule","official_id":"10331","phone":"(06324)92510","school_type":"Grundschule","school_type_entity":"Grundschule","state":"RP"},{"address":"Schillerstr. 1a, 67454 Haßloch","fax":"(06324)925225","full_time_school":false,"id":"RP-11319","lat":49.361771,"lon":8.260346,"name":"Schillerschule","official_id":"11319","phone":"(06324)92520","school_type":"Grundschule","school_type_entity":"Grundschule","state":"RP"},{"address":"Siemensstr. 2a, 67454 Haßloch","fax":"06324-7080871","full_time_school":true,"id":"RP-27245","lat":49.346497,"lon":8.237248,"name":"Grundschule","official_id":"27245","phone":"(06324-7080878","school_type":"Grundschule","school_type_entity":"Grundschule","state":"RP"},{"address":"Hauptstr. 27, 67310 Hettenleidelheim","fax":"(06351)123614","full_time_school":true,"id":"RP-22119","lat":49.535205,"lon":8.068549,"name":"Luitpoldschule","official_id":"22119","phone":"(06351)8191","school_type":"Grundschule","school_type_entity":"Grundschule","state":"RP"},{"address":"Weinstr. 79, 67169 Kallstadt","fax":"(06322)989699","full_time_school":true,"id":"RP-26447","lat":49.49104,"lon":8.174012,"name":"Grundschule Kallstadt","official_id":"26447","phone":"(06322)1881","school_type":"Grundschule","school_type_entity":"Grundschule","state":"RP"},{"address":"Kleinkarlbacher Str. 2, 67281 Kirchheim an der Weinstraße","fax":"(06359)924269","full_time_school":false,"id":"RP-25845","lat":49.538129,"lon":8.179775,"name":"Grundschule An der Pforte","official_id":"25845","phone":"(06359)3650","school_type":"Grundschule","school_type_entity":"Grundschule","state":"RP"},{"address":"Bachweg 7, 67271 Kleinkarlbach","fax":"-","full_time_school":false,"id":"RP-25858","lat":49.540868,"lon":8.155132,"name":"Grundschule Burgenländchen","official_id":"25858","phone":"(06359)3135","school_type":"Grundschule","school_type_entity":"Grundschule","state":"RP"},{"address":"Schulstr. 7, 67466 Lambrecht (Pfalz)","fax":"06325/980584","full_time_school":false,"id":"RP-19674","lat":49.371901,"lon":8.071023,"name":"Grundschule Lambrecht","official_id":"19674","phone":"(06325)8227","school_type":"Grundschule","school_type_entity":"Grundschule","state":"RP"},{"address":"Schulstr. 6, 67229 Laumersheim","fax":"(06238)989436","full_time_school":false,"id":"RP-15110","lat":49.552902,"lon":8.23277,"name":"Grundschule Gerolsheim-","official_id":"15110","phone":"(06238)2163","school_type":"Grundschule","school_type_entity":"Grundschule","state":"RP"},{"address":"Hauptstr. 49, 67473 Lindenberg","fax":"(06325)7672","full_time_school":false,"id":"RP-15170","lat":49.378605,"lon":8.096221,"name":"Grundschule Lindenberg","official_id":"15170","phone":"(06325)7672","school_type":"Grundschule","school_type_entity":"Grundschule","state":"RP"},{"address":"Schulstr. 1, 67149 Meckenheim","fax":"(06326)4107","full_time_school":false,"id":"RP-15440","lat":49.401909,"lon":8.239486,"name":"Grundschule Meckenheim","official_id":"15440","phone":"(06326)8741","school_type":"Grundschule","school_type_entity":"Grundschule","state":"RP"},{"address":"Schulstr. 1, 67468 Neidenfels","fax":"(06325)980753","full_time_school":false,"id":"RP-10465","lat":49.388652,"lon":8.048046,"name":"Gemeinsame Grundschule","official_id":"10465","phone":"(06325)8376","school_type":"Grundschule","school_type_entity":"Grundschule","state":"RP"},{"address":"Im Kirchgarten 23, 67150 Niederkirchen bei Deidesheim","fax":"(06326)982238","full_time_school":false,"id":"RP-10285","lat":49.41116,"lon":8.213046,"name":"Grundschule Niederkirchen","official_id":"10285","phone":"(06326)1377","school_type":"Grundschule","school_type_entity":"Grundschule","state":"RP"},{"address":"Gassenweg 17, 67283 Obrigheim (Pfalz)","fax":"(06359)5013489","full_time_school":false,"id":"RP-25905","lat":49.588082,"lon":8.195114499999999,"name":"Grundschule am Sonnenberg","official_id":"25905","phone":"(06359)3679","school_type":"Grundschule","school_type_entity":"Grundschule","state":"RP"},{"address":"Hinterm Graben 3, 67157 Wachenheim an der Weinstraße","fax":"(06322)7910134","full_time_school":true,"id":"RP-26837","lat":49.440949,"lon":8.184577,"name":"Grundschule Wachenheim","official_id":"26837","phone":"(06322)66074","school_type":"Grundschule","school_type_entity":"Grundschule","state":"RP"},{"address":"Hauptstr. 34, 67319 Wattenheim","fax":"(06356)989953","full_time_school":false,"id":"RP-23606","lat":49.509594,"lon":8.078489,"name":"Grundschule Wattenheim","official_id":"23606","phone":"(06356)417","school_type":"Grundschule","school_type_entity":"Grundschule","state":"RP"},{"address":"Langentalstr. 3, 67475 Weidenthal","fax":"(06329)989434","full_time_school":false,"id":"RP-24748","lat":49.421838,"lon":7.989781,"name":"Grundschule Weidenthal","official_id":"24748","phone":"(06329)511","school_type":"Grundschule","school_type_entity":"Grundschule","state":"RP"},{"address":"Neumayerstraße 27, 67273 Weisenheim am Berg","fax":"(06353)507828","full_time_school":false,"id":"RP-27274","lat":49.514136,"lon":8.147345,"name":"Grundschule","official_id":"27274","phone":"(06353)507824","school_type":"Grundschule","school_type_entity":"Grundschule","state":"RP"},{"address":"Westring 24, 67256 Weisenheim am Sand","fax":"(06353)91 54 57","full_time_school":true,"id":"RP-24002","lat":49.51806,"lon":8.24778,"name":"Grundschule Weisenheim am Sand","official_id":"24002","phone":"(06353)8806","school_type":"Grundschule","school_type_entity":"Grundschule","state":"RP"},{"address":"Lindelstr. 10, 55545 Bad Kreuznach","fax":"(0671)9799576","full_time_school":false,"id":"RP-12030","lat":49.887232,"lon":7.845459,"name":"Grundschule Winzenheim","official_id":"12030","phone":"(0671)41818","school_type":"Grundschule","school_type_entity":"Grundschule","state":"RP"},{"address":"Hofgartenstr. 14, 55545 Bad Kreuznach","fax":"(0671)8459183","full_time_school":true,"id":"RP-16037","lat":49.849603,"lon":7.856004,"name":"Grundschule Hofgartenstraße","official_id":"16037","phone":"(0671)26119","school_type":"Grundschule","school_type_entity":"Grundschule","state":"RP"},{"address":"Richard-Wagner-Str. 39, 55543 Bad Kreuznach","fax":"(0671)8961338","full_time_school":true,"id":"RP-16251","lat":49.83747,"lon":7.881775,"name":"Dr. Martin-Luther-King-Schule","official_id":"16251","phone":"(0671)67780","school_type":"Grundschule","school_type_entity":"Grundschule","state":"RP"},{"address":"Am Winzerkeller 2, 55545 Bad Kreuznach","fax":"(0671)8961308","full_time_school":true,"id":"RP-16461","lat":49.862827,"lon":7.915898,"name":"Grundschule Planig","official_id":"16461","phone":"(0671)66278","school_type":"Grundschule","school_type_entity":"Grundschule","state":"RP"},{"address":"Kleiststr., 55543 Bad Kreuznach","fax":"(0671)76972","full_time_school":true,"id":"RP-17616","lat":49.830889,"lon":7.875765,"name":"Grundschule Kleiststraße","official_id":"17616","phone":"(0671)61362","school_type":"Grundschule","school_type_entity":"Grundschule","state":"RP"},{"address":"Ringstr. 23, 55583 Bad Münster am Stein-Ebernburg","fax":"03212-1144989","full_time_school":true,"id":"RP-12057","lat":49.816533,"lon":7.846216,"name":"GS Bad Münster a. Stein-Ebernb","official_id":"12057","phone":"(06708)2102","school_type":"Grundschule","school_type_entity":"Grundschule","state":"RP"},{"address":"Münchwiesen 41, 55566 Bad Sobernheim","fax":"(06751)8555914","full_time_school":true,"id":"RP-24151","lat":49.782625,"lon":7.662626,"name":"Grundschule Bad Sobernheim","official_id":"24151","phone":"(06751)855590","school_type":"Grundschule","school_type_entity":"Grundschule","state":"RP"},{"address":"Brunnenstr. 17, 55595 Bockenau","fax":"(06758)969956","full_time_school":false,"id":"RP-26960","lat":49.839202,"lon":7.680977,"name":"Grundschule Bockenau","official_id":"26960","phone":"(06758)372","school_type":"Grundschule","school_type_entity":"Grundschule","state":"RP"},{"address":"Stephanskapellenweg 6, 55559 Bretzenheim","fax":"(0671)9200806","full_time_school":false,"id":"RP-12614","lat":49.879254,"lon":7.901792,"name":"Grundschule Bretzenheim","official_id":"12614","phone":"(0671)31917","school_type":"Grundschule","school_type_entity":"Grundschule","state":"RP"},{"address":"Fröbelstr. 1, 67824 Feilbingert","fax":"(06708) 616765","full_time_school":false,"id":"RP-13244","lat":49.778849,"lon":7.804132,"name":"Grundschule Feilbingert","official_id":"13244","phone":"(06708)1730","school_type":"Grundschule","school_type_entity":"Grundschule","state":"RP"},{"address":"Schulstr. 1, 55546 Frei-Laubersheim","fax":"(06909)960053","full_time_school":false,"id":"RP-13351","lat":49.79913,"lon":7.897383,"name":"Grundschule Frei-Laubersheim","official_id":"13351","phone":"(06709)555","school_type":"Grundschule","school_type_entity":"Grundschule","state":"RP"},{"address":"Schulstr. 1, 55546 Fürfeld","fax":"(06709)911947","full_time_school":false,"id":"RP-13378","lat":49.774947,"lon":7.893176,"name":"Grundschule Fürfeld","official_id":"13378","phone":"(06709)318","school_type":"Grundschule","school_type_entity":"Grundschule","state":"RP"},{"address":"Dammweg, 55452 Guldental","fax":"(06707)961203","full_time_school":false,"id":"RP-13604","lat":49.8927355,"lon":7.8389588,"name":"Grundschule Guldental","official_id":"13604","phone":"(06707)608","school_type":"Grundschule","school_type_entity":"Grundschule","state":"RP"},{"address":"Hauptstr. 30, 55546 Hackenheim","fax":"(0671)7947987","full_time_school":false,"id":"RP-13681","lat":49.823144,"lon":7.898988,"name":"Grundschule Hackenheim","official_id":"13681","phone":"(0671)69709","school_type":"Grundschule","school_type_entity":"Grundschule","state":"RP"},{"address":"Schulstr. 33, 55595 Hargesheim","fax":"0671/9200551","full_time_school":true,"id":"RP-13741","lat":49.865166,"lon":7.824464,"name":"Grundschule Hargesheim","official_id":"13741","phone":"(0671)32617","school_type":"Grundschule","school_type_entity":"Grundschule","state":"RP"},{"address":"Schulstr. 24, 55619 Hennweiler","fax":"(06752)136568","full_time_school":false,"id":"RP-25798","lat":49.822019,"lon":7.432594,"name":"Lützelsoonschule","official_id":"25798","phone":"(06752)8991","school_type":"Grundschule","school_type_entity":"Grundschule","state":"RP"},{"address":"Königsberger Str. 80, 55606 Kirn","fax":"(06752)943759","full_time_school":false,"id":"RP-26540","lat":49.786065,"lon":7.482052,"name":"Hellberg-Schule","official_id":"26540","phone":"(06752)3655","school_type":"Grundschule","school_type_entity":"Grundschule","state":"RP"},{"address":"Dhauner Str. 41, 55606 Kirn","fax":"(06752)912964","full_time_school":true,"id":"RP-26553","lat":49.791092,"lon":7.459685,"name":"Dominikschule","official_id":"26553","phone":"(06752)3654","school_type":"Grundschule","school_type_entity":"Grundschule","state":"RP"},{"address":"Schützenstr. 3, 55450 Langenlonsheim","fax":"(06704)961622","full_time_school":false,"id":"RP-15050","lat":49.896645,"lon":7.895372,"name":"Grundschule Langenlonsheim","official_id":"15050","phone":"(06704)961619","school_type":"Grundschule","school_type_entity":"Grundschule","state":"RP"},{"address":"Präses-Held-Str. 7, 55590 Meisenheim","fax":"(06753)2519","full_time_school":true,"id":"RP-15483","lat":49.712598,"lon":7.660754,"name":"Astrid-Lindgren-Grundschule","official_id":"15483","phone":"(06753)2696","school_type":"Grundschule","school_type_entity":"Grundschule","state":"RP"},{"address":"Beindestr. 18, 55569 Monzingen","fax":"(06751)950035","full_time_school":false,"id":"RP-15617","lat":49.79683,"lon":7.590674,"name":"Grundschule Monzingen","official_id":"15617","phone":"(06751)2134","school_type":"Grundschule","school_type_entity":"Grundschule","state":"RP"},{"address":"Schulstr. 1, 55585 Norheim","fax":"(0671)9201292","full_time_school":false,"id":"RP-16041","lat":49.810495,"lon":7.812415,"name":"Grundschule St. Martin","official_id":"16041","phone":"(0671)30827","school_type":"Grundschule","school_type_entity":"Grundschule","state":"RP"},{"address":"Turnhallstr. 3, 55571 Odernheim am Glan","fax":"(06755)969618","full_time_school":false,"id":"RP-16161","lat":49.768312,"lon":7.703861,"name":"Disibodenbergschule","official_id":"16161","phone":"(06755)1410","school_type":"Grundschule","school_type_entity":"Grundschule","state":"RP"},{"address":"Badenheimer Str., 55546 Pfaffen-Schwabenheim","fax":"(06701)1016","full_time_school":true,"id":"RP-26026","lat":49.847875,"lon":7.952403,"name":"Grundschule Pfaffen-","official_id":"26026","phone":"(06701)404","school_type":"Grundschule","school_type_entity":"Grundschule","state":"RP"},{"address":"Rüdesheimer Str. 10, 55595 Roxheim","fax":"(0671)9799151","full_time_school":false,"id":"RP-16865","lat":49.86215,"lon":7.809157,"name":"Grundschule Roxheim","official_id":"16865","phone":"(0671)32282","school_type":"Grundschule","school_type_entity":"Grundschule","state":"RP"},{"address":"Schulstr., 55593 Rüdesheim","fax":"(0671)2985795","full_time_school":true,"id":"RP-23173","lat":49.846615,"lon":7.8107997,"name":"Grundschule am Rosengarten","official_id":"23173","phone":"(0671)28309","school_type":"Grundschule","school_type_entity":"Grundschule","state":"RP"},{"address":"Schulstr., 55452 Rümmelsheim","fax":"(06721)4902820","full_time_school":true,"id":"RP-16907","lat":49.9342567,"lon":7.8567092,"name":"Grundschule Rümmelsheim","official_id":"16907","phone":"(06721)42772","school_type":"Grundschule","school_type_entity":"Grundschule","state":"RP"},{"address":"Naheweinstr. 5a, 55444 Schweppenhausen","fax":"(06724)601466","full_time_school":false,"id":"RP-26224","lat":49.923587,"lon":7.800608,"name":"Grundschule Schweppenhausen","official_id":"26224","phone":"(06724)3886","school_type":"Grundschule","school_type_entity":"Grundschule","state":"RP"},{"address":"Schulstr. 21, 55444 Seibersbach","fax":"(06724)601464","full_time_school":false,"id":"RP-24931","lat":49.964278,"lon":7.720234,"name":"Grundschule Dörrebach-","official_id":"24931","phone":"(06724)3614","school_type":"Grundschule","school_type_entity":"Grundschule","state":"RP"},{"address":"Schulstr., 55618 Simmertal","fax":"(06754)963189","full_time_school":true,"id":"RP-25035","lat":49.8109401,"lon":7.5209371,"name":"Grundschule Simmertal","official_id":"25035","phone":"(06754)415","school_type":"Grundschule","school_type_entity":"Grundschule","state":"RP"},{"address":"Schulstr. 36, 55568 Staudernheim","fax":"(06751)853579","full_time_school":false,"id":"RP-17542","lat":49.776299,"lon":7.683197,"name":"Grundschule Staudernheim","official_id":"17542","phone":"(06751)6454","school_type":"Grundschule","school_type_entity":"Grundschule","state":"RP"},{"address":"Schulstr. 2, 55442 Stromberg","fax":"(06724)941685","full_time_school":true,"id":"RP-27111","lat":49.94694,"lon":7.77944,"name":"Drei-Burgen-Grundschule Stromb","official_id":"27111","phone":"(06724)1322","school_type":"Grundschule","school_type_entity":"Grundschule","state":"RP"},{"address":"Schulstr. 6, 55596 Waldböckelheim","fax":"(06758)969954","full_time_school":false,"id":"RP-26957","lat":49.81494,"lon":7.719451,"name":"Grundschule Waldböckelheim","official_id":"26957","phone":"(06758)7912","school_type":"Grundschule","school_type_entity":"Grundschule","state":"RP"},{"address":"Schulstr. 26, 55595 Weinsheim","fax":"(06758)804989","full_time_school":false,"id":"RP-18220","lat":49.83507,"lon":7.769211,"name":"Grundschule Weinsheim","official_id":"18220","phone":"(06758)6600","school_type":"Grundschule","school_type_entity":"Grundschule","state":"RP"},{"address":"Schulstr. 3, 54518 Altrich","fax":"(06571)260883","full_time_school":false,"id":"RP-25862","lat":49.957063,"lon":6.910959,"name":"Grundschule Altrich","official_id":"25862","phone":"(06571)20286","school_type":"Grundschule","school_type_entity":"Grundschule","state":"RP"},{"address":"Schulstr., 54470 Bernkastel-Kues","fax":"(06531)915293","full_time_school":true,"id":"RP-12270","lat":49.9129372,"lon":7.0665495,"name":"Grundschule Bernkastel-Kues","official_id":"12270","phone":"(06531)8132","school_type":"Grundschule","school_type_entity":"Grundschule","state":"RP"},{"address":"Hauptstr. 101, 54470 Bernkastel-Kues","fax":"(06531)970855","full_time_school":false,"id":"RP-12284","lat":49.941774,"lon":7.040373,"name":"Grundschule Wehlen","official_id":"12284","phone":"(06531)8851","school_type":"Grundschule","school_type_entity":"Grundschule","state":"RP"},{"address":"Dudeldorfer Str. 4, 54518 Binsfeld","fax":"(06575)959152","full_time_school":false,"id":"RP-25215","lat":49.96524,"lon":6.700058,"name":"Grundschule Binsfeld","official_id":"25215","phone":"(06575)4826","school_type":"Grundschule","school_type_entity":"Grundschule","state":"RP"},{"address":"Kirchstr., 54518 Dreis","fax":"(06578)989167","full_time_school":false,"id":"RP-25065","lat":49.940972,"lon":6.81448,"name":"Grundschule Dreis","official_id":"25065","phone":"(06578)7244","school_type":"Grundschule","school_type_entity":"Grundschule","state":"RP"},{"address":"Am Wochenmarkt, 56850 Enkirch","fax":"(06541)814830","full_time_school":false,"id":"RP-13108","lat":49.982931,"lon":7.127197,"name":"Grundschule Enkirch","official_id":"13108","phone":"(06541)6776","school_type":"Grundschule","school_type_entity":"Grundschule","state":"RP"},{"address":"Peter-Mergen-Str. 2 A, 54518 Gladbach","fax":"06508-952139","full_time_school":false,"id":"RP-25079","lat":49.93591,"lon":6.768575,"name":"Grundschule Gladbach","official_id":"25079","phone":"(06508)444","school_type":"Grundschule","school_type_entity":"Grundschule","state":"RP"},{"address":"Schladter Str. 45, 54534 Großlittgen","fax":"(06575)903655","full_time_school":false,"id":"RP-13558","lat":50.028236,"lon":6.802284,"name":"Grundschule Großlittgen","official_id":"13558","phone":"(06575)4738","school_type":"Grundschule","school_type_entity":"Grundschule","state":"RP"},{"address":"Am Bahnhof 1, 54533 Hasborn","fax":"(06574)900617","full_time_school":false,"id":"RP-13754","lat":50.054586,"lon":6.910685,"name":"Grundschule Hasborn","official_id":"13754","phone":"(06574)204","school_type":"Grundschule","school_type_entity":"Grundschule","state":"RP"},{"address":"Schulstr. 5, 54426 Heidenburg","fax":"(06509)991099","full_time_school":false,"id":"RP-13801","lat":49.799318,"lon":6.916371,"name":"Grundschule Heidenburg","official_id":"13801","phone":"(06509)262","school_type":"Grundschule","school_type_entity":"Grundschule","state":"RP"},{"address":"Bahnhofstr. 14, 54523 Hetzerath","fax":"(06508)952191","full_time_school":true,"id":"RP-25082","lat":49.878617,"lon":6.810838,"name":"Grundschule Hetzerath","official_id":"25082","phone":"(06508)842","school_type":"Grundschule","school_type_entity":"Grundschule","state":"RP"},{"address":"Schulstr. 16, 54518 Hupperath","fax":"(06571)260874","full_time_school":false,"id":"RP-14086","lat":49.999174,"lon":6.835048,"name":"Grundschule Hupperath","official_id":"14086","phone":"(06571)7677","school_type":"Grundschule","school_type_entity":"Grundschule","state":"RP"},{"address":"Schulstr. 85, 54538 Kinderbeuern","fax":"-","full_time_school":true,"id":"RP-14518","lat":50.009215,"lon":7.016548,"name":"Grundschule Alftal","official_id":"14518","phone":"(06532)2065","school_type":"Grundschule","school_type_entity":"Grundschule","state":"RP"},{"address":"Ortsstr. 35, 54483 Kleinich","fax":"-","full_time_school":false,"id":"RP-14626","lat":49.889525,"lon":7.184342,"name":"Grundschule Kleinich","official_id":"14626","phone":"(06536)351","school_type":"Grundschule","school_type_entity":"Grundschule","state":"RP"},{"address":"Schulweg 1, 54536 Kröv","fax":"06541-815802","full_time_school":false,"id":"RP-25365","lat":49.97838,"lon":7.08608,"name":"Grundschule St. Remigius Kröv","official_id":"25365","phone":"(06541)6884","school_type":"Grundschule","school_type_entity":"Grundschule","state":"RP"},{"address":"Schulstr. 11, 54526 Landscheid","fax":"6575959153","full_time_school":false,"id":"RP-15020","lat":49.984227,"lon":6.766048,"name":"Grundschule Landscheid","official_id":"15020","phone":"(06575)4453","school_type":"Grundschule","school_type_entity":"Grundschule","state":"RP"},{"address":"Bahnhofstr. 14, 54533 Laufeld","fax":"(06572)933542","full_time_school":false,"id":"RP-15093","lat":50.080309,"lon":6.868313,"name":"Grundschule Laufeld","official_id":"15093","phone":"(06572)4033","school_type":"Grundschule","school_type_entity":"Grundschule","state":"RP"},{"address":"Beethovenstr. 5, 54470 Lieser","fax":"(06531)970782","full_time_school":false,"id":"RP-15140","lat":49.920916,"lon":7.019099,"name":"Lesura-Grundschule","official_id":"15140","phone":"(06531)8766","school_type":"Grundschule","school_type_entity":"Grundschule","state":"RP"},{"address":"Schulstr. 12, 54472 Longkamp","fax":"(06531)989788","full_time_school":false,"id":"RP-15227","lat":49.890607,"lon":7.11648,"name":"Grundschule Longkamp","official_id":"15227","phone":"(06531)4839","school_type":"Grundschule","school_type_entity":"Grundschule","state":"RP"},{"address":"Hauptstr. 61, 54426 Malborn","fax":"06504-950429","full_time_school":false,"id":"RP-15407","lat":49.71741,"lon":6.988937,"name":"Grundschule Malborn","official_id":"15407","phone":"(06504)8078","school_type":"Grundschule","school_type_entity":"Grundschule","state":"RP"},{"address":"Cusanusstr. 7, 54531 Manderscheid","fax":"06572/921620","full_time_school":false,"id":"RP-15347","lat":50.087887,"lon":6.808462,"name":"Grundschule Manderscheid","official_id":"15347","phone":"(06572)921650","school_type":"Grundschule","school_type_entity":"Grundschule","state":"RP"},{"address":"Serginer Platz, 54484 Maring-Noviand","fax":"(06535)944820","full_time_school":false,"id":"RP-15350","lat":49.92806,"lon":6.99778,"name":"Grundschule Maring-Noviand","official_id":"15350","phone":"(06535)290","school_type":"Grundschule","school_type_entity":"Grundschule","state":"RP"},{"address":"Alte Poststr. 3, 54472 Monzelfeld","fax":"(06531)970819","full_time_school":false,"id":"RP-15603","lat":49.889685,"lon":7.074897,"name":"Grundschule Monzelfeld","official_id":"15603","phone":"(06531)6183","school_type":"Grundschule","school_type_entity":"Grundschule","state":"RP"},{"address":"Morbach, 54497 Morbach","fax":"(06533)959188","full_time_school":false,"id":"RP-13651","lat":49.809803,"lon":7.120738,"name":"Grundschule Haag-Merscheid","official_id":"13651","phone":"(06533)3184","school_type":"Grundschule","school_type_entity":"Grundschule","state":"RP"},{"address":"Schulstr. 21, 54497 Morbach","fax":"(06533)941101","full_time_school":true,"id":"RP-15620","lat":49.809617,"lon":7.124976,"name":"Grundschule Morbach","official_id":"15620","phone":"(06533)941100","school_type":"Grundschule","school_type_entity":"Grundschule","state":"RP"},{"address":"Laurentiusstr.19, 54497 Morbach","fax":"(06533)959241","full_time_school":false,"id":"RP-15633","lat":49.81667,"lon":7.11667,"name":"Blandine-Merten-Schule","official_id":"15633","phone":"(06533)3145","school_type":"Grundschule","school_type_entity":"Grundschule","state":"RP"},{"address":"Schulweg 4, 54486 Mülheim (Mosel)","fax":"(06534)949822","full_time_school":true,"id":"RP-15663","lat":49.910332,"lon":7.007084,"name":"Grundschule Mülheim","official_id":"15663","phone":"(06534)777","school_type":"Grundschule","school_type_entity":"Grundschule","state":"RP"},{"address":"Willemsstr. 55, 54347 Neumagen-Dhron","fax":"06507/938543","full_time_school":false,"id":"RP-25455","lat":49.854227,"lon":6.898845,"name":"St. Helena-Grundschule","official_id":"25455","phone":"(06507)2615","school_type":"Grundschule","school_type_entity":"Grundschule","state":"RP"},{"address":"Bernkasteler Str. 10, 54518 Osann-Monzel","fax":"(06535)933039","full_time_school":false,"id":"RP-16247","lat":49.922965,"lon":6.949746,"name":"Grundschule Osann-Monzel","official_id":"16247","phone":"(06535)7329","school_type":"Grundschule","school_type_entity":"Grundschule","state":"RP"},{"address":"Schulstr. 16, 54498 Piesport","fax":"(06507)938548","full_time_school":true,"id":"RP-16384","lat":49.879824,"lon":6.923169,"name":"Grundschule Piesport","official_id":"16384","phone":"(06507)5115","school_type":"Grundschule","school_type_entity":"Grundschule","state":"RP"},{"address":"Schulstr. 19, 56861 Reil","fax":"06542-2926","full_time_school":false,"id":"RP-25379","lat":50.026017,"lon":7.113837,"name":"Grundschule Reil","official_id":"25379","phone":"(06542)2926","school_type":"Grundschule","school_type_entity":"Grundschule","state":"RP"},{"address":"Salmstr. 48, 54528 Salmtal","fax":"06578/989164","full_time_school":false,"id":"RP-24691","lat":49.92697,"lon":6.843897,"name":"Grundschule Salmtal","official_id":"24691","phone":"(06578)7271","school_type":"Grundschule","school_type_entity":"Grundschule","state":"RP"},{"address":"Schulstr., 54518 Sehlem","fax":"(06508)952124","full_time_school":false,"id":"RP-25095","lat":49.905047,"lon":6.834742,"name":"Grundschule St. Rochus","official_id":"25095","phone":"(06508)619","school_type":"Grundschule","school_type_entity":"Grundschule","state":"RP"},{"address":"In der Nah, 54424 Thalfang","fax":"(06504)95589-8","full_time_school":true,"id":"RP-17662","lat":49.75907,"lon":6.991811,"name":"Grundschule Thalfang","official_id":"17662","phone":"(06504)95589-0","school_type":"Grundschule","school_type_entity":"Grundschule","state":"RP"},{"address":"Allwies 20, 56841 Traben-Trarbach","fax":"06541/814828","full_time_school":true,"id":"RP-17719","lat":49.956952,"lon":7.122545,"name":"Grundschule Traben-Trarbach","official_id":"17719","phone":"(06541)2380","school_type":"Grundschule","school_type_entity":"Grundschule","state":"RP"},{"address":"Schulstr. 5, 54472 Veldenz","fax":"(06534)949825","full_time_school":false,"id":"RP-18010","lat":49.887918,"lon":7.021495,"name":"Grundschule Veldenz","official_id":"18010","phone":"(06534)517","school_type":"Grundschule","school_type_entity":"Grundschule","state":"RP"},{"address":"Schulstr. 11, 54487 Wintrich","fax":"(06534)949820","full_time_school":false,"id":"RP-18426","lat":49.884758,"lon":6.955369,"name":"Grundschule Wintrich","official_id":"18426","phone":"(06534)8326","school_type":"Grundschule","school_type_entity":"Grundschule","state":"RP"},{"address":"Lieserstr., 54516 Wittlich","fax":"(06571)2562","full_time_school":true,"id":"RP-18473","lat":49.983348,"lon":6.884499,"name":"Georg-Meistermann-Grundschule","official_id":"18473","phone":"(06571)2528","school_type":"Grundschule","school_type_entity":"Grundschule","state":"RP"},{"address":"Friedrichstr. 14, 54516 Wittlich","fax":"(06571)265669","full_time_school":true,"id":"RP-18486","lat":49.987334,"lon":6.89438,"name":"Grundschule Friedrichstraße","official_id":"18486","phone":"(06571)5119","school_type":"Grundschule","school_type_entity":"Grundschule","state":"RP"},{"address":"Berlinger Str. 1, 54516 Wittlich","fax":"(06571)951525","full_time_school":true,"id":"RP-18499","lat":49.99064,"lon":6.943574,"name":"Grundschule Bombogen","official_id":"18499","phone":"(06571)26181","school_type":"Grundschule","school_type_entity":"Grundschule","state":"RP"},{"address":"Schulstr. 1, 54516 Wittlich","fax":"(06571)265364","full_time_school":false,"id":"RP-18503","lat":49.971889,"lon":6.934856,"name":"Grundschule Wengerohr","official_id":"18503","phone":"(06571)6011","school_type":"Grundschule","school_type_entity":"Grundschule","state":"RP"},{"address":"Sankt-Florentiner-Str. 8, 54492 Zeltingen-Rachtig","fax":"(06532)933132","full_time_school":false,"id":"RP-26810","lat":49.95904,"lon":7.006727,"name":"Grundschule Zeltingen-Rachtig","official_id":"26810","phone":"(06532)933131","school_type":"Grundschule","school_type_entity":"Grundschule","state":"RP"},{"address":"Im Brühl 7, 55774 Baumholder","fax":"(06783)981131","full_time_school":false,"id":"RP-11172","lat":49.614242,"lon":7.340391,"name":"Grundschule Baumholder","official_id":"11172","phone":"(06783)981130","school_type":"Grundschule","school_type_entity":"Grundschule","state":"RP"},{"address":"An den Gerbhäusern, 55765 Birkenfeld","fax":"(06782)995858","full_time_school":true,"id":"RP-12420","lat":49.6469381,"lon":7.1619674,"name":"Grundschule Birkenfeld","official_id":"12420","phone":"(06782)99580","school_type":"Grundschule","school_type_entity":"Grundschule","state":"RP"},