[{"address":"Rostocker Straße 97, 66121 Saarbrücken","fax":"0681-812501","full_time_school":false,"id":"SL-1100-101031","lat":49.236615,"lon":7.042201,"name":"Grundschule Eschberg","official_id":"101031","phone":"0681-812121","school_type":"Grundschule","school_type_entity":"Grundschule","state":"SL"},{"address":"Schumannstraße 42, 66111 Saarbrücken","fax":"0681-36628","full_time_school":true,"id":"SL-1100-101051","lat":49.237816,"lon":7.002197,"name":"Max-Ophüls-Grundschule Saarbrücken","official_id":"101051","phone":"0681-36684","school_type":"Grundschule","school_type_entity":"Grundschule","state":"SL"},{"address":"St. Josef-Straße 11, 66115 Saarbrücken","fax":"0681-4171585","full_time_school":true,"id":"SL-1100-101071","lat":49.240982,"lon":6.973557,"name":"Ganztagsgrundschule Saarbrücken-Kirchberg","official_id":"101071","phone":"0681-42090","school_type":"Grundschule","school_type_entity":"Grundschule","state":"SL"},{"address":"Am Geisenberg 41, 66125 Saarbrücken","fax":"06897-972382","full_time_school":true,"id":"SL-1100-101081","lat":49.268632,"lon":7.047704,"name":"Grundschule Dudweiler","official_id":"101081","phone":"06897-972380","school_type":"Grundschule","school_type_entity":"Grundschule","state":"SL"},{"address":"Im Knappenroth 2, 66113 Saarbrücken","fax":"0681-7300540","full_time_school":true,"id":"SL-1100-101111","lat":49.250831,"lon":6.964733,"name":"Grundschule Rastpfuhl","official_id":"101111","phone":"0681 - 71704","school_type":"Grundschule","school_type_entity":"Grundschule","state":"SL"},{"address":"Am Hof 28, 66113 Saarbrücken","fax":"0681-41620021","full_time_school":true,"id":"SL-1100-101131","lat":49.25813,"lon":6.974559,"name":"Grundschule Russhütte","official_id":"101131","phone":"0681-41166","school_type":"Grundschule","school_type_entity":"Grundschule","state":"SL"},{"address":"Kirchberg 3, 66115 Saarbrücken","fax":"0681-4170211","full_time_school":true,"id":"SL-1100-101151","lat":49.24133,"lon":6.975818,"name":"Grundschule Saarbrücken- Wallenbaum","official_id":"101151","phone":"0681-42001","school_type":"Grundschule","school_type_entity":"Grundschule","state":"SL"},{"address":"Saarbrücker Straße 289, 66125 Saarbrücken","fax":"0681-905-2367","full_time_school":true,"id":"SL-1100-101211","lat":49.278832,"lon":7.03692,"name":"Grundschule Turmschule Dudweiler","official_id":"101211","phone":"0681-905-8960","school_type":"Grundschule","school_type_entity":"Grundschule","state":"SL"},{"address":"Marktstraße 43, 66125 Saarbrücken","fax":"06897/972961","full_time_school":true,"id":"SL-1100-101221","lat":49.274718,"lon":7.010377,"name":"Grundschule Herrensohr","official_id":"101221","phone":"06897-762486","school_type":"Grundschule","school_type_entity":"Grundschule","state":"SL"},{"address":"Schulstraße 10, 66133 Saarbrücken-Scheidt","fax":"0681-814674","full_time_school":true,"id":"SL-1100-101261","lat":49.204218,"lon":7.109199,"name":"Freiwillige Ganztagsgrundschule Plus Sbr.-Scheidt","official_id":"101261","phone":"0681-814652","school_type":"Grundschule","school_type_entity":"Grundschule","state":"SL"},{"address":"Im Knappenroth, 66113 Saarbrücken","fax":"0681-74339","full_time_school":true,"id":"SL-1100-101301","lat":49.251556,"lon":6.968102,"name":"Ganztagsgrundschule Rastpfuhl","official_id":"101301","phone":"0681-74325","school_type":"Grundschule","school_type_entity":"Grundschule","state":"SL"},{"address":"Ziegelstrasse 35, 66113 Saarbrücken","fax":"0681-498776","full_time_school":false,"id":"SL-1100-101311","lat":49.24674,"lon":6.986287,"name":"Grundschule Rodenhof","official_id":"101311","phone":"0681-42394","school_type":"Grundschule","school_type_entity":"Grundschule","state":"SL"},{"address":"Hellwigstraße 20, 66121 Saarbrücken","fax":"0681-66497","full_time_school":true,"id":"SL-1100-101331","lat":49.232564,"lon":7.01399,"name":"Grundschule Saarbrücken-Ost","official_id":"101331","phone":"0681-66497","school_type":"Grundschule","school_type_entity":"Grundschule","state":"SL"},{"address":"Dellengartenstraße 2, 66117 Saarbrücken","fax":"0681-5849460","full_time_school":false,"id":"SL-1100-201021","lat":49.230821,"lon":6.98069,"name":"Grundschule Dellengarten","official_id":"201021","phone":"0681-5849462","school_type":"Grundschule","school_type_entity":"Grundschule","state":"SL"},{"address":"Im Füllengarten 89, 66115 Saarbrücken","fax":"0681-9767125","full_time_school":true,"id":"SL-1100-201041","lat":49.24617,"lon":6.928738,"name":"Grundschule Füllengarten","official_id":"201041","phone":"0681-9767124","school_type":"Grundschule","school_type_entity":"Grundschule","state":"SL"},{"address":"Am Heidenhübel 1, 66117 Saarbrücken","fax":"0681-5849412","full_time_school":true,"id":"SL-1100-201081","lat":49.216017,"lon":6.962295,"name":"Grundschule Folsterhöhe","official_id":"201081","phone":"0681-57870","school_type":"Grundschule","school_type_entity":"Grundschule","state":"SL"},{"address":"Moltkestraße 31, 66117 Saarbrücken","fax":"0681-581877","full_time_school":true,"id":"SL-1100-201091","lat":49.23093,"lon":6.970312,"name":"Grundschule Am Ordensgut","official_id":"201091","phone":"0681-581882","school_type":"Grundschule","school_type_entity":"Grundschule","state":"SL"},{"address":"Arnulfstraße 15, 66119 Saarbrücken","fax":"0681-9850189","full_time_school":true,"id":"SL-1100-201141","lat":49.218774,"lon":7.016507,"name":"Grundschule St. Arnual","official_id":"201141","phone":"0681-9850184","school_type":"Grundschule","school_type_entity":"Grundschule","state":"SL"},{"address":"Große Weyersbergstraße 7, 66115 Saarbrücken","fax":"0681-76542","full_time_school":false,"id":"SL-1100-201161","lat":49.242783,"lon":6.948208,"name":"Offene Ganztagsgrundschule Weyersberg","official_id":"201161","phone":"0681-79939","school_type":"Grundschule","school_type_entity":"Grundschule","state":"SL"},{"address":"Kirchstraße 1-3, 66126 Saarbrücken","fax":"06898-984047","full_time_school":true,"id":"SL-1100-201171","lat":49.212387,"lon":7.037837,"name":"Grundschule Altenkessel","official_id":"201171","phone":"06898-984046","school_type":"Grundschule","school_type_entity":"Grundschule","state":"SL"},{"address":"Bergstraße 63, 66129 Saarbrücken-Bübingen","fax":"06805-8407","full_time_school":false,"id":"SL-1100-201201","lat":49.18226,"lon":7.045509,"name":"Grundschule Bübingen","official_id":"201201","phone":"06805-8416","school_type":"Grundschule","school_type_entity":"Grundschule","state":"SL"},{"address":"Aschbachstraße 38, 66128 Saarbrücken-Gersweiler","fax":"0681-7020492","full_time_school":true,"id":"SL-1100-201241","lat":49.237815,"lon":6.911504,"name":"Grundschule Gersweiler","official_id":"201241","phone":"0681-9970110","school_type":"Grundschule","school_type_entity":"Grundschule","state":"SL"},{"address":"Friedrich-Ebert-Straße 23, 66132 Saarbrücken-Bischmisheim","fax":"0681-9893044","full_time_school":true,"id":"SL-1100-201271","lat":49.19325,"lon":7.024145,"name":"Grundschule Saarbrücken-Am Geisberg","official_id":"201271","phone":"0681-9893045","school_type":"Grundschule","school_type_entity":"Grundschule","state":"SL"},{"address":"Am Marktweg, 66131 Saarbrücken-Ensheim","fax":"06893-2548","full_time_school":true,"id":"SL-1100-201281","lat":49.22408885,"lon":7.1130534999999995,"name":"Grundschule Ensheim","official_id":"201281","phone":"06893-2536","school_type":"Grundschule","school_type_entity":"Grundschule","state":"SL"},{"address":"Peter-und-Paul-Straße 38, 66130 Saarbrücken-Brebach-Fechingen","fax":"0681-872181","full_time_school":true,"id":"SL-1100-201291","lat":49.211988,"lon":7.048128,"name":"Grund- und Ganztagsgrundschule","official_id":"201291","phone":"0681-872121","school_type":"Grundschule","school_type_entity":"Grundschule","state":"SL"},{"address":"Hohe Wacht 25, 66119 Saarbrücken","fax":"0681-5893786","full_time_school":true,"id":"SL-1100-201301","lat":49.220475,"lon":6.985713,"name":"Grundschule Hohe Wacht","official_id":"201301","phone":"0681-55826","school_type":"Grundschule","school_type_entity":"Grundschule","state":"SL"},{"address":"Schulstraße 30, 66130 Saarbrücken-Brebach-Fechingen","fax":null,"full_time_school":true,"id":"SL-1100-201322","lat":49.201295,"lon":7.067612,"name":"Private Grundschule Don Bosco","official_id":"201322","phone":"06893/802759","school_type":"Grundschule","school_type_entity":"Grundschule","state":"SL"},{"address":"Hauptstraße 53, 66127 Saarbrücken-Klarenthal","fax":"06898-32774","full_time_school":true,"id":"SL-1100-201351","lat":49.23677,"lon":6.931615,"name":"Grundschule Klarenthal","official_id":"201351","phone":"06898-32772","school_type":"Grundschule","school_type_entity":"Grundschule","state":"SL"},{"address":"Halbergstraße 112, 66121 Saarbrücken","fax":"0681 - 638000","full_time_school":true,"id":"SL-1100-301362","lat":49.230323,"lon":7.016476,"name":"Ecole Francaise de Sarrebruck et Dilling","official_id":"301362","phone":"0681 - 62624","school_type":"Grundschule","school_type_entity":"Grundschule","state":"SL"},{"address":"Bismarckstraße 4, 66299 Friedrichsthal","fax":"06897-812278","full_time_school":true,"id":"SL-1511-101011","lat":49.325419,"lon":7.095324,"name":"Grundschule Friedrichsthal","official_id":"101011","phone":"06897-842411","school_type":"Grundschule","school_type_entity":"Grundschule","state":"SL"},{"address":"Birkenweg 7, 66299 Friedrichsthal-Bildstock","fax":"06897-843687","full_time_school":true,"id":"SL-1511-101021","lat":49.3357,"lon":7.09585,"name":"Grundschule Bildstock","official_id":"101021","phone":"06897-842533","school_type":"Grundschule","school_type_entity":"Grundschule","state":"SL"},{"address":"Wilhelm-Heinrich-Weg 2, 66352 Grossrosseln","fax":"06898-40567","full_time_school":true,"id":"SL-1512-201031","lat":49.205557,"lon":6.836424,"name":"Wilhelm-Heinrich-Grundschule der Gemeinde Grossrosseln","official_id":"201031","phone":"06898-40546","school_type":"Grundschule","school_type_entity":"Grundschule","state":"SL"},{"address":"Dilsburger Straße 2, 66265 Heusweiler","fax":"06806-608232","full_time_school":false,"id":"SL-1513-301011","lat":49.33389,"lon":6.933143,"name":"Grundschule Heusweiler","official_id":"301011","phone":"06806-608230","school_type":"Grundschule","school_type_entity":"Grundschule","state":"SL"},{"address":"Glück-Auf-Weg, 66265 Heusweiler-Holz","fax":"06806-989367","full_time_school":true,"id":"SL-1513-301061","lat":49.330443,"lon":6.939072,"name":"Grundschule Holz - Erich Kästner Schule","official_id":"301061","phone":"06806-8773","school_type":"Grundschule","school_type_entity":"Grundschule","state":"SL"},{"address":"Auf dem Bies 23, 66271 Kleinblittersdorf-Auersmacher","fax":"06805-912003","full_time_school":true,"id":"SL-1514-201011","lat":49.145721,"lon":7.050773,"name":"Grundschule Auersmacher Rilchingen-Hanweiler","official_id":"201011","phone":"06805-8565","school_type":"Grundschule","school_type_entity":"Grundschule","state":"SL"},{"address":"Wintringer Straße 78, 66271 Kleinblittersdorf","fax":"06805-2008638","full_time_school":true,"id":"SL-1514-201051","lat":49.163134,"lon":7.041739,"name":"Grundschule Kleinblittersdorf","official_id":"201051","phone":"06805-2008-631","school_type":"Grundschule","school_type_entity":"Grundschule","state":"SL"},{"address":"Goethestraße, 66346 Püttlingen","fax":"06898-689980","full_time_school":true,"id":"SL-1515-301011","lat":49.2909375,"lon":6.8788063,"name":"Grundschule Püttlingen I","official_id":"301011","phone":"06898-61885","school_type":"Grundschule","school_type_entity":"Grundschule","state":"SL"},{"address":"Zur Sporthalle, 66346 Püttlingen","fax":"06806-922869","full_time_school":true,"id":"SL-1515-301031","lat":49.3064066,"lon":6.8984617,"name":"Grundschule Köllerbach","official_id":"301031","phone":"06806-48791","school_type":"Grundschule","school_type_entity":"Grundschule","state":"SL"},{"address":"Theodolinde-Katzenmaier-Straße 5, 66346 Püttlingen","fax":"06898-689572","full_time_school":true,"id":"SL-1515-301041","lat":49.278117,"lon":6.911504,"name":"Grundschule Viktoria Püttlingen-Ritterstraße","official_id":"301041","phone":"06898-67271","school_type":"Grundschule","school_type_entity":"Grundschule","state":"SL"},{"address":"Lasbachstraße 21, 66287 Quierschied","fax":"06897-601438","full_time_school":false,"id":"SL-1516-301011","lat":49.320981,"lon":7.045508,"name":"Grundschule Lasbach","official_id":"301011","phone":"06897-63006","school_type":"Grundschule","school_type_entity":"Grundschule","state":"SL"},{"address":"Hauptstraße 189, 66287 Quierschied-Göttelborn","fax":"06825-8007700","full_time_school":true,"id":"SL-1516-301021","lat":49.342881,"lon":7.027291,"name":"Grundschule Fischbach-Göttelborn","official_id":"301021","phone":"06825-5680","school_type":"Grundschule","school_type_entity":"Grundschule","state":"SL"},{"address":"Lindenschule, 66292 Riegelsberg","fax":"06806-860682","full_time_school":true,"id":"SL-1517-301011","lat":49.294214,"lon":6.953389,"name":"Grundschule Riegelsberg","official_id":"301011","phone":"06806-3683","school_type":"Grundschule","school_type_entity":"Grundschule","state":"SL"},{"address":"Ellerstraße 7, 66292 Riegelsberg","fax":"06806-102119","full_time_school":true,"id":"SL-1517-301021","lat":49.315735,"lon":6.942065,"name":"Grundschule Hilschbach-Walpershofen","official_id":"301021","phone":"06806-2719","school_type":"Grundschule","school_type_entity":"Grundschule","state":"SL"},{"address":"Wolfskaulstraße 88, 66292 Riegelsberg","fax":"06806-860591","full_time_school":true,"id":"SL-1517-301031","lat":49.298799,"lon":6.93031,"name":"Grundschule Pflugscheid","official_id":"301031","phone":"06806-3684","school_type":"Grundschule","school_type_entity":"Grundschule","state":"SL"},{"address":"Mellinweg 13, 66280 Sulzbach","fax":"06897-569481","full_time_school":true,"id":"SL-1518-101011","lat":49.303206,"lon":7.061291,"name":"Grundschule Sulzbach I Mellin Schule","official_id":"101011","phone":"06897-4936","school_type":"Grundschule","school_type_entity":"Grundschule","state":"SL"},{"address":"Richard Eberle Str.1, 66280 Sulzbach-Altenwald","fax":"06897-88114","full_time_school":false,"id":"SL-1518-101021","lat":49.3162917,"lon":7.0793035,"name":"Grundschule II Sulzbach-Altenwald Waldschule","official_id":"101021","phone":"06897-88107","school_type":"Grundschule","school_type_entity":"Grundschule","state":"SL"},{"address":"Bergstraße 30, 66333 Völklingen","fax":"06898-23442","full_time_school":false,"id":"SL-1519-301011","lat":49.254498,"lon":6.854869,"name":"Grundschule Bergstrasse/Hermann-Röchling-Höhe","official_id":"301011","phone":"06898-23316","school_type":"Grundschule","school_type_entity":"Grundschule","state":"SL"},{"address":"Haydnstraße 44, 66333 Völklingen","fax":"06898-294402","full_time_school":false,"id":"SL-1519-301021","lat":49.258685,"lon":6.863138,"name":"Grundschule Haydnstrasse","official_id":"301021","phone":"06898-23831","school_type":"Grundschule","school_type_entity":"Grundschule","state":"SL"},{"address":"Am Hasseleich 19, 66333 Völklingen-Fürstenhausen","fax":"06898-935366","full_time_school":true,"id":"SL-1519-301031","lat":49.2392,"lon":6.867466,"name":"Grundschule Fürstenhausen","official_id":"301031","phone":"06898-31320","school_type":"Grundschule","school_type_entity":"Grundschule","state":"SL"},{"address":"Schulstraße 12, 66333 Völklingen-Ludweiler","fax":"06898-439016","full_time_school":true,"id":"SL-1519-301071","lat":49.217974,"lon":6.807752,"name":"Grundschule Ludweiler-Lauterbach","official_id":"301071","phone":"06898-40117","school_type":"Grundschule","school_type_entity":"Grundschule","state":"SL"},{"address":"Neckarstraße 12, 66333 Völklingen-Heidstock","fax":"06898-851167","full_time_school":true,"id":"SL-1519-301091","lat":49.25764,"lon":6.883518,"name":"Grundschule Heidstock-Luisenthal","official_id":"301091","phone":"06898-851055","school_type":"Grundschule","school_type_entity":"Grundschule","state":"SL"},{"address":"Kleine Bergstraße 3, 66333 Völklingen- Wehrden","fax":"06898-16370","full_time_school":true,"id":"SL-1519-301101","lat":49.248344,"lon":6.827892,"name":"Grundschule Wehrden/Geislautern - Regenbogenschule","official_id":"301101","phone":"Wehrden: 06898-26639\nGeislautern: 06898-7263","school_type":"Grundschule","school_type_entity":"Grundschule","state":"SL"},{"address":"Zur Plätsch, 66701 Beckingen","fax":"06832-446","full_time_school":true,"id":"SL-2111-201041","lat":49.451128,"lon":6.764953,"name":"Grundschule Reimsbach","official_id":"201041","phone":"06832-801612","school_type":"Grundschule","school_type_entity":"Grundschule","state":"SL"},{"address":"Pfarrer-Gierend-Straße 5, 66701 Beckingen","fax":"06832-801395","full_time_school":true,"id":"SL-2111-201051","lat":49.41513,"lon":6.763323,"name":"Grundschule Düppenweiler","official_id":"201051","phone":"06832-383","school_type":"Grundschule","school_type_entity":"Grundschule","state":"SL"},{"address":"Schulstraße 5, 66701 Beckingen","fax":"06835-601790","full_time_school":true,"id":"SL-2111-201061","lat":49.387369,"lon":6.702509,"name":"Grundschule Beckingen","official_id":"201061","phone":"06835-601789","school_type":"Grundschule","school_type_entity":"Grundschule","state":"SL"},{"address":"Schulstraße 11, 66679 Losheim am See","fax":"06872-8624","full_time_school":true,"id":"SL-2112-201011","lat":49.508761,"lon":6.747346,"name":"Nicolaus-Voltz-Grundschule-Losheim","official_id":"201011","phone":"06872-2295","school_type":"Grundschule","school_type_entity":"Grundschule","state":"SL"},{"address":"Quellenstraße 14, 66679 Losheim am See-Bachem","fax":"06872-887008","full_time_school":true,"id":"SL-2112-201021","lat":49.477988,"lon":6.709198,"name":"Grundschule Bachem-Britten","official_id":"201021","phone":"06872-2675","school_type":"Grundschule","school_type_entity":"Grundschule","state":"SL"},{"address":"Am Herrenpfad 4, 66679 Losheim am See-Wahlen","fax":"06872-8474","full_time_school":true,"id":"SL-2112-201041","lat":49.488128,"lon":6.778596,"name":"Grundschule Wahlen","official_id":"201041","phone":"06872-2556","school_type":"Grundschule","school_type_entity":"Grundschule","state":"SL"},{"address":"Kreuzbergstraße 51, 66663 Merzig","fax":"06861-793601","full_time_school":false,"id":"SL-2113-101011","lat":49.446023,"lon":6.64278,"name":"Grundschule Kreuzberg","official_id":"101011","phone":"06861-6684","school_type":"Grundschule","school_type_entity":"Grundschule","state":"SL"},{"address":"Beethovenstrasse 2, 66663 Merzig","fax":"06861-790654","full_time_school":false,"id":"SL-2113-101021","lat":49.452682,"lon":6.635713,"name":"Grundschule St. Josef","official_id":"101021","phone":"06861-6378","school_type":"Grundschule","school_type_entity":"Grundschule","state":"SL"},{"address":"Bezirksstraße 100, 66663 Merzig-Besseringen","fax":"06861 790682","full_time_school":false,"id":"SL-2113-101051","lat":49.45,"lon":6.61667,"name":"Grundschule Besseringen","official_id":"101051","phone":"06861-2944","school_type":"Grundschule","school_type_entity":"Grundschule","state":"SL"},{"address":"Zum Schotzberg 3, 66663 Merzig-Schwemlingen","fax":"06861-2560","full_time_school":true,"id":"SL-2113-101061","lat":49.464967,"lon":6.588315,"name":"Grundschule Saargau","official_id":"101061","phone":"06861-3750","school_type":"Grundschule","school_type_entity":"Grundschule","state":"SL"},{"address":"Ringstrasse 1, 66663 Merzig","fax":"06861-790151","full_time_school":true,"id":"SL-2113-101071","lat":49.47302,"lon":6.677886,"name":"Grundschule Brotdorf","official_id":"101071","phone":"06861-3789","school_type":"Grundschule","school_type_entity":"Grundschule","state":"SL"},{"address":"Schulstraße 26, 66663 Merzig-Hilbringen","fax":"06861 79322","full_time_school":true,"id":"SL-2113-101081","lat":49.437192,"lon":6.613307,"name":"Grundschule Hilbringen","official_id":"101081","phone":"06861-3222","school_type":"Grundschule","school_type_entity":"Grundschule","state":"SL"},{"address":"Martinusstraße, 66663 Merzig-Bietzen","fax":null,"full_time_school":true,"id":"SL-2113-101092","lat":49.410409,"lon":6.668579,"name":"Private Grundschule \"Forscherschule\"","official_id":"101092","phone":"06861-8390578","school_type":"Grundschule","school_type_entity":"Grundschule","state":"SL"},{"address":"Von-Boch-Liebieg-Straße 34, 66693 Mettlach","fax":"06864-1390","full_time_school":true,"id":"SL-2114-101011","lat":49.5,"lon":6.58333,"name":"Grundschule Langwies der Gemeinde Mettlach","official_id":"101011","phone":"06864-1390","school_type":"Grundschule","school_type_entity":"Grundschule","state":"SL"},{"address":"Saarburger Straße, 66693 Mettlach-Orscholz","fax":"06865 180213","full_time_school":true,"id":"SL-2114-101021","lat":49.4940158,"lon":6.5852876,"name":"Grundschule Orscholz","official_id":"101021","phone":"06865-322","school_type":"Grundschule","school_type_entity":"Grundschule","state":"SL"},{"address":"Kirschenstraße 6-8, 66706 Perl","fax":"06867-560023","full_time_school":true,"id":"SL-2115-101011","lat":49.47741,"lon":6.394147,"name":"Grundschule Dreiländereck  Schule der Gemeinde Perl","official_id":"101011","phone":"06867-560022","school_type":"Grundschule","school_type_entity":"Grundschule","state":"SL"},{"address":"Michaelstraße 4, 66687 Wadern-Lockweiler","fax":"06871-922723","full_time_school":true,"id":"SL-2116-201031","lat":49.528012,"lon":6.926533,"name":"Grundschule Lockweiler","official_id":"201031","phone":"06871-2596","school_type":"Grundschule","school_type_entity":"Grundschule","state":"SL"},{"address":"Saarbruecker Straße 65, 66687 Wadern-Nunkirchen","fax":"06874-182816","full_time_school":false,"id":"SL-2116-201041","lat":49.51667,"lon":6.86667,"name":"Grundschule Nunkirchen","official_id":"201041","phone":"06874-263","school_type":"Grundschule","school_type_entity":"Grundschule","state":"SL"},{"address":"Schlimmfeldstraße 1, 66687 Wadern-Wadrill","fax":"06871-922761","full_time_school":true,"id":"SL-2116-201051","lat":49.585478,"lon":6.891312,"name":"Grundschule St. Martin Wadrill-Steinberg","official_id":"201051","phone":"06871-2376","school_type":"Grundschule","school_type_entity":"Grundschule","state":"SL"},{"address":"Schulstraße10, 66709 Weiskirchen","fax":"06876-791802","full_time_school":true,"id":"SL-2117-201011","lat":49.55611,"lon":6.82,"name":"Grundschule Weiskirchen","official_id":"201011","phone":"06876-373","school_type":"Grundschule","school_type_entity":"Grundschule","state":"SL"},{"address":"St.Sebastianstraße 1, 66571 Eppelborn","fax":"06881-88693","full_time_school":true,"id":"SL-3111-201011","lat":49.38333,"lon":6.96667,"name":"Grundschule Eppelborn","official_id":"201011","phone":"06881-6642","school_type":"Grundschule","school_type_entity":"Grundschule","state":"SL"},{"address":"Jägerbergstraße 2, 66571 Eppelborn-Wiesbach","fax":"06806-81361","full_time_school":true,"id":"SL-3111-201051","lat":49.369338,"lon":6.981516,"name":"Grundschule Wiesbach-Dirmingen","official_id":"201051","phone":"06806-81305","school_type":"Grundschule","school_type_entity":"Grundschule","state":"SL"},{"address":"In der Humes 40, 66571 Eppelborn-Humes","fax":"06881-8994738","full_time_school":true,"id":"SL-3111-201062","lat":49.38865,"lon":6.99796,"name":"Private Montessori-Grundschule","official_id":"201062","phone":"06881-8994716","school_type":"Grundschule","school_type_entity":"Grundschule","state":"SL"},{"address":"Dr.Maxein-Straße 2, 66557 Illingen","fax":"06825-499519","full_time_school":true,"id":"SL-3112-201031","lat":49.36667,"lon":7.03333,"name":"Grundschule An der Ill, Hüttigweiler","official_id":"201031","phone":"06825-2840","school_type":"Grundschule","school_type_entity":"Grundschule","state":"SL"},{"address":"In der Drischeck, 66557 Illingen-Uchtelfangen","fax":"06825-499518","full_time_school":true,"id":"SL-3112-201041","lat":49.36667,"lon":7.03333,"name":"Grundschule Uchtelfangen","official_id":"201041","phone":"06825-3010","school_type":"Grundschule","school_type_entity":"Grundschule","state":"SL"},{"address":"Schulstrasse 4, 66557 Illingen","fax":"06825-47465","full_time_school":true,"id":"SL-3112-201051","lat":49.374258,"lon":7.052597,"name":"Grundschule Auf der Lehn, Illingen","official_id":"201051","phone":"06825-47354","school_type":"Grundschule","school_type_entity":"Grundschule","state":"SL"},{"address":"Allenfeldstraße, 66589 Merchweiler","fax":"06825-970210","full_time_school":true,"id":"SL-3113-201011","lat":49.3564362,"lon":7.0618136,"name":"Grundschule Merchweiler","official_id":"201011","phone":"06825-7780","school_type":"Grundschule","school_type_entity":"Grundschule","state":"SL"},{"address":"Zum Striedt 59, 66589 Merchweiler-Wemmetsweiler","fax":"06825-499738","full_time_school":false,"id":"SL-3113-201021","lat":49.370174,"lon":7.08505,"name":"Grundschule Merchweiler-Wemmetsweiler","official_id":"201021","phone":"06825-2144","school_type":"Grundschule","school_type_entity":"Grundschule","state":"SL"},{"address":"Kleiststraße 30, 66538 Neunkirchen","fax":"06821 9728485","full_time_school":false,"id":"SL-3114-101011","lat":49.35088,"lon":7.180937,"name":"Grundschule Bachschule Neunkirchen","official_id":"101011","phone":"06821-23455","school_type":"Grundschule","school_type_entity":"Grundschule","state":"SL"},{"address":"Berthold-Günther-Platz 5, 66539 Neunkirchen-Wellesweiler","fax":"06821-485341","full_time_school":true,"id":"SL-3114-101051","lat":50.79972,"lon":8,"name":"Grundschule Wellesweiler","official_id":"101051","phone":"06821-41252","school_type":"Grundschule","school_type_entity":"Grundschule","state":"SL"},{"address":"Kuchenbergstraße 47, 66540 Neunkirchen-Wiebelskirchen","fax":"06821-953475","full_time_school":true,"id":"SL-3114-101081","lat":49.36917,"lon":7.186046,"name":"Grundschule Wiebelskirchen","official_id":"101081","phone":"06821-53691","school_type":"Grundschule","school_type_entity":"Grundschule","state":"SL"},{"address":"Freiherr-von-Stein-Straße 6, 66540 Neunkirchen","fax":"06821-179228","full_time_school":false,"id":"SL-3114-101091","lat":49.338634,"lon":7.191438,"name":"Ganztagsgrundschule Am Stadtpark","official_id":"101091","phone":"06821-23429","school_type":"Grundschule","school_type_entity":"Grundschule","state":"SL"},{"address":"Zur Ewigkeit 7, 66539 Neunkirchen-Furpach","fax":"06821-308883","full_time_school":true,"id":"SL-3114-101101","lat":49.322659,"lon":7.21608,"name":"Grundschule Furpach","official_id":"101101","phone":"06821-31821","school_type":"Grundschule","school_type_entity":"Grundschule","state":"SL"},{"address":"Nachtigallenweg 45 a, 66538 Neunkirchen-Steinwald","fax":"06821-9046648","full_time_school":true,"id":"SL-3114-101111","lat":49.345717,"lon":7.1999,"name":"Grundschule Steinwald","official_id":"101111","phone":"06821-4018744","school_type":"Grundschule","school_type_entity":"Grundschule","state":"SL"},{"address":"Prälat-Schütz-Straße 15, 66540 Neunkirchen-Wiebelskirchen","fax":"06821-950444","full_time_school":true,"id":"SL-3114-102032","lat":49.366518,"lon":7.189038,"name":"Grundschule (privat)","official_id":"102032","phone":"06821-95040","school_type":"Grundschule","school_type_entity":"Grundschule","state":"SL"},{"address":"Freiherr v. Stein-Straße 16, 66564 Ottweiler","fax":"06824-709573","full_time_school":true,"id":"SL-3115-201011","lat":49.413005850000005,"lon":7.1917655,"name":"Grundschule Lehbesch","official_id":"201011","phone":"06824-2172","school_type":"Grundschule","school_type_entity":"Grundschule","state":"SL"},{"address":"Betzelbacher Weg 17, 66564 Ottweiler-Neumünster","fax":"06824-300904","full_time_school":true,"id":"SL-3115-201021","lat":49.403883,"lon":7.17317,"name":"Grundschule Neumünster","official_id":"201021","phone":"06824-4310","school_type":"Grundschule","school_type_entity":"Grundschule","state":"SL"},{"address":"Comeniusstraße 9, 66578 Schiffweiler","fax":"06821-634412","full_time_school":true,"id":"SL-3116-201011","lat":49.367479,"lon":7.127134,"name":"Grundschule Schiffweiler","official_id":"201011","phone":"06821-6048","school_type":"Grundschule","school_type_entity":"Grundschule","state":"SL"},{"address":"Im Wiesengrund, 66578 Schiffweiler-Landsweiler-Reden","fax":"06821-635523","full_time_school":true,"id":"SL-3116-201031","lat":49.361316,"lon":7.127437,"name":"Grundschule Landsweiler-Reden","official_id":"201031","phone":"06821-63174","school_type":"Grundschule","school_type_entity":"Grundschule","state":"SL"},{"address":"Karlstraße 19, 66578 Schiffweiler-Heiligenwald","fax":"06821-635516","full_time_school":true,"id":"SL-3116-201041","lat":49.354878,"lon":7.098692,"name":"Grundschule Heiligenwald","official_id":"201041","phone":"06821-6017","school_type":"Grundschule","school_type_entity":"Grundschule","state":"SL"},{"address":"Pestalozzistraße 3, 66583 Spiesen-Elversberg (Elversberg)","fax":"06821-742249","full_time_school":false,"id":"SL-3117-101011","lat":49.313241,"lon":7.12619,"name":"Grundschule Elversberg","official_id":"101011","phone":"06821-78168","school_type":"Grundschule","school_type_entity":"Grundschule","state":"SL"},{"address":"Pastor-Kollmann-Straße, 66583 Spiesen-Elversberg (Spiesen)","fax":"06821-742228","full_time_school":false,"id":"SL-3117-101021","lat":49.316131,"lon":7.15118,"name":"Grundschule Spiesen","official_id":"101021","phone":"06821-78163","school_type":"Grundschule","school_type_entity":"Grundschule","state":"SL"},{"address":"Römerstraße 7, 66763 Dillingen-Pachten","fax":"06831-1 27 38 35","full_time_school":true,"id":"SL-4111-201011","lat":48.597606,"lon":10.543148,"name":"Grundschule Dillingen I -Römerschule-","official_id":"201011","phone":"06831-1 27 28 84","school_type":"Grundschule","school_type_entity":"Grundschule","state":"SL"},{"address":"Kerlinger Straße 2, 66763 Dillingen","fax":"06831/7682059","full_time_school":true,"id":"SL-4111-201021","lat":49.345216,"lon":6.718444,"name":"Grundschule Dillingen II - Philipp-Schmitt-Schule","official_id":"201021","phone":"06831/7685670","school_type":"Grundschule","school_type_entity":"Grundschule","state":"SL"},{"address":"Friedrich-Ebert-Straße 69, 66763 Dillingen","fax":"06831-7614842","full_time_school":true,"id":"SL-4111-201031","lat":49.358126,"lon":6.723448,"name":"Grundschule Dillingen III Odilienschule","official_id":"201031","phone":"06831-7614840","school_type":"Grundschule","school_type_entity":"Grundschule","state":"SL"},{"address":"Richard-Wagner-Straße 16, 66763 Dillingen","fax":"06831-769508","full_time_school":true,"id":"SL-4111-201041","lat":49.371226,"lon":6.764857,"name":"Primsschule Grundschule Dillingen IV","official_id":"201041","phone":"06831-79886","school_type":"Grundschule","school_type_entity":"Grundschule","state":"SL"},{"address":"Mottener Straße 46, 66822 Lebach","fax":"06881-5390147","full_time_school":false,"id":"SL-4112-101011","lat":49.414085,"lon":6.903446,"name":"Grundschule Lebach","official_id":"101011","phone":"06881-537015","school_type":"Grundschule","school_type_entity":"Grundschule","state":"SL"},{"address":"Im Breitenfeld, 66822 Lebach-Landsweiler","fax":"06881-537758","full_time_school":true,"id":"SL-4112-101061","lat":49.391933,"lon":6.923229,"name":"Grundschule Landsweiler","official_id":"101061","phone":"06881-2116","school_type":"Grundschule","school_type_entity":"Grundschule","state":"SL"},{"address":"Pestalozzistraße 2-3, 66822 Lebach","fax":"06888-901324","full_time_school":false,"id":"SL-4112-101071","lat":49.462597,"lon":6.955548,"name":"Grundschule Steinbach","official_id":"101071","phone":"06888-282","school_type":"Grundschule","school_type_entity":"Grundschule","state":"SL"},{"address":"Dillinger Straße 67, 66822 Lebach","fax":"06881-91324","full_time_school":true,"id":"SL-4112-101092","lat":49.404791,"lon":6.895171,"name":"Grundschule Lebach (Nikolaus Groß)","official_id":"101092","phone":"06881-91323","school_type":"Grundschule","school_type_entity":"Grundschule","state":"SL"},{"address":"Piesbacher Str. 11a, 66809 Nalbach","fax":"06838-9812019","full_time_school":true,"id":"SL-4113-101031","lat":49.38039,"lon":6.791233,"name":"Grundschule Nalbach","official_id":"101031","phone":"06838-981200","school_type":"Grundschule","school_type_entity":"Grundschule","state":"SL"},{"address":"Niedaltdorfer Straße 32, 66780 Rehlingen-Siersburg","fax":"06833-894652","full_time_school":true,"id":"SL-4114-201031","lat":49.354785,"lon":6.613296,"name":"Grundschule Hemmersdorf","official_id":"201031","phone":"06833-235","school_type":"Grundschule","school_type_entity":"Grundschule","state":"SL"},{"address":"Zum Horst 12, 66780 Rehlingen-Siersburg","fax":"06835-601349","full_time_school":true,"id":"SL-4114-201041","lat":49.357686,"lon":6.665181,"name":"Grundschule Siersburg","official_id":"201041","phone":"06835-601348","school_type":"Grundschule","school_type_entity":"Grundschule","state":"SL"},{"address":"Beckinger Straße 25, 66780 Rehlingen-Siersburg","fax":"06835-600132","full_time_school":true,"id":"SL-4114-201051","lat":49.37949,"lon":6.684736,"name":"Grundschule Rehlingen","official_id":"201051","phone":"06835-600130","school_type":"Grundschule","school_type_entity":"Grundschule","state":"SL"},{"address":"Taubenstraße 1, 66740 Saarlouis","fax":"06831-94589430","full_time_school":true,"id":"SL-4115-101021","lat":49.309002,"lon":6.74138,"name":"Grund- und Ganztagsgrundschule","official_id":"101021","phone":"06831-9458940","school_type":"Grundschule","school_type_entity":"Grundschule","state":"SL"},{"address":"Bruchwiesenstraße 2, 66740 Saarlouis-Beaumarais","fax":"06831-9969926","full_time_school":true,"id":"SL-4115-101031","lat":49.314001,"lon":6.723667,"name":"Grundschule Beaumarais","official_id":"101031","phone":"06831-996992","school_type":"Grundschule","school_type_entity":"Grundschule","state":"SL"},{"address":"Klosterstraße 17, 66740 Saarlouis-Fraulautern","fax":"06831-98698719","full_time_school":true,"id":"SL-4115-101041","lat":49.323138,"lon":6.762839,"name":"Grundschule Im Alten Kloster","official_id":"101041","phone":"06831-9869870","school_type":"Grundschule","school_type_entity":"Grundschule","state":"SL"},{"address":"Prof.-Ecker-Straße 13, 66740 Saarlouis-Lisdorf","fax":"06831-94588920","full_time_school":true,"id":"SL-4115-101061","lat":49.301106,"lon":6.762984,"name":"Grundschule Lisdorf","official_id":"101061","phone":"06831-9458890","school_type":"Grundschule","school_type_entity":"Grundschule","state":"SL"},{"address":"Roemerstraße 20, 66740 Saarlouis-Roden","fax":"06831-98698117","full_time_school":false,"id":"SL-4115-101071","lat":49.31667,"lon":6.75,"name":"Grundschule Römerberg","official_id":"101071","phone":"06831-9869810","school_type":"Grundschule","school_type_entity":"Grundschule","state":"SL"},{"address":"Kurt-Schumacher-Allee 127, 66740 Saarlouis-Steinrausch","fax":"06831-9869893","full_time_school":true,"id":"SL-4115-101081","lat":49.334253,"lon":6.765108,"name":"Grundschule Steinrausch","official_id":"101081","phone":"06831-9869890","school_type":"Grundschule","school_type_entity":"Grundschule","state":"SL"},{"address":"Rodener Straße 11b, 66793 Saarwellingen","fax":"06838 983808","full_time_school":true,"id":"SL-4116-101011","lat":49.35396,"lon":6.799716,"name":"Grundschule Gutberg Saarwellingen","official_id":"101011","phone":"06838-983807","school_type":"Grundschule","school_type_entity":"Grundschule","state":"SL"},{"address":"Lohwiese 13, 66793 Saarwellingen-Reisbach","fax":"06838 830847","full_time_school":true,"id":"SL-4116-101031","lat":49.351209,"lon":6.828922,"name":"Grundschule Reisbach","official_id":"101031","phone":"06838-830846","school_type":"Grundschule","school_type_entity":"Grundschule","state":"SL"},{"address":"Saarbrücker Straße 37, 66839 Schmelz","fax":"06887-889611","full_time_school":true,"id":"SL-4117-101011","lat":49.440871,"lon":6.860859,"name":"Grundschule Schmelz","official_id":"101011","phone":"06887-2502","school_type":"Grundschule","school_type_entity":"Grundschule","state":"SL"},{"address":"Im Fluerchen 19a, 66839 Schmelz-Hüttersdorf","fax":"06887-300094","full_time_school":true,"id":"SL-4117-101031","lat":49.41888,"lon":6.843481,"name":"Grundschule Hüttersdorf","official_id":"101031","phone":"06887-2391","school_type":"Grundschule","school_type_entity":"Grundschule","state":"SL"},{"address":"Am Howatt 29, 66773 Schwalbach","fax":"06834-401868","full_time_school":true,"id":"SL-4118-201021","lat":49.299391,"lon":6.801911,"name":"Grundschule Schwalbach Kirchbergschule","official_id":"201021","phone":"06834-52700","school_type":"Grundschule","school_type_entity":"Grundschule","state":"SL"},{"address":"Bachtalschule, 66773 Schwalbach-Elm","fax":"06834-952791","full_time_school":true,"id":"SL-4118-201051","lat":49.29145,"lon":6.83796,"name":"Grundschule Elm","official_id":"201051","phone":"06834-51180","school_type":"Grundschule","school_type_entity":"Grundschule","state":"SL"},{"address":"Zur Turnhalle 7, 66773 Schwalbach-Hülzweiler","fax":"06831-5010116","full_time_school":true,"id":"SL-4118-201061","lat":49.321341,"lon":6.816508,"name":"Grundschule Hülzweiler","official_id":"201061","phone":"06831-52237","school_type":"Grundschule","school_type_entity":"Grundschule","state":"SL"},{"address":"Waldstraße 15, 66802 Überherrn","fax":"06836-2724","full_time_school":true,"id":"SL-4119-201011","lat":49.238945,"lon":6.696793,"name":"Grundschule Überherrn","official_id":"201011","phone":"06836-2644","school_type":"Grundschule","school_type_entity":"Grundschule","state":"SL"},{"address":"St. Oranna, 66802 Überherrn","fax":"06836-684991","full_time_school":true,"id":"SL-4119-201041","lat":49.25,"lon":6.7,"name":"Grundschule Berus","official_id":"201041","phone":"06836-2426","school_type":"Grundschule","school_type_entity":"Grundschule","state":"SL"},{"address":"Abteistraße 18a, 66787 Wadgassen","fax":"06834-409433","full_time_school":true,"id":"SL-4120-201011","lat":49.268759,"lon":6.798807,"name":"Grundschule Wadgassen","official_id":"201011","phone":"06834-409428","school_type":"Grundschule","school_type_entity":"Grundschule","state":"SL"},{"address":"Friedhofstraße 10, 66787 Wadgassen","fax":"06834-697204","full_time_school":true,"id":"SL-4120-201031","lat":49.240115,"lon":6.776975,"name":"Grundschule Differten/Werbeln","official_id":"201031","phone":"06834-61460","school_type":"Grundschule","school_type_entity":"Grundschule","state":"SL"},{"address":"Kaiserstraße 17 A, 66787 Wadgassen-Hostenbach","fax":"06834-49677","full_time_school":true,"id":"SL-4120-201041","lat":49.263003,"lon":6.823257,"name":"Grundschule Hostenbach-Schaffhausen","official_id":"201041","phone":"06834-490629","school_type":"Grundschule","school_type_entity":"Grundschule","state":"SL"},{"address":"Adolphshöhe 1, 66798 Wallerfangen","fax":"06831-643422","full_time_school":true,"id":"SL-4121-201021","lat":49.31278,"lon":6.735,"name":"Grundschule Wallerfangen","official_id":"201021","phone":"06831-965199","school_type":"Grundschule","school_type_entity":"Grundschule","state":"SL"},{"address":"Gaustraße 22, 66798 Wallerfangen-Gisingen","fax":"06837-7080051","full_time_school":true,"id":"SL-4121-201031","lat":49.33351,"lon":6.658061,"name":"Grundschule Wallerfangen-Gisingen","official_id":"201031","phone":"06837-91001","school_type":"Grundschule","school_type_entity":"Grundschule","state":"SL"},{"address":"Auf der Mühlenscheib, 66359 Bous","fax":"06834-922217","full_time_school":true,"id":"SL-4122-201031","lat":49.281644,"lon":6.804853,"name":"Grundschule Bous","official_id":"201031","phone":"06834-922215","school_type":"Grundschule","school_type_entity":"Grundschule","state":"SL"},{"address":"Parkstr.16, 66806 Ensdorf","fax":"06831-507441","full_time_school":true,"id":"SL-4123-201051","lat":49.3,"lon":6.76667,"name":"Grundschule Ensdorf","official_id":"201051","phone":"06831-506096","school_type":"Grundschule","school_type_entity":"Grundschule","state":"SL"},{"address":"Schillerstraße 8b, 66450 Bexbach","fax":"06826-189680","full_time_school":true,"id":"SL-5111-101011","lat":49.351472,"lon":7.254306,"name":"Grundschule Bexbach","official_id":"101011","phone":"06826 5959","school_type":"Grundschule","school_type_entity":"Grundschule","state":"SL"},{"address":"Pfarrer-Layes-Straße, 66450 Bexbach-Frankenholz","fax":"06826-800842","full_time_school":true,"id":"SL-5111-101021","lat":49.3788678,"lon":7.2571333,"name":"Schillerschule Grundschule am Höcherberg","official_id":"101021","phone":"06826-800843","school_type":"Grundschule","school_type_entity":"Grundschule","state":"SL"},{"address":"Am Kälberberg, 66450 Bexbach-Oberbexbach","fax":"06826-800970","full_time_school":true,"id":"SL-5111-101051","lat":49.349001,"lon":7.258511,"name":"Grundschule Oberbexbach","official_id":"101051","phone":"06826-6013","school_type":"Grundschule","school_type_entity":"Grundschule","state":"SL"},{"address":"Edith-Stein-Straße 4, 66440 Blieskastel-Lautzkirchen","fax":"06842-538812","full_time_school":true,"id":"SL-5112-201021","lat":49.251037,"lon":7.257086,"name":"Grundschule Blieskastel, Kirchberg-Schlossberg","official_id":"201021","phone":"06842-3566","school_type":"Grundschule","school_type_entity":"Grundschule","state":"SL"},{"address":"Griessackerweg 13, 66440 Blieskastel-Breitfurt","fax":"06842-538148","full_time_school":false,"id":"SL-5112-201071","lat":49.2263891,"lon":7.2684335,"name":"Grundschule Breitfurt/Blickweiler","official_id":"201071","phone":"06842-2474","school_type":"Grundschule","school_type_entity":"Grundschule","state":"SL"},{"address":"Kirkeler Straße 41, 66440 Bliesk. - Niederwürzbach","fax":"06842-891750","full_time_school":true,"id":"SL-5112-201081","lat":49.246038,"lon":7.201341,"name":"Grundschule am Würzbacher Weiher","official_id":"201081","phone":"06842-6183","school_type":"Grundschule","school_type_entity":"Grundschule","state":"SL"},{"address":"Burgstraße 11, 66453 Gersheim-Medelsheim","fax":"06844-991273","full_time_school":true,"id":"SL-5113-201021","lat":49.144851,"lon":7.267909,"name":"Grundschule Medelsheim","official_id":"201021","phone":"06844-324","school_type":"Grundschule","school_type_entity":"Grundschule","state":"SL"},{"address":"Grenzlandstraße 3, 66453 Gersheim-Reinheim","fax":"06843-902608","full_time_school":true,"id":"SL-5113-201031","lat":49.139341,"lon":7.179604,"name":"Grundschule Reinheim","official_id":"201031","phone":"06843-283","school_type":"Grundschule","school_type_entity":"Grundschule","state":"SL"},{"address":"Thomastraße 15, 66424 Homburg","fax":"06841-756679","full_time_school":true,"id":"SL-5114-101021","lat":49.332593,"lon":7.331111,"name":"Grundschule Langenäcker","official_id":"101021","phone":"06841-78274","school_type":"Grundschule","school_type_entity":"Grundschule","state":"SL"},{"address":"Rosenstraße 22, 66424 Homburg-Bruchhof","fax":"06841-120565","full_time_school":false,"id":"SL-5114-101041","lat":49.344636,"lon":7.366427,"name":"Grundschule Bruchhof","official_id":"101041","phone":"06841-3219","school_type":"Grundschule","school_type_entity":"Grundschule","state":"SL"},{"address":"Luitpoldstraße 9, 66424 Homburg","fax":"06841-757319","full_time_school":false,"id":"SL-5114-101051","lat":49.341951,"lon":7.33352,"name":"Grundschule Luitpold","official_id":"101051","phone":"06841-78465","school_type":"Grundschule","school_type_entity":"Grundschule","state":"SL"},{"address":"Akazienweg 3, 66424 Homburg","fax":"06841-99300715","full_time_school":false,"id":"SL-5114-101061","lat":49.311153,"lon":7.339683,"name":"Grundschule Sonnenfeld","official_id":"101061","phone":"06841-9930070","school_type":"Grundschule","school_type_entity":"Grundschule","state":"SL"},{"address":"Im Wieschen, 66424 Homburg-Einöd","fax":"06848-730009","full_time_school":true,"id":"SL-5114-101081","lat":49.273661,"lon":7.321802,"name":"Grundschule Einöd","official_id":"101081","phone":"06848-6366","school_type":"Grundschule","school_type_entity":"Grundschule","state":"SL"},{"address":"Talstraße 1-3, 66459 Kirkel-Limbach","fax":"06841-890134","full_time_school":true,"id":"SL-5115-101021","lat":49.472587,"lon":9.150975,"name":"Grundschule Limbach","official_id":"101021","phone":"06841-80583","school_type":"Grundschule","school_type_entity":"Grundschule","state":"SL"},{"address":"Friedhofstraße, 66459 Kirkel-Neuhäusel","fax":"06849-774","full_time_school":true,"id":"SL-5115-101031","lat":49.285169,"lon":7.230998,"name":"Grundschule Kirkel-Neuhäusel","official_id":"101031","phone":"06849-325","school_type":"Grundschule","school_type_entity":"Grundschule","state":"SL"},{"address":"Schützengasse 6, 66399 Mandelbachtal-Erfweiler-Ehlingen","fax":null,"full_time_school":true,"id":"SL-5116-201031","lat":49.196805,"lon":7.181666,"name":"Arnold-Rütter-Schule der Gemeinde Mandelbachtal","official_id":"201031","phone":"06803-2758","school_type":"Grundschule","school_type_entity":"Grundschule","state":"SL"},{"address":"Theo - Carlen - Platz 4, 66399 Mandelbachtal-Ormesheim","fax":"06893-986104","full_time_school":true,"id":"SL-5116-201051","lat":49.198191,"lon":7.144082,"name":"Theo-Carlen-Schule der Gemeinde Mandelbachtal","official_id":"201051","phone":"06893-3881","school_type":"Grundschule","school_type_entity":"Grundschule","state":"SL"},{"address":"Robert-Koch-Straße 4, 66386 St.Ingbert","fax":"06894-382419","full_time_school":true,"id":"SL-5117-201011","lat":49.289082,"lon":7.119337,"name":"Grundschule Albert-Weisgerber","official_id":"201011","phone":"06894-37565","school_type":"Grundschule","school_type_entity":"Grundschule","state":"SL"},{"address":"Zur Rothell 20, 66386 St.Ingbert","fax":"06894-385989","full_time_school":true,"id":"SL-5117-201021","lat":49.286051,"lon":7.097139,"name":"Grundschule Rischbachschule","official_id":"201021","phone":"06894-34567","school_type":"Grundschule","school_type_entity":"Grundschule","state":"SL"},{"address":"Hochstraße 47, 66386 St.Ingbert-Rohrbach","fax":"06894-959085","full_time_school":false,"id":"SL-5117-201071","lat":49.279784,"lon":7.165317,"name":"Grundschule Rohrbach Pestalozzischule","official_id":"201071","phone":"06894-52413","school_type":"Grundschule","school_type_entity":"Grundschule","state":"SL"},{"address":"Fidelisstraße, 66386 St.Ingbert","fax":"06894-870214","full_time_school":false,"id":"SL-5117-201101","lat":49.274704,"lon":7.128784,"name":"Grundschule Südschule","official_id":"201101","phone":"06894-6913","school_type":"Grundschule","school_type_entity":"Grundschule","state":"SL"},{"address":"Hasenfelsstraße 12, 66386 St. Ingbert-Oberwürzbach","fax":"06894-5823232","full_time_school":true,"id":"SL-5117-201112","lat":49.2418,"lon":7.144984,"name":"Montessori Grundschule Am Hasenfels","official_id":"201112","phone":"06894/7710","school_type":"Grundschule","school_type_entity":"Grundschule","state":"SL"},{"address":"Rosenstr. 19 a, 66629 Freisen-Oberkirchen","fax":"06855/184656","full_time_school":true,"id":"SL-6111-201021","lat":49.523183,"lon":7.25463,"name":"Grundschule Freisen/ Oberkirchen","official_id":"201021","phone":"06855-344","school_type":"Grundschule","school_type_entity":"Grundschule","state":"SL"},{"address":"Marienstraße 21a, 66646 Marpingen","fax":"06853-9198598","full_time_school":true,"id":"SL-6112-101011","lat":49.450854,"lon":7.05532,"name":"Grundschule Marpingen","official_id":"101011","phone":"06853-9198590","school_type":"Grundschule","school_type_entity":"Grundschule","state":"SL"},{"address":"Goethestraße 8, 66640 Namborn","fax":"06854/90 895830","full_time_school":true,"id":"SL-6113-201011","lat":49.518215,"lon":7.142682,"name":"Grundschule Namborn, Marienschule","official_id":"201011","phone":"06854/90 895810","school_type":"Grundschule","school_type_entity":"Grundschule","state":"SL"},{"address":"Kirchstraße 6, 66625 Nohfelden-Gonnesweiler","fax":"06852-802396","full_time_school":true,"id":"SL-6114-201011","lat":49.566133,"lon":7.092526,"name":"Grundschule der Gemeinde Nohfelden","official_id":"201011","phone":"06852-802395","school_type":"Grundschule","school_type_entity":"Grundschule","state":"SL"},{"address":"Auf der Geig 12, 66620 Nonnweiler","fax":"06873-992054","full_time_school":true,"id":"SL-6115-201031","lat":49.609215,"lon":6.967284,"name":"Grundschule Nonnweiler","official_id":"201031","phone":"06873-7131","school_type":"Grundschule","school_type_entity":"Grundschule","state":"SL"},{"address":"Schwimmbadstraße 35, 66649 Oberthal","fax":"06854-802757","full_time_school":true,"id":"SL-6116-201021","lat":49.508196,"lon":7.079874,"name":"Grundschule Oberthal","official_id":"201021","phone":"06854-802756","school_type":"Grundschule","school_type_entity":"Grundschule","state":"SL"},{"address":"Am Flur 12, 66606 St.Wendel-Oberlinxweiler","fax":"06851-840306","full_time_school":true,"id":"SL-6117-101021","lat":49.454396,"lon":7.146732,"name":"Grundschule Oberlinxweiler","official_id":"101021","phone":"06851-2942","school_type":"Grundschule","school_type_entity":"Grundschule","state":"SL"},{"address":"Webergasse, 66606 St.Wendel-Bliesen","fax":"06854-803726","full_time_school":false,"id":"SL-6117-101051","lat":49.49273,"lon":7.113314,"name":"Grundschule Bliesen","official_id":"101051","phone":"06854-8557","school_type":"Grundschule","school_type_entity":"Grundschule","state":"SL"},{"address":"Ebereschenstraße 18, 66606 St. Wendel-Niederkirchen","fax":"06856-892140","full_time_school":true,"id":"SL-6117-101061","lat":49.469007,"lon":7.248523,"name":"Grundschule Niederkirchen","official_id":"101061","phone":"06856-404","school_type":"Grundschule","school_type_entity":"Grundschule","state":"SL"},{"address":"Nikolaus-Obertreis-Straße, 66606 St. Wendel","fax":"06851-839371","full_time_school":true,"id":"SL-6117-101071","lat":49.4645622,"lon":7.1715026,"name":"Grundschule Nikolaus-Obertreis","official_id":"101071","phone":"06851-3221","school_type":"Grundschule","school_type_entity":"Grundschule","state":"SL"},{"address":"Parkstraße 7-9, 66636 Tholey-Hasborn-Dautweiler","fax":"06853-892367","full_time_school":true,"id":"SL-6118-101031","lat":49.491465,"lon":6.981883,"name":"Grundschule Hasborn-Dautweiler","official_id":"101031","phone":"06853-6440","school_type":"Grundschule","school_type_entity":"Grundschule","state":"SL"},{"address":"Selbacher Straße 4, 66636 Tholey-Theley","fax":"06853-5020562","full_time_school":true,"id":"SL-6118-101051","lat":49.501724,"lon":7.022935,"name":"Grundschule Theley","official_id":"101051","phone":"06853-5020561","school_type":"Grundschule","school_type_entity":"Grundschule","state":"SL"},{"address":"Von der Heydt 9a, 66115 Saarbrücken-Von der Heydt","fax":"0681-75359520","full_time_school":false,"id":"SL-1100-118011","lat":49.241434,"lon":6.96088,"name":"Förderschule soziale Entwicklung","official_id":"118011","phone":"0681-7535950","school_type":"Förderschule","school_type_entity":"Förderschule","state":"SL"},{"address":"Ziegelstrasse, 66113 Saarbrücken","fax":"0681-498693","full_time_school":false,"id":"SL-1100-317011","lat":49.246887,"lon":6.987662,"name":"Förderschule Lernen","official_id":"317011","phone":"0681-47741","school_type":"Förderschule","school_type_entity":"Förderschule","state":"SL"},{"address":"In den Grasgärten, 66126 Saarbrücken-Altenkessel","fax":"06898-81821","full_time_school":false,"id":"SL-1100-317021","lat":49.2482586,"lon":6.9154553,"name":"Förderschule Lernen","official_id":"317021","phone":"06898-81826","school_type":"Förderschule","school_type_entity":"Förderschule","state":"SL"},{"address":"Schulstraße 93, 66125 Saarbrücken-Dudweiler","fax":"0681-31230","full_time_school":false,"id":"SL-1100-317031","lat":49.268722,"lon":7.007276,"name":"Förderschule Lernen Dudweiler","official_id":"317031","phone":"0681-36155","school_type":"Förderschule","school_type_entity":"Förderschule","state":"SL"},{"address":"Winterbachsroth 9, 66125 Saarbrücken-Dudweiler","fax":"06897-9520905","full_time_school":false,"id":"SL-1100-420021","lat":49.275879,"lon":7.03638,"name":"Förderschule geistige Entwicklung","official_id":"420021","phone":"06897-952090","school_type":"Förderschule","school_type_entity":"Förderschule","state":"SL"},{"address":"Hofstraße 5a, 66299 Friedrichsthal-Bildstock","fax":"06897-88271","full_time_school":false,"id":"SL-1511-217011","lat":49.333148,"lon":7.094364,"name":"Förderschule Lernen -Hofschule-","official_id":"217011","phone":"06897-88223","school_type":"Förderschule","school_type_entity":"Förderschule","state":"SL"},{"address":"Goethestraße 8, 66265 Heusweiler","fax":"06806 9949939","full_time_school":false,"id":"SL-1513-420011","lat":49.336842,"lon":6.924043,"name":"Förderschule geistige Entwicklung Heusweiler","official_id":"420011","phone":"06806 9949930","school_type":"Förderschule","school_type_entity":"Förderschule","state":"SL"},{"address":"Köllertalstrasse 145, 66346 Püttlingen","fax":"06806-46649","full_time_school":false,"id":"SL-1515-121011","lat":49.29443,"lon":6.891063,"name":"Förderschule körperliche und motorische Entwicklung","official_id":"121011","phone":"06806-46630","school_type":"Förderschule","school_type_entity":"Förderschule","state":"SL"},{"address":"Brennender-Berg-Str., 66280 Sulzbach-Neuweiler","fax":"06897-567113","full_time_school":false,"id":"SL-1518-227011","lat":49.288888888889,"lon":7.0536111111111,"name":"Förderschule Sprache Weierwiesschule","official_id":"227011","phone":"06897-3512","school_type":"Förderschule","school_type_entity":"Förderschule","state":"SL"},{"address":"Friedhofstraße 9, 66333 Völklingen-Geislautern","fax":"06898-78286","full_time_school":false,"id":"SL-1519-117011","lat":49.237487,"lon":6.833536,"name":"Förderschule Lernen","official_id":"117011","phone":"06898-78235","school_type":"Förderschule","school_type_entity":"Förderschule","state":"SL"},{"address":"Im Schneppenbruch 14, 66679 Losheim am See/Niederlosheim","fax":"06872-887596","full_time_school":false,"id":"SL-2112-217011","lat":49.501918,"lon":6.789229,"name":"Förderschule Lernen, Schule Am Kappwald","official_id":"217011","phone":"06872-2992","school_type":"Förderschule","school_type_entity":"Förderschule","state":"SL"},{"address":"Ringstrasse 3, 66663 Merzig-Brotdorf","fax":"06861-780907","full_time_school":false,"id":"SL-2113-117011","lat":49.473544,"lon":6.676746,"name":"Förderschule Lernen -Schule Auf der Wild-","official_id":"117011","phone":"06861-78461","school_type":"Förderschule","school_type_entity":"Förderschule","state":"SL"},{"address":"Zum Broch 3, 66663 Merzig-Merchingen","fax":"06861-792656","full_time_school":false,"id":"SL-2113-120011","lat":49.441763,"lon":6.682816,"name":"Förderschule geistige Entwicklung","official_id":"120011","phone":"06861-2668","school_type":"Förderschule","school_type_entity":"Förderschule","state":"SL"},{"address":"Am Wergkäulchen 22, 66687 Wadern-Noswendel","fax":"06871-921640","full_time_school":false,"id":"SL-2116-217011","lat":49.527555,"lon":6.895606,"name":"Förderschule Lernen -Noswendel-","official_id":"217011","phone":"06871-2588","school_type":"Förderschule","school_type_entity":"Förderschule","state":"SL"},{"address":"Am Rotenberg 3, 66571 Eppelborn-Dirmingen","fax":"06827-3552","full_time_school":false,"id":"SL-3111-220012","lat":49.42156,"lon":7.011977,"name":"Private Förderschule geistige Entwicklung Rothenbergschule","official_id":"220012","phone":"06827-415","school_type":"Förderschule","school_type_entity":"Förderschule","state":"SL"},{"address":"Am Markt, 66557 Illingen-Uchtelfangen","fax":"06825-406433","full_time_school":false,"id":"SL-3112-217011","lat":49.36667,"lon":7.03333,"name":"Förderschule Lernen","official_id":"217011","phone":"06825-3344","school_type":"Förderschule","school_type_entity":"Förderschule","state":"SL"},{"address":"Jägermeisterpfad, 66538 Neunkirchen","fax":"06821-290640","full_time_school":false,"id":"SL-3114-117011","lat":49.356224,"lon":7.186056,"name":"Förderschule Lernen","official_id":"117011","phone":"06821-2906 0","school_type":"Förderschule","school_type_entity":"Förderschule","state":"SL"},{"address":"Hardenbergstraße 2, 66538 Neunkirchen","fax":"06821-860244","full_time_school":false,"id":"SL-3114-118012","lat":49.340383,"lon":7.192608,"name":"Private Förderschule soziale Entwicklung","official_id":"118012","phone":"06821-860247","school_type":"Förderschule","school_type_entity":"Förderschule","state":"SL"},{"address":"Jägermeisterpfad, 66538 Neunkirchen","fax":"06821-290543","full_time_school":false,"id":"SL-3114-120011","lat":49.356224,"lon":7.186056,"name":"Förderschule geistige Entwicklung","official_id":"120011","phone":"06821-29050","school_type":"Förderschule","school_type_entity":"Förderschule","state":"SL"},{"address":"Am Buehl 8, 66564 Ottweiler-Mainzweiler","fax":"06824-91109","full_time_school":false,"id":"SL-3115-220012","lat":49.402037,"lon":7.155663,"name":"Private Förderschule geistige Entwicklung","official_id":"220012","phone":"06824-91107","school_type":"Förderschule","school_type_entity":"Förderschule","state":"SL"},{"address":"Luisenstraße 4, 66763 Dillingen","fax":"06831-767177","full_time_school":false,"id":"SL-4111-220012","lat":49.348896,"lon":6.714917,"name":"Schule am Ökosee AWO Förderschule geistige Entwicklung","official_id":"220012","phone":"06831/767171","school_type":"Förderschule","school_type_entity":"Förderschule","state":"SL"},{"address":"An der Ziegelhütte 1, 66822 Lebach","fax":"06881-53060","full_time_school":false,"id":"SL-4112-217011","lat":49.415156,"lon":6.904996,"name":"Förderschule Lernen","official_id":"217011","phone":"06881-3209","school_type":"Förderschule","school_type_entity":"Förderschule","state":"SL"},{"address":"Dillinger Straße 69, 66822 Lebach","fax":"06881-928309","full_time_school":false,"id":"SL-4112-223011","lat":49.404611,"lon":6.891409,"name":"Förderschule für Gehörlose und Schwerhörige","official_id":"223011","phone":"06881-928311","school_type":"Förderschule","school_type_entity":"Förderschule","state":"SL"},{"address":"Dillinger Straße 69, 66822 Lebach","fax":"06881-928400","full_time_school":false,"id":"SL-4112-226011","lat":49.404611,"lon":6.891409,"name":"Förderschule für Blinde und Sehbehinderte","official_id":"226011","phone":"06881-928321","school_type":"Förderschule","school_type_entity":"Förderschule","state":"SL"},{"address":"Zeughausstraße 32, 66740 Saarlouis","fax":"06831-460035","full_time_school":false,"id":"SL-4115-117011","lat":49.317758,"lon":6.756091,"name":"Förderschule Lernen","official_id":"117011","phone":"06831-3843","school_type":"Förderschule","school_type_entity":"Förderschule","state":"SL"},{"address":"Adolf-Hetzler-Straße 3, 66740 Saarlouis","fax":"06831-964794","full_time_school":false,"id":"SL-4115-118011","lat":49.314572,"lon":6.754432,"name":"Förderschule soziale Entwicklung","official_id":"118011","phone":"06831-61277","school_type":"Förderschule","school_type_entity":"Förderschule","state":"SL"},{"address":"Bahnhofstraße 269, 66793 Saarwellingen","fax":"06838 983901","full_time_school":false,"id":"SL-4116-120011","lat":49.368324,"lon":6.793672,"name":"Förderschule geistige Entwicklung","official_id":"120011","phone":"06838-983900","school_type":"Förderschule","school_type_entity":"Förderschule","state":"SL"},{"address":"Alleestraße 20, 66773 Schwalbach","fax":"06834-953901","full_time_school":false,"id":"SL-4118-117011","lat":49.295446,"lon":6.797597,"name":"Anne-Frank-Schule Saarlouis Dependance Schwalbach","official_id":"117011","phone":"06834-953900","school_type":"Förderschule","school_type_entity":"Förderschule","state":"SL"},{"address":"Am Schloss 10 - 10a, 66440 Blieskastel","fax":"06842-924317","full_time_school":false,"id":"SL-5112-217011","lat":49.236211,"lon":7.255007,"name":"Förderschule Lernen - Franz-Carl-Schule","official_id":"217011","phone":"06842-924328","school_type":"Förderschule","school_type_entity":"Förderschule","state":"SL"},{"address":"Oben am Dorf 60, 66453 Gersheim-Walsheim","fax":"06843-809-39","full_time_school":false,"id":"SL-5113-220012","lat":49.157038,"lon":7.228198,"name":"Anna Betzner Schule  Förderschule G in freier Trägerschaft","official_id":"220012","phone":"06843/809-0","school_type":"Förderschule","school_type_entity":"Förderschule","state":"SL"},{"address":"Warburgring 80, 66424 Homburg","fax":"06841-170096","full_time_school":false,"id":"SL-5114-000001","lat":49.306691,"lon":7.338854,"name":"Der Landesbeauftragte für den Krankenhaus- und Hausunterricht","official_id":"000001","phone":"06841-170092","school_type":"Förderschule","school_type_entity":"Förderschule","state":"SL"},{"address":"Spandauer Straße, 66424 Homburg","fax":"06841/9729430","full_time_school":false,"id":"SL-5114-117011","lat":49.3406349,"lon":7.3283072,"name":"Förderschule Lernen","official_id":"117011","phone":"06841-972940","school_type":"Förderschule","school_type_entity":"Förderschule","state":"SL"},{"address":"Spandauer Straße, 66424 Homburg","fax":null,"full_time_school":false,"id":"SL-5114-120011","lat":49.3406349,"lon":7.3283072,"name":"Förderschule geistige Entwicklung","official_id":"120011","phone":"06841-972940","school_type":"Förderschule","school_type_entity":"Förderschule","state":"SL"},{"address":"Universitätskliniken 84, 66424 Homburg","fax":"06841-1627514","full_time_school":false,"id":"SL-5114-121011","lat":49.303134,"lon":7.340201,"name":"Förderschule körperliche und motorische Entwicklung","official_id":"121011","phone":"06841-1627400","school_type":"Förderschule","school_type_entity":"Förderschule","state":"SL"},{"address":"Zur Schnapphahner Dell 1, 66386 St. Ingbert","fax":"06894-9989925","full_time_school":false,"id":"SL-5117-217011","lat":49.270124,"lon":7.101926,"name":"Förderschule Lernen","official_id":"217011","phone":"06894-9989920","school_type":"Förderschule","school_type_entity":"Förderschule","state":"SL"},{"address":"Am Hirtenbrunnen 7, 66640 Namborn-Baltersweiler","fax":"06851/839896","full_time_school":false,"id":"SL-6113-220011","lat":49.495608,"lon":7.163946,"name":"Förderschule geistige Entwicklung","official_id":"220011","phone":"06851-3160","school_type":"Förderschule","school_type_entity":"Förderschule","state":"SL"},{"address":"Schwimmbadstraße 39, 66649 Oberthal","fax":"06854-7230","full_time_school":false,"id":"SL-6116-217011","lat":49.509924,"lon":7.078162,"name":"Förderschule Lernen","official_id":"217011","phone":"06854-7314","school_type":"Förderschule","school_type_entity":"Förderschule","state":"SL"},{"address":"Pestalozzistraße 7, 66606 St. Wendel","fax":"06851-806370","full_time_school":false,"id":"SL-6117-119011","lat":49.472327,"lon":7.158928,"name":"Förderschule soziale Entwicklung - Wingert-Schule","official_id":"119011","phone":"06851-6870","school_type":"Förderschule","school_type_entity":"Förderschule","state":"SL"},{"address":"Sachsenweg 3, 66121 Saarbrücken","fax":"0681-6683530","full_time_school":false,"id":"SL-1100-307042","lat":49.234129,"lon":7.006891,"name":"Willi-Graf-Realschule","official_id":"307042","phone":"0681-6683512","school_type":"Realschule","school_type_entity":"Realschule","state":"SL"},{"address":"Prälat-Schütz-Straße 15, 66540 Neunkirchen-Wiebelskirchen","fax":"06821-950444","full_time_school":true,"id":"SL-3114-108012","lat":49.366518,"lon":7.189038,"name":"Maximilian-Kolbe-Schule","official_id":"108012","phone":"06821-95040","school_type":"Realschule","school_type_entity":"Realschule","state":"SL"},{"address":"Auf der Meß 16, 66386 St. Ingbert","fax":"06894-3287","full_time_school":true,"id":"SL-5117-207022","lat":49.277564,"lon":7.115909,"name":"Albertus-Magnus-Realschule (privat)","official_id":"207022","phone":"06894-2242","school_type":"Realschule","school_type_entity":"Realschule","state":"SL"},{"address":"Sachsenweg 8, 66121 Saarbrücken","fax":"0681-61598","full_time_school":false,"id":"SL-1100-350011","lat":49.233296,"lon":7.007854,"name":"Erweiterte Realschule Bruchwiese","official_id":"350011","phone":"0681/635032","school_type":"erweiterte Realschule","school_type_entity":"erweiterte Realschule","state":"SL"},{"address":"Hauptstraße 53, 66127 Saarbrücken","fax":"06898-935899","full_time_school":true,"id":"SL-1100-350041","lat":49.23677,"lon":6.931615,"name":"Erweiterte Realschule Klarenthal","official_id":"350041","phone":"06898/37558","school_type":"erweiterte Realschule","school_type_entity":"erweiterte Realschule","state":"SL"},{"address":"Saargemünder Straße 157, 66130 Saarbrücken","fax":"0681-8739990","full_time_school":true,"id":"SL-1100-450021","lat":49.200915,"lon":7.027992,"name":"Erweiterte Realschule Güdingen","official_id":"450021","phone":"0681/8739715","school_type":"erweiterte Realschule","school_type_entity":"erweiterte Realschule","state":"SL"},{"address":"Schulstraße 30, 66130 Saarbrücken-Fechingen","fax":"06893 8010127","full_time_school":true,"id":"SL-1100-450052","lat":49.201295,"lon":7.067612,"name":"Private Erweiterte Realschule des Don-Bosco-Schulvereins","official_id":"450052","phone":"0693 802759","school_type":"erweiterte Realschule","school_type_entity":"erweiterte Realschule","state":"SL"},{"address":"Schillerstraße 65, 66265 Heusweiler","fax":"06806/6634","full_time_school":true,"id":"SL-1513-250011","lat":49.333335,"lon":6.923151,"name":"Erweiterte Realschule Heusweiler","official_id":"250011","phone":"06806/6308","school_type":"erweiterte Realschule","school_type_entity":"erweiterte Realschule","state":"SL"},{"address":"Wintringer Straße 78, 66271 Kleinblittersdorf","fax":"06805-8427","full_time_school":true,"id":"SL-1514-450011","lat":49.163134,"lon":7.041739,"name":"Erweiterte Realschule Kleinblittersdorf","official_id":"450011","phone":"06805/1445","school_type":"erweiterte Realschule","school_type_entity":"erweiterte Realschule","state":"SL"},{"address":"Pickardstraße 33, 66346 Püttlingen","fax":"06898-64431","full_time_school":false,"id":"SL-1515-150011","lat":49.287387,"lon":6.886432,"name":"Erweiterte Realschule Püttlingen","official_id":"150011","phone":"06898/64421","school_type":"erweiterte Realschule","school_type_entity":"erweiterte Realschule","state":"SL"},{"address":"Schulzentrum Taubenfeld, 66287 Quierschied","fax":"06897/63478","full_time_school":true,"id":"SL-1516-250011","lat":49.31667,"lon":7.03333,"name":"Erweiterte Realschule Quierschied","official_id":"250011","phone":"06897/62212","school_type":"erweiterte Realschule","school_type_entity":"erweiterte Realschule","state":"SL"},{"address":"Parkstraße 10, 66280 Sulzbach","fax":"06897/952095-29","full_time_school":true,"id":"SL-1518-250011","lat":49.303969,"lon":7.060334,"name":"Erweiterte Realschule Am Vopeliuspark Sulzbach","official_id":"250011","phone":"06897/952095-0","school_type":"erweiterte Realschule","school_type_entity":"erweiterte Realschule","state":"SL"},{"address":"Heinestraße 70, 66333 Völklingen","fax":"06898/296911","full_time_school":true,"id":"SL-1519-150011","lat":49.257411,"lon":6.867823,"name":"Erweiterte Realschule Am Sonnenhügel","official_id":"150011","phone":"06898 9149730","school_type":"erweiterte Realschule","school_type_entity":"erweiterte Realschule","state":"SL"},{"address":"Heinestraße 70, 66333 Völklingen","fax":"06898/296911","full_time_school":true,"id":"SL-1519-150021","lat":49.257411,"lon":6.867823,"name":"Hermann-Neuberger-Schule Erweiterte Realschule Völklingen","official_id":"150021","phone":"06898 9149730","school_type":"erweiterte Realschule","school_type_entity":"erweiterte Realschule","state":"SL"},{"address":"Hindenburgstraße 19, 66701 Beckingen","fax":"06835/608199","full_time_school":true,"id":"SL-2111-250011","lat":49.388015,"lon":6.704213,"name":"Friedrich-Bernhard-Karcher-Schule Beckingen -Erweiterte Realschule-","official_id":"250011","phone":"06835/608190","school_type":"erweiterte Realschule","school_type_entity":"erweiterte Realschule","state":"SL"},{"address":"Von-Boch-Straße 75, 66663 Merzig","fax":"06861/7707729","full_time_school":true,"id":"SL-2113-150011","lat":49.436392,"lon":6.63556,"name":"Erweiterte Realschule Merzig","official_id":"150011","phone":"06861/770770","school_type":"erweiterte Realschule","school_type_entity":"erweiterte Realschule","state":"SL"},{"address":"Gartenfeldstraße 23, 66687 Wadern","fax":"06871-9230230","full_time_school":true,"id":"SL-2116-250011","lat":49.539803,"lon":6.88757,"name":"Graf Anton Schule Wadern -Erweiterte Realschule-","official_id":"250011","phone":"06871/923020","school_type":"erweiterte Realschule","school_type_entity":"erweiterte Realschule","state":"SL"},{"address":"Am Marktplatz 1, 66709 Weiskirchen","fax":"06876-7540","full_time_school":true,"id":"SL-2117-250011","lat":49.555815,"lon":6.817538,"name":"Eichenlaubschule Weiskirchen -Erweiterte Realschule-","official_id":"250011","phone":"06876/345","school_type":"erweiterte Realschule","school_type_entity":"erweiterte Realschule","state":"SL"},{"address":"Hellbergstraße 21, 66571 Eppelborn","fax":"06881-962129","full_time_school":false,"id":"SL-3111-250011","lat":49.404836,"lon":6.964012,"name":"Erweiterte Realschule Eppelborn","official_id":"250011","phone":"06881/962127","school_type":"erweiterte Realschule","school_type_entity":"erweiterte Realschule","state":"SL"},{"address":"Schwarzer Weg 2, 66557 Illingen","fax":"06825-942011","full_time_school":false,"id":"SL-3112-250011","lat":49.367616,"lon":7.042521,"name":"Erweiterte Realschule Illingen","official_id":"250011","phone":"06825/94200","school_type":"erweiterte Realschule","school_type_entity":"erweiterte Realschule","state":"SL"},{"address":"Bildstockstr. 127, 66589 Merchweiler","fax":"06825-42262","full_time_school":true,"id":"SL-3113-250011","lat":49.362267,"lon":7.077866,"name":"Erweiterte Realschule Merchweiler - Max von der Grün Schule","official_id":"250011","phone":"06825/42261","school_type":"erweiterte Realschule","school_type_entity":"erweiterte Realschule","state":"SL"},{"address":"Lutherstraße 2, 66538 Neunkirchen","fax":"06821-9997130","full_time_school":true,"id":"SL-3114-150011","lat":49.346785,"lon":7.176264,"name":"Erweiterte Realschule Neunkirchen Stadtmitte und Wiebelskirchen","official_id":"150011","phone":"06821-999710","school_type":"erweiterte Realschule","school_type_entity":"erweiterte Realschule","state":"SL"},{"address":"Pestalozzistraße, 66539 Neunkirchen","fax":"06821/940940","full_time_school":true,"id":"SL-3114-150021","lat":49.347308,"lon":7.226654,"name":"Erweiterte Realschule Neunkirchen -Wellesweiler","official_id":"150021","phone":"06821/94090","school_type":"erweiterte Realschule","school_type_entity":"erweiterte Realschule","state":"SL"},{"address":"Seminarstraße 56, 66564 Ottweiler","fax":"06824-4361","full_time_school":true,"id":"SL-3115-250011","lat":49.401034,"lon":7.157514,"name":"Erweiterte Realschule Ottweiler","official_id":"250011","phone":"06824/5320","school_type":"erweiterte Realschule","school_type_entity":"erweiterte Realschule","state":"SL"},{"address":"Am Ring 39 a, 66583 Spiesen-Elversberg","fax":"06821/970013","full_time_school":false,"id":"SL-3117-150011","lat":49.319441,"lon":7.134318,"name":"Erweiterte Realschule Spiesen-Elversberg","official_id":"150011","phone":"06821/97000","school_type":"erweiterte Realschule","school_type_entity":"erweiterte Realschule","state":"SL"},{"address":"Industriestraße 29, 66763 Dillingen","fax":"06831-9869601","full_time_school":true,"id":"SL-4111-250011","lat":49.350422,"lon":6.716099,"name":"Schule am Römerkastell Dillingen - Erweiterte Realschule","official_id":"250011","phone":"06831/9869600","school_type":"erweiterte Realschule","school_type_entity":"erweiterte Realschule","state":"SL"},{"address":"Mottener Straße 52, 66822 Lebach","fax":"06881/3025","full_time_school":false,"id":"SL-4112-250011","lat":49.414291,"lon":6.902927,"name":"Theeltalschule -Erweiterte Realschule- Lebach","official_id":"250011","phone":"06881/3065","school_type":"erweiterte Realschule","school_type_entity":"erweiterte Realschule","state":"SL"},{"address":"Dillinger Straße 67, 66822 Lebach","fax":"06881-91324","full_time_school":true,"id":"SL-4112-250012","lat":49.404791,"lon":6.895171,"name":"Nikolaus-Gross-Schule (Erweiterte Realschule)","official_id":"250012","phone":"06881-91323","school_type":"erweiterte Realschule","school_type_entity":"erweiterte Realschule","state":"SL"},{"address":"Josefstraße 11, 66809 Nalbach","fax":"06838-983708","full_time_school":false,"id":"SL-4113-250011","lat":49.380294,"lon":6.783348,"name":"Erweiterte Realschule","official_id":"250011","phone":"06838-983706","school_type":"erweiterte Realschule","school_type_entity":"erweiterte Realschule","state":"SL"},{"address":"Beckinger Straße 38, 66780 Rehlingen-Siersburg","fax":"06835 922414","full_time_school":true,"id":"SL-4114-350011","lat":49.377395,"lon":6.682702,"name":"Erweiterte Realschule Rehlingen-Siersburg","official_id":"350011","phone":"06835/92240","school_type":"erweiterte Realschule","school_type_entity":"erweiterte Realschule","state":"SL"},{"address":"St. Nazairer Allee 6, 66740 Saarlouis","fax":"06831-41898","full_time_school":true,"id":"SL-4115-150011","lat":49.32305,"lon":6.74288,"name":"Erweiterte Realschule I","official_id":"150011","phone":"06831/41878","school_type":"erweiterte Realschule","school_type_entity":"erweiterte Realschule","state":"SL"},{"address":"Kreuzbergstraße 87, 66740 Saarlouis","fax":"06831-80057","full_time_school":false,"id":"SL-4115-150021","lat":49.331832,"lon":6.781331,"name":"Erweiterte Realschule II","official_id":"150021","phone":"06831-80056","school_type":"erweiterte Realschule","school_type_entity":"erweiterte Realschule","state":"SL"},{"address":"An der Waldwies 2-4, 66793 Saarwellingen","fax":"06838-900620","full_time_school":true,"id":"SL-4116-150011","lat":49.35,"lon":6.83333,"name":"Erweiterte Realschule Saarwellingen","official_id":"150011","phone":"06838/90060","school_type":"erweiterte Realschule","school_type_entity":"erweiterte Realschule","state":"SL"},{"address":"Wilhelm-Busch-Straße 11, 66839 Schmelz","fax":"06887-887126","full_time_school":true,"id":"SL-4117-250011","lat":49.442066,"lon":6.848665,"name":"Erweiterte Realschule Schmelz","official_id":"250011","phone":"06887/2570","school_type":"erweiterte Realschule","school_type_entity":"erweiterte Realschule","state":"SL"},{"address":"Weiherstraße 24a, 66773 Schwalbach","fax":"06834-953954","full_time_school":true,"id":"SL-4118-150011","lat":49.306365,"lon":6.814084,"name":"Erweiterte Realschule Schwalbach","official_id":"150011","phone":"06834/953953","school_type":"erweiterte Realschule","school_type_entity":"erweiterte Realschule","state":"SL"},{"address":"Comeniusstraße 22, 66802 Überherrn","fax":"06836-2031","full_time_school":false,"id":"SL-4119-350011","lat":49.23264,"lon":6.70581,"name":"Erweiterte Realschule Überherrn","official_id":"350011","phone":"06836/2531","school_type":"erweiterte Realschule","school_type_entity":"erweiterte Realschule","state":"SL"},{"address":"Bungertstraße 30, 66798 Wallerfangen","fax":"06831-964594","full_time_school":true,"id":"SL-4121-350011","lat":49.324331,"lon":6.713363,"name":"Erweiterte Realschule Wallerfangen","official_id":"350011","phone":"06831/964585","school_type":"erweiterte Realschule","school_type_entity":"erweiterte Realschule","state":"SL"},{"address":"Schulzentrum, 66440 Blieskastel","fax":"06842/923766","full_time_school":true,"id":"SL-5112-250011","lat":49.24222,"lon":7.25444,"name":"Erweiterte Realschule Blieskastel","official_id":"250011","phone":"06842/923760","school_type":"erweiterte Realschule","school_type_entity":"erweiterte Realschule","state":"SL"},{"address":"Virchowstraße 7, 66424 Homburg","fax":"06841-923326","full_time_school":false,"id":"SL-5114-150011","lat":49.31497,"lon":7.338603,"name":"Erweiterte Realschule Homburg I","official_id":"150011","phone":"06841/92330","school_type":"erweiterte Realschule","school_type_entity":"erweiterte Realschule","state":"SL"},{"address":"Cranachstraße 7, 66424 Homburg","fax":"06841/9729321","full_time_school":true,"id":"SL-5114-150021","lat":49.333053,"lon":7.325007,"name":"Erweiterte Realschule Homburg II","official_id":"150021","phone":"06841/972930","school_type":"erweiterte Realschule","school_type_entity":"erweiterte Realschule","state":"SL"},{"address":"Hauptstraße 75, 66459 Kirkel-Limbach","fax":"06841-980429","full_time_school":true,"id":"SL-5115-150011","lat":50.859967,"lon":12.802456,"name":"Erweiterte Realschule Kirkel-Limbach","official_id":"150011","phone":"06841-980040","school_type":"erweiterte Realschule","school_type_entity":"erweiterte Realschule","state":"SL"},{"address":"Vichter Straße 1, 66399 Mandelbachtal","fax":"06803/390020","full_time_school":true,"id":"SL-5116-250011","lat":49.21823,"lon":7.155979,"name":"Erweiterte Realschule Mandelbachtal","official_id":"250011","phone":"06803/39000","school_type":"erweiterte Realschule","school_type_entity":"erweiterte Realschule","state":"SL"},{"address":"Im Schmelzerwald 66, 66386 St. Ingbert","fax":"06894-960918","full_time_school":false,"id":"SL-5117-250011","lat":49.271203,"lon":7.104844,"name":"Erweiterte Realschule I St. Ingbert","official_id":"250011","phone":"06894/96090","school_type":"erweiterte Realschule","school_type_entity":"erweiterte Realschule","state":"SL"},{"address":"Sportplatzstraße 3, 66386 St. Ingbert","fax":"06894/9989829","full_time_school":false,"id":"SL-5117-250021","lat":49.286512,"lon":7.166076,"name":"Erweiterte Realschule II St. Ingbert","official_id":"250021","phone":"06894/9989820","school_type":"erweiterte Realschule","school_type_entity":"erweiterte Realschule","state":"SL"},{"address":"Schulstraße 43, 66629 Freisen","fax":"06855/996902","full_time_school":false,"id":"SL-6111-250011","lat":49.547767,"lon":7.252041,"name":"Erweiterte Realschule Freisen","official_id":"250011","phone":"06855/7992","school_type":"erweiterte Realschule","school_type_entity":"erweiterte Realschule","state":"SL"},{"address":"Willi-Graf-Straße 3, 66606 St. Wendel","fax":"06851/931933","full_time_school":true,"id":"SL-6117-150011","lat":49.469108,"lon":7.153093,"name":"Erweiterte Realschule St. Wendel","official_id":"150011","phone":"06851/93190","school_type":"erweiterte Realschule","school_type_entity":"erweiterte Realschule","state":"SL"},{"address":"Toni Lermen Straße  2, 66636 Tholey-Theley","fax":"06853/912850","full_time_school":false,"id":"SL-6118-150011","lat":49.500473,"lon":7.025386,"name":"Erweiterte Realschule Tholey","official_id":"150011","phone":"06853/9128-0","school_type":"erweiterte Realschule","school_type_entity":"erweiterte Realschule","state":"SL"},{"address":"Stengelstraße 31, 66117 Saarbrücken","fax":"0681-92605-28","full_time_school":true,"id":"SL-1100-010011","lat":49.233693,"lon":6.98352,"name":"Ludwigsgymnasium","official_id":"010011","phone":"0681-926050","school_type":"Gymnasium","school_type_entity":"Gymnasium","state":"SL"},{"address":"Neugrabenweg 66-90, 66123 Saarbrücken","fax":"0681-9369840","full_time_school":false,"id":"SL-1100-011011","lat":49.24088,"lon":7.010493,"name":"Gymnasium Am Rotenbühl","official_id":"011011","phone":"0681-936980","school_type":"Gymnasium","school_type_entity":"Gymnasium","state":"SL"},{"address":"Halbergstraße 112, 66121 Saarbrücken","fax":"0681-99681-40","full_time_school":true,"id":"SL-1100-011021","lat":49.230323,"lon":7.016476,"name":"Deutsch-Französisches Gymnasium","official_id":"011021","phone":"0681-99681-0","school_type":"Gymnasium","school_type_entity":"Gymnasium","state":"SL"},{"address":"Sachsenweg 3, 66121 Saarbrücken","fax":"0681-66835-30","full_time_school":true,"id":"SL-1100-011042","lat":49.234129,"lon":7.006891,"name":"Willi-Graf-Gymnasium (privat)","official_id":"011042","phone":"0681-66835-11","school_type":"Gymnasium","school_type_entity":"Gymnasium","state":"SL"},{"address":"Spichererbergstraße 15, 66119 Saarbrücken","fax":"0681-52084","full_time_school":true,"id":"SL-1100-012011","lat":49.229249,"lon":6.992539,"name":"Gymnasium Am Schloss","official_id":"012011","phone":"0681-581884","school_type":"Gymnasium","school_type_entity":"Gymnasium","state":"SL"},{"address":"Hohenzollernstraße 59 A, 66117 Saarbrücken","fax":"0681-57033","full_time_school":true,"id":"SL-1100-012032","lat":49.235035,"lon":6.982593,"name":"Marienschule","official_id":"012032","phone":"0681-51367","school_type":"Gymnasium","school_type_entity":"Gymnasium","state":"SL"},{"address":"Landwehrplatz 3, 66111 Saarbrücken","fax":"0681/37981-11","full_time_school":true,"id":"SL-1100-013011","lat":49.234423,"lon":7.001044,"name":"Otto Hahn Gymnasium","official_id":"013011","phone":"0681-37981-0","school_type":"Gymnasium","school_type_entity":"Gymnasium","state":"SL"},{"address":"Rheinstraße 95, 66113 Saarbrücken","fax":"0681-754826","full_time_school":false,"id":"SL-1100-030011","lat":49.24736,"lon":6.958567,"name":"Wirtschaftswissenschaftliches Gymnasium","official_id":"030011","phone":"0681-751610","school_type":"Gymnasium","school_type_entity":"Gymnasium","state":"SL"},{"address":"Quierschieder Weg, 66280 Sulzbach","fax":"06897-908128","full_time_school":false,"id":"SL-1518-012011","lat":49.3022447,"lon":7.0570952,"name":"Theodor-Heuss-Gymnasium Sulzbach","official_id":"012011","phone":"06897-90810","school_type":"Gymnasium","school_type_entity":"Gymnasium","state":"SL"},{"address":"Lortzingstraße 2, 66333 Völklingen","fax":"06898-502831","full_time_school":true,"id":"SL-1519-011011","lat":49.25575,"lon":6.866896,"name":"Marie-Luise-Kaschnitz-Gymnasium","official_id":"011011","phone":"06898-50280","school_type":"Gymnasium","school_type_entity":"Gymnasium","state":"SL"},{"address":"Hohenzollernstraße 28, 66333 Völklingen","fax":"06898-16594","full_time_school":true,"id":"SL-1519-011021","lat":49.253213,"lon":6.860604,"name":"Albert-Einstein-Gymnasium","official_id":"011021","phone":"06898-91300","school_type":"Gymnasium","school_type_entity":"Gymnasium","state":"SL"},{"address":"Am Warndtgymnasium 1, 66333 Völklingen","fax":"06898-7015","full_time_school":true,"id":"SL-1519-011031","lat":49.230094,"lon":6.823782,"name":"Warndt-Gymnasium","official_id":"011031","phone":"06898-972990","school_type":"Gymnasium","school_type_entity":"Gymnasium","state":"SL"},{"address":"Goethestraße 16 A, 66663 Merzig","fax":"06861-9399220","full_time_school":true,"id":"SL-2113-011011","lat":49.444387,"lon":6.653358,"name":"Peter-Wust-Gymnasium","official_id":"011011","phone":"06861-939920","school_type":"Gymnasium","school_type_entity":"Gymnasium","state":"SL"},{"address":"Waldstraße 48, 66663 Merzig","fax":"06861-9396829","full_time_school":true,"id":"SL-2113-011021","lat":49.451473,"lon":6.637217,"name":"Gymnasium Am Stefansberg","official_id":"011021","phone":"06861-939680","school_type":"Gymnasium","school_type_entity":"Gymnasium","state":"SL"},{"address":"Am Kaisergarten 1, 66687 Wadern","fax":"06871-902699","full_time_school":true,"id":"SL-2116-011011","lat":49.54411,"lon":6.900792,"name":"Hochwaldgymnasium","official_id":"011011","phone":"06871-90260","school_type":"Gymnasium","school_type_entity":"Gymnasium","state":"SL"},{"address":"Schwarzer Weg, 66557 Illingen","fax":"06825-930820","full_time_school":true,"id":"SL-3112-012011","lat":49.367825,"lon":7.0418913,"name":"Illtal-Gymnasium","official_id":"012011","phone":"06825-93080","school_type":"Gymnasium","school_type_entity":"Gymnasium","state":"SL"},{"address":"Am Mädchenrealgymnasium, 66538 Neunkirchen","fax":"06821-909833","full_time_school":true,"id":"SL-3114-012011","lat":49.343597,"lon":7.193982,"name":"Gymnasium Am Steinwald","official_id":"012011","phone":"06821-90980","school_type":"Gymnasium","school_type_entity":"Gymnasium","state":"SL"},{"address":"Alb. Schweitzer-Straße 23, 66538 Neunkirchen/Saar","fax":"06821/981535","full_time_school":true,"id":"SL-3114-012021","lat":49.228964,"lon":6.808628,"name":"Gymnasium Am Krebsberg","official_id":"012021","phone":"06821-98150","school_type":"Gymnasium","school_type_entity":"Gymnasium","state":"SL"},{"address":"Seminarstraße 43, 66564 Ottweiler","fax":"06824-930833","full_time_school":true,"id":"SL-3115-012011","lat":49.400497,"lon":7.161011,"name":"Gymnasium","official_id":"012011","phone":"06824-930830","school_type":"Gymnasium","school_type_entity":"Gymnasium","state":"SL"},{"address":"Karcherstraße 2, 66763 Dillingen","fax":"06831-976089","full_time_school":true,"id":"SL-4111-012011","lat":49.359087,"lon":6.728547,"name":"Albert-Schweitzer-Gymnasium","official_id":"012011","phone":"06831-976547","school_type":"Gymnasium","school_type_entity":"Gymnasium","state":"SL"},{"address":"Wallerfangerstraße 25, 66763 Dillingen","fax":"06831-7698322","full_time_school":false,"id":"SL-4111-032011","lat":49.345377,"lon":6.715338,"name":"Technisch-wissenschaftliches Gymnasium","official_id":"032011","phone":"06831-769830","school_type":"Gymnasium","school_type_entity":"Gymnasium","state":"SL"},{"address":"Straße der weißen Rose, 66822 Lebach","fax":"06881-53035","full_time_school":true,"id":"SL-4112-011011","lat":49.402934,"lon":6.897565,"name":"Geschwister-Scholl-Gymnasium","official_id":"011011","phone":"06881-53033","school_type":"Gymnasium","school_type_entity":"Gymnasium","state":"SL"},{"address":"Dillinger Straße 67, 66822 Lebach","fax":"06881-537030","full_time_school":false,"id":"SL-4112-013011","lat":49.404791,"lon":6.895171,"name":"Johannes-Kepler-Gymnasium","official_id":"013011","phone":"06881-53051","school_type":"Gymnasium","school_type_entity":"Gymnasium","state":"SL"},{"address":"Holtzendorfferstraße 1, 66740 Saarlouis","fax":"06831-121412","full_time_school":true,"id":"SL-4115-010011","lat":49.319075,"lon":6.745943,"name":"Gymnasium Am Stadtgarten","official_id":"010011","phone":"06831-42985","school_type":"Gymnasium","school_type_entity":"Gymnasium","state":"SL"},{"address":"Praelat-Subtil Ring 2, 66740 Saarlouis","fax":"06831-121001","full_time_school":true,"id":"SL-4115-011011","lat":49.314243,"lon":6.756259,"name":"Robert-Schuman-Gymnasium","official_id":"011011","phone":"06831-2262","school_type":"Gymnasium","school_type_entity":"Gymnasium","state":"SL"},{"address":"Pavillonstraße 24, 66740 Saarlouis","fax":"06831-945930","full_time_school":true,"id":"SL-4115-013011","lat":49.319031,"lon":6.751592,"name":"Max-Planck-Gymnasium","official_id":"013011","phone":"06831-94590","school_type":"Gymnasium","school_type_entity":"Gymnasium","state":"SL"},{"address":"Schlossbergstraße 42, 66440 Blieskastel","fax":"06842-923232","full_time_school":true,"id":"SL-5112-011011","lat":49.24222,"lon":7.25444,"name":"Von der Leyen-Gymnasium","official_id":"011011","phone":"06842-92320","school_type":"Gymnasium","school_type_entity":"Gymnasium","state":"SL"},{"address":"Kardinal Wendel Straße12, 66424 Homburg","fax":"06841-61523","full_time_school":true,"id":"SL-5114-010012","lat":49.302994,"lon":7.326591,"name":"Gymnasium Johanneum (privat)","official_id":"010012","phone":"06841-934770","school_type":"Gymnasium","school_type_entity":"Gymnasium","state":"SL"},{"address":"Hiltebrandtstr. 1, 66424 Homburg","fax":"06841/9348372","full_time_school":false,"id":"SL-5114-011011","lat":49.320388,"lon":7.334777,"name":"Mannlich-Gymnasium","official_id":"011011","phone":"06841-9348360","school_type":"Gymnasium","school_type_entity":"Gymnasium","state":"SL"},{"address":"Untere Allee 75, 66424 Homburg","fax":"06841-923122","full_time_school":true,"id":"SL-5114-012021","lat":49.316164,"lon":7.34794,"name":"Saarpfalz-Gymnasium","official_id":"012021","phone":"06841-92310","school_type":"Gymnasium","school_type_entity":"Gymnasium","state":"SL"},{"address":"Neue Messstraße 24, 66386 St. Ingbert","fax":"06894-383839","full_time_school":true,"id":"SL-5117-011022","lat":49.277219,"lon":7.117051,"name":"Alb.Magnus-Gymnasium (privat)","official_id":"011022","phone":"06894-2138","school_type":"Gymnasium","school_type_entity":"Gymnasium","state":"SL"},{"address":"Im Schmelzerwald 51a, 66386 St. Ingbert","fax":"06894-963918","full_time_school":false,"id":"SL-5117-012011","lat":49.26843,"lon":7.101885,"name":"Leibniz-Gymnasium","official_id":"012011","phone":"06894-96390","school_type":"Gymnasium","school_type_entity":"Gymnasium","state":"SL"},{"address":"Schorlemer Straße 28, 66606 St. Wendel","fax":"06851-932233","full_time_school":true,"id":"SL-6117-010011","lat":49.463308,"lon":7.175955,"name":"Gymnasium-Wendalinum","official_id":"010011","phone":"06851-93220","school_type":"Gymnasium","school_type_entity":"Gymnasium","state":"SL"},{"address":"Missionshausstraße 50, 66606 St. Wendel","fax":"06851-805375","full_time_school":true,"id":"SL-6117-010022","lat":49.46417,"lon":7.191686,"name":"Arnold-Janssen-Gymnasium (privat)","official_id":"010022","phone":"06851-805300","school_type":"Gymnasium","school_type_entity":"Gymnasium","state":"SL"},{"address":"Missionshausstraße 14, 66606 St. Wendel","fax":"06851-932333","full_time_school":true,"id":"SL-6117-011011","lat":49.463529,"lon":7.180892,"name":"Cusanus-Gymnasium","official_id":"011011","phone":"06851-93230","school_type":"Gymnasium","school_type_entity":"Gymnasium","state":"SL"},{"address":"Ziegelstraße 17, 66113 Saarbrücken","fax":"0681-47652","full_time_school":true,"id":"SL-1100-005041","lat":49.246059,"lon":6.985793,"name":"Gesamtschule Saarbrücken-Ludwigspark","official_id":"005041","phone":"0681-9471970","school_type":"Gesamtschule","school_type_entity":"Gesamtschule","state":"SL"},{"address":"Im Grühlingswald 19, 66299 Friedrichsthal","fax":"06897-9699011","full_time_school":true,"id":"SL-1100-005052","lat":49.325894,"lon":7.091024,"name":"Montessori-Zentrum Saar, Gemeinschafts-/Gesamtschule","official_id":"005052","phone":"06897-9699010","school_type":"Gesamtschule","school_type_entity":"Gesamtschule","state":"SL"},{"address":"An der Mühlenschule 3, 66125 Saarbrücken","fax":"06897-74069","full_time_school":true,"id":"SL-1100-305031","lat":49.275708,"lon":7.031932,"name":"Gesamtschule Sulzbachtal","official_id":"305031","phone":"06897-97460","school_type":"Gesamtschule","school_type_entity":"Gesamtschule","state":"SL"},{"address":"Weissenburger Straße 23, 66113 Saarbrücken","fax":"0681-73692","full_time_school":true,"id":"SL-1100-405011","lat":49.246661,"lon":6.95873,"name":"Gesamtschule Saarbrücken-Rastbachtal","official_id":"405011","phone":"0681-971460","school_type":"Gesamtschule","school_type_entity":"Gesamtschule","state":"SL"},{"address":"Am Hagen 30, 66117 Saarbrücken","fax":"0681-9262017","full_time_school":false,"id":"SL-1100-405021","lat":49.226823,"lon":6.976698,"name":"Gesamtschule Bellevue","official_id":"405021","phone":"0681-926200","school_type":"Gesamtschule","school_type_entity":"Gesamtschule","state":"SL"},{"address":"Lindenstrasse 9, 66292 Riegelsberg","fax":"06806-992140","full_time_school":true,"id":"SL-1517-205011","lat":49.306609,"lon":6.939944,"name":"Gesamtschule Riegelsberg","official_id":"205011","phone":"06806-99210","school_type":"Gesamtschule","school_type_entity":"Gesamtschule","state":"SL"},{"address":"Hohlstraße 35, 66333 Völklingen-Ludweiler","fax":"06898-9458129","full_time_school":true,"id":"SL-1519-105011","lat":49.223854,"lon":6.799969,"name":"Graf-Ludwig-Gemeinschaftsschule im Warndt (Gesamtschule)","official_id":"105011","phone":"06898-945810","school_type":"Gesamtschule","school_type_entity":"Gesamtschule","state":"SL"},{"address":"Weiskirchener Straße 18, 66679 Losheim","fax":"06872-9219630","full_time_school":true,"id":"SL-2112-205011","lat":49.509511,"lon":6.746234,"name":"Peter-Dewes-Gesamtschule","official_id":"205011","phone":"06872-921960","school_type":"Gesamtschule","school_type_entity":"Gesamtschule","state":"SL"},{"address":"Saarbrücker Straße, 66693 Mettlach-Orscholz","fax":"06865 9111100","full_time_school":false,"id":"SL-2114-105011","lat":49.4940158,"lon":6.5852876,"name":"Gesamtschule Mettlach-Orscholz","official_id":"105011","phone":"06865-91110","school_type":"Gesamtschule","school_type_entity":"Gesamtschule","state":"SL"},{"address":"Auf dem Sabel 2, 66706 Perl","fax":"06867-9111220","full_time_school":true,"id":"SL-2115-005011","lat":49.478519,"lon":6.386255,"name":"Deutsch-Luxemburgisches Schengen-Lyceum Perl","official_id":"005011","phone":"06867-9111200","school_type":"Gesamtschule","school_type_entity":"Gesamtschule","state":"SL"},{"address":"Haspelstrasse, 66538 Neunkirchen","fax":"06821-982428","full_time_school":true,"id":"SL-3114-105011","lat":49.340686,"lon":7.185383,"name":"Gesamtschule Neunkirchen","official_id":"105011","phone":"06821-98240","school_type":"Gesamtschule","school_type_entity":"Gesamtschule","state":"SL"},{"address":"Comeniusstraße, 66578 Schiffweiler","fax":"06821-9648428","full_time_school":false,"id":"SL-3116-205011","lat":49.366598,"lon":7.127465,"name":"Gesamtschule","official_id":"205011","phone":"06821-964840","school_type":"Gesamtschule","school_type_entity":"Gesamtschule","state":"SL"},{"address":"Industriestraße 40, 66763 Dillingen","fax":"06831-978630","full_time_school":false,"id":"SL-4111-204011","lat":49.348111,"lon":6.717178,"name":"Integrierte Gesamtschule (Sophie-Scholl-Schule)","official_id":"204011","phone":"06831-97860","school_type":"Gesamtschule","school_type_entity":"Gesamtschule","state":"SL"},{"address":"Weberstrasse, 66787 Wadgassen","fax":"06834-99416","full_time_school":true,"id":"SL-4120-305011","lat":49.265133,"lon":6.816505,"name":"Gesamtschule  - Bisttalschule Wadgassen","official_id":"305011","phone":"06834-99415","school_type":"Gesamtschule","school_type_entity":"Gesamtschule","state":"SL"},{"address":"Eichendorffweg 1, 66450 Bexbach","fax":"06826-932929","full_time_school":true,"id":"SL-5111-105011","lat":49.352201,"lon":7.253793,"name":"Gesamtschule \"Galileo-Schule\"","official_id":"105011","phone":"06826-93290","school_type":"Gesamtschule","school_type_entity":"Gesamtschule","state":"SL"},{"address":"Schulzentrum, 66453 Gersheim","fax":"06843-9007-127","full_time_school":true,"id":"SL-5113-205011","lat":49.13333,"lon":7.2,"name":"Gesamtschule","official_id":"205011","phone":"06843-9007-29","school_type":"Gesamtschule","school_type_entity":"Gesamtschule","state":"SL"},{"address":"Marienstrasse 21, 66646 Marpingen","fax":"06853-910611","full_time_school":true,"id":"SL-6112-105011","lat":49.450562,"lon":7.055691,"name":"Gesamtschule Marpingen","official_id":"105011","phone":"06853-91060","school_type":"Gesamtschule","school_type_entity":"Gesamtschule","state":"SL"},{"address":"Trierer Straße 23, 66625 Nohfelden-Türkismühle","fax":"06852-902511","full_time_school":true,"id":"SL-6114-205011","lat":49.580851,"lon":7.101035,"name":"Gesamtschule","official_id":"205011","phone":"06852-90250","school_type":"Gesamtschule","school_type_entity":"Gesamtschule","state":"SL"},{"address":"Schulstraße 11, 66126 Saarbrücken-Altenkessel","fax":"06898-9869749","full_time_school":false,"id":"SL-1100-006012","lat":49.204294,"lon":7.109389,"name":"Freie Waldorfschule","official_id":"006012","phone":"06898-986970","school_type":"freie Waldorfschule","school_type_entity":"Waldorfschule","state":"SL"},{"address":"Neunkircher Straße 70, 66299 Friedrichsthal-Bildstock","fax":"06897-843913","full_time_school":true,"id":"SL-1511-006012","lat":49.335082,"lon":7.104007,"name":"Waldorfschule für Lern- und Erziehungshilfe","official_id":"006012","phone":"06897-840000","school_type":"freie Waldorfschule","school_type_entity":"Waldorfschule","state":"SL"},{"address":"Parkstraße, 66450 Bexbach","fax":"06826-4561","full_time_school":false,"id":"SL-5111-006012","lat":49.3443218,"lon":7.2561741,"name":"Freie Waldorfschule","official_id":"006012","phone":"06826-3260","school_type":"freie Waldorfschule","school_type_entity":"Waldorfschule","state":"SL"},{"address":"Schoosbergstraße 11, 66625 Nohfelden-Walhausen","fax":"06852-802179","full_time_school":true,"id":"SL-6114-006012","lat":49.561412,"lon":7.124336,"name":"Freie Waldorfschule Saar-Hunsrück","official_id":"006012","phone":"06852-82599","school_type":"freie Waldorfschule","school_type_entity":"Waldorfschule","state":"SL"},{"address":"Sachsenweg 8, 66121 Saarbrücken","fax":"0681-61598","full_time_school":false,"id":"SL-1100-354011","lat":49.233296,"lon":7.007854,"name":"Erweiterte Abendrealschule","official_id":"354011","phone":"0681-635032","school_type":"erweiterte Realschule Abendform","school_type_entity":"erweiterte Realschule Abendform","state":"SL"},{"address":"Industriestraße 29, 66763 Dillingen","fax":"06831-9869601","full_time_school":false,"id":"SL-4111-254011","lat":49.350422,"lon":6.716099,"name":"Erweiterte Realschule in Abendform","official_id":"254011","phone":"06831-9869600","school_type":"erweiterte Realschule Abendform","school_type_entity":"erweiterte Realschule Abendform","state":"SL"},{"address":"Im Grühlingswald 19, 66299 Friedrichsthal","fax":"06897-9699011","full_time_school":true,"id":"SL-1100-6052","lat":49.325894,"lon":7.091024,"name":"Montessori-Zentrum Saar, Gemeinschafts-/Gesamtschule","official_id":"6052","phone":"06897-9699010","school_type":"Gemeinschaftsschule","school_type_entity":"Gemeinschaftsschule","state":"SL"},{"address":"Ziegelstraße 17, 66113 Saarbrücken","fax":"0681-47652","full_time_school":true,"id":"SL-1100-60011","lat":49.246059,"lon":6.985793,"name":"Gemeinschaftsschule","official_id":"60011","phone":"0681-9471970","school_type":"Gemeinschaftsschule","school_type_entity":"Gemeinschaftsschule","state":"SL"},{"address":"An der Mühlenschule 3, 66125 Saarbrücken","fax":"06897-74069","full_time_school":true,"id":"SL-1100-60021","lat":49.275708,"lon":7.031932,"name":"Gemeinschaftsschule","official_id":"60021","phone":"06897-97460","school_type":"Gemeinschaftsschule","school_type_entity":"Gemeinschaftsschule","state":"SL"},{"address":"Sachsenweg 8, 66121 Saarbrücken","fax":"0681-61598","full_time_school":false,"id":"SL-1100-60031","lat":49.233296,"lon":7.007854,"name":"Gemeinschaftsschule Bruchwiese","official_id":"60031","phone":"0681/635032","school_type":"Gemeinschaftsschule","school_type_entity":"Gemeinschaftsschule","state":"SL"},{"address":"Hauptstraße 53, 66127 Saarbrücken","fax":"06898-935899","full_time_school":true,"id":"SL-1100-60041","lat":49.23677,"lon":6.931615,"name":"Gemeinschaftsschule Klarenthal","official_id":"60041","phone":"06898/37558","school_type":"Gemeinschaftsschule","school_type_entity":"Gemeinschaftsschule","state":"SL"},{"address":"Weissenburger Straße 23, 66113 Saarbrücken","fax":"0681-73692","full_time_school":true,"id":"SL-1100-60051","lat":49.246661,"lon":6.95873,"name":"Gemeinschaftsschule","official_id":"60051","phone":"0681-971460","school_type":"Gemeinschaftsschule","school_type_entity":"Gemeinschaftsschule","state":"SL"},{"address":"Am Hagen 30, 66117 Saarbrücken","fax":"0681-9262017","full_time_school":true,"id":"SL-1100-60061","lat":49.226823,"lon":6.976698,"name":"Gemeinschaftsschule","official_id":"60061","phone":"0681-926200","school_type":"Gemeinschaftsschule","school_type_entity":"Gemeinschaftsschule","state":"SL"},{"address":"Saargemünder Straße 157, 66130 Saarbrücken","fax":"0681-8739990","full_time_school":true,"id":"SL-1100-60071","lat":49.200915,"lon":7.027992,"name":"Gemeinschaftsschule Güdingen","official_id":"60071","phone":"0681/8739715","school_type":"Gemeinschaftsschule","school_type_entity":"Gemeinschaftsschule","state":"SL"},{"address":"Schillerstraße 65, 66265 Heusweiler","fax":"06806/6634","full_time_school":true,"id":"SL-1513-260011","lat":49.333335,"lon":6.923151,"name":"Gemeinschaftsschule Heusweiler","official_id":"260011","phone":"06806/6308","school_type":"Gemeinschaftsschule","school_type_entity":"Gemeinschaftsschule","state":"SL"},{"address":"Wintringer Straße 78, 66271 Kleinblittersdorf","fax":"06805-8427","full_time_school":true,"id":"SL-1514-460011","lat":49.163134,"lon":7.041739,"name":"Gemeinschaftsschule Kleinblittersdorf","official_id":"460011","phone":"06805/1445","school_type":"Gemeinschaftsschule","school_type_entity":"Gemeinschaftsschule","state":"SL"},{"address":"Pickardstraße 33, 66346 Püttlingen","fax":"06898-64431","full_time_school":false,"id":"SL-1515-160011","lat":49.287387,"lon":6.886432,"name":"Gemeinschaftsschule Püttlingen","official_id":"160011","phone":"06898/64421","school_type":"Gemeinschaftsschule","school_type_entity":"Gemeinschaftsschule","state":"SL"},{"address":"Schulzentrum Taubenfeld, 66287 Quierschied","fax":"06897/63478","full_time_school":true,"id":"SL-1516-260011","lat":49.31667,"lon":7.03333,"name":"Gemeinschaftsschule","official_id":"260011","phone":"06897/62212","school_type":"Gemeinschaftsschule","school_type_entity":"Gemeinschaftsschule","state":"SL"},{"address":"Lindenstrasse 9, 66292 Riegelsberg","fax":"06806-992140","full_time_school":true,"id":"SL-1517-260011","lat":49.306609,"lon":6.939944,"name":"Gemeinschaftsschule","official_id":"260011","phone":"06806-99210","school_type":"Gemeinschaftsschule","school_type_entity":"Gemeinschaftsschule","state":"SL"},{"address":"Parkstraße 10, 66280 Sulzbach","fax":"06897/952095-29","full_time_school":true,"id":"SL-1518-260011","lat":49.303969,"lon":7.060334,"name":"Gemeinschaftsschule","official_id":"260011","phone":"06897/952095-0","school_type":"Gemeinschaftsschule","school_type_entity":"Gemeinschaftsschule","state":"SL"},{"address":"Hohlstraße 35, 66333 Völklingen-Ludweiler","fax":"06898-9458129","full_time_school":true,"id":"SL-1519-160011","lat":49.223854,"lon":6.799969,"name":"Graf-Ludwig-Gemeinschaftsschule im Warndt","official_id":"160011","phone":"06898-945810","school_type":"Gemeinschaftsschule","school_type_entity":"Gemeinschaftsschule","state":"SL"},{"address":"Heinestraße 70, 66333 Völklingen","fax":"06898/296911","full_time_school":true,"id":"SL-1519-160021","lat":49.257411,"lon":6.867823,"name":"Gemeinschaftsschule Am Sonnenhügel","official_id":"160021","phone":"06898 9149730","school_type":"Gemeinschaftsschule","school_type_entity":"Gemeinschaftsschule","state":"SL"},{"address":"Heinestraße 70, 66333 Völklingen","fax":"06898/296911","full_time_school":true,"id":"SL-1519-160031","lat":49.257411,"lon":6.867823,"name":"Gemeinschaftsschule Hermann Neuberger Völklingen","official_id":"160031","phone":"06898 9149730","school_type":"Gemeinschaftsschule","school_type_entity":"Gemeinschaftsschule","state":"SL"},{"address":"Hindenburgstraße 19, 66701 Beckingen","fax":"06835/608199","full_time_school":true,"id":"SL-2111-260011","lat":49.388015,"lon":6.704213,"name":"Friedrich-Bernhard-Karcher- Schule Beckingen -Gemeinschaftsschule","official_id":"260011","phone":"06835/608190","school_type":"Gemeinschaftsschule","school_type_entity":"Gemeinschaftsschule","state":"SL"},{"address":"Weiskirchener Straße 18, 66679 Losheim","fax":"06872-9219630","full_time_school":true,"id":"SL-2112-260011","lat":49.509511,"lon":6.746234,"name":"Gemeinschaftsschule","official_id":"260011","phone":"06872-921960","school_type":"Gemeinschaftsschule","school_type_entity":"Gemeinschaftsschule","state":"SL"},{"address":"Von-Boch-Straße 75, 66663 Merzig","fax":"06861/7707729","full_time_school":true,"id":"SL-2113-160011","lat":49.436392,"lon":6.63556,"name":"Gemeinschaftsschule Merzig","official_id":"160011","phone":"06861/770770","school_type":"Gemeinschaftsschule","school_type_entity":"Gemeinschaftsschule","state":"SL"},{"address":"Saarbrücker Straße, 66693 Mettlach-Orscholz","fax":"06865 9111100","full_time_school":true,"id":"SL-2114-160011","lat":49.4940158,"lon":6.5852876,"name":"Gemeinschaftsschule Mettlach-Orscholz","official_id":"160011","phone":"06865-91110","school_type":"Gemeinschaftsschule","school_type_entity":"Gemeinschaftsschule","state":"SL"},{"address":"Gartenfeldstraße 23, 66687 Wadern","fax":"06871-9230230","full_time_school":true,"id":"SL-2116-260011","lat":49.539803,"lon":6.88757,"name":"Gemeinschaftsschule Wadern","official_id":"260011","phone":"06871/923020","school_type":"Gemeinschaftsschule","school_type_entity":"Gemeinschaftsschule","state":"SL"},{"address":"Am Marktplatz 1, 66709 Weiskirchen","fax":"06876-7540","full_time_school":true,"id":"SL-2117-260011","lat":49.555815,"lon":6.817538,"name":"Eichenlaubschule - Gemeinschaftsschule","official_id":"260011","phone":"06876/345","school_type":"Gemeinschaftsschule","school_type_entity":"Gemeinschaftsschule","state":"SL"},{"address":"Hellbergstraße 40A, 66571 Eppelborn","fax":"06881-962129","full_time_school":false,"id":"SL-3111-260011","lat":49.40423,"lon":6.959418,"name":"Gemeinschaftsschule Eppelborn","official_id":"260011","phone":"06881/962127","school_type":"Gemeinschaftsschule","school_type_entity":"Gemeinschaftsschule","state":"SL"},{"address":"Schwarzer Weg 2, 66557 Illingen","fax":"06825-942011","full_time_school":false,"id":"SL-3112-260011","lat":49.367616,"lon":7.042521,"name":"Gemeinschaftsschule Illingen","official_id":"260011","phone":"06825/94200","school_type":"Gemeinschaftsschule","school_type_entity":"Gemeinschaftsschule","state":"SL"},{"address":"Bildstockstr. 127, 66589 Merchweiler","fax":"06825-42262","full_time_school":true,"id":"SL-3113-260011","lat":49.362267,"lon":7.077866,"name":"Gemeinschaftsschule Merchweiler - Max von der Grün Schule","official_id":"260011","phone":"06825/42261","school_type":"Gemeinschaftsschule","school_type_entity":"Gemeinschaftsschule","state":"SL"},{"address":"Haspelstrasse, 66538 Neunkirchen","fax":"06821-982428","full_time_school":true,"id":"SL-3114-160011","lat":49.340686,"lon":7.185383,"name":"Gemeinschaftsschule","official_id":"160011","phone":"06821-98240","school_type":"Gemeinschaftsschule","school_type_entity":"Gemeinschaftsschule","state":"SL"},{"address":"Prälat-Schütz-Straße 15, 66540 Neunkirchen-Wiebelskirchen","fax":"06821-950444","full_time_school":true,"id":"SL-3114-160012","lat":49.366518,"lon":7.189038,"name":"Maximilian-Kolbe-Schule Gemeinschaftsschule","official_id":"160012","phone":"06821-95040","school_type":"Gemeinschaftsschule","school_type_entity":"Gemeinschaftsschule","state":"SL"},{"address":"Lutherstraße 2, 66538 Neunkirchen","fax":"06821-9997130","full_time_school":true,"id":"SL-3114-160021","lat":49.346785,"lon":7.176264,"name":"Gemeinschaftsschule","official_id":"160021","phone":"06821-999710","school_type":"Gemeinschaftsschule","school_type_entity":"Gemeinschaftsschule","state":"SL"},{"address":"Pestalozzistraße, 66539 Neunkirchen","fax":"06821/940940","full_time_school":true,"id":"SL-3114-160031","lat":49.347308,"lon":7.226654,"name":"Gemeinschaftsschule Neunkirchen Wellesweiler","official_id":"160031","phone":"06821/94090","school_type":"Gemeinschaftsschule","school_type_entity":"Gemeinschaftsschule","state":"SL"},{"address":"Seminarstraße 56, 66564 Ottweiler","fax":"06824-4361","full_time_school":true,"id":"SL-3115-260011","lat":49.401034,"lon":7.157514,"name":"bachem","official_id":"260011","phone":"06824/5320","school_type":"Gemeinschaftsschule","school_type_entity":"Gemeinschaftsschule","state":"SL"},{"address":"Comeniusstraße, 66578 Schiffweiler","fax":"06821-9648428","full_time_school":true,"id":"SL-3116-260011","lat":49.366598,"lon":7.127465,"name":"Gemeinschaftsschule","official_id":"260011","phone":"06821-964840","school_type":"Gemeinschaftsschule","school_type_entity":"Gemeinschaftsschule","state":"SL"},{"address":"Am Ring 39 a, 66583 Spiesen-Elversberg","fax":"06821/970013","full_time_school":false,"id":"SL-3117-160011","lat":49.319441,"lon":7.134318,"name":"Gemeinschaftsschule Spiesen-Elversberg","official_id":"160011","phone":"06821/97000","school_type":"Gemeinschaftsschule","school_type_entity":"Gemeinschaftsschule","state":"SL"},{"address":"Industriestraße 40, 66763 Dillingen","fax":"06831-978630","full_time_school":true,"id":"SL-4111-260011","lat":49.348111,"lon":6.717178,"name":"Sophie-Scholl-Gemeinschaftsschule","official_id":"260011","phone":"06831-97860","school_type":"Gemeinschaftsschule","school_type_entity":"Gemeinschaftsschule","state":"SL"},{"address":"Industriestraße 29, 66763 Dillingen","fax":"06831-9869601","full_time_school":true,"id":"SL-4111-260021","lat":49.350422,"lon":6.716099,"name":"Schule am Römerkastell Dillingen - Gemeinschaftsschule","official_id":"260021","phone":"06831-9869600","school_type":"Gemeinschaftsschule","school_type_entity":"Gemeinschaftsschule","state":"SL"},{"address":"Dillinger Straße 67, 66822 Lebach","fax":"06881-91324","full_time_school":true,"id":"SL-4112-160012","lat":49.404791,"lon":6.895171,"name":"Nikolaus-Gross-Schule (Gemeinschaftsschule)","official_id":"160012","phone":"06881-91323","school_type":"Gemeinschaftsschule","school_type_entity":"Gemeinschaftsschule","state":"SL"},{"address":"Mottener Straße 52, 66822 Lebach","fax":"06881/3025","full_time_school":false,"id":"SL-4112-260011","lat":49.414291,"lon":6.902927,"name":"Gemeinschaftsschule Lebach","official_id":"260011","phone":"06881/3065","school_type":"Gemeinschaftsschule","school_type_entity":"Gemeinschaftsschule","state":"SL"},{"address":"Josefstraße 11, 66809 Nalbach","fax":"06838-983708","full_time_school":false,"id":"SL-4113-260011","lat":49.380294,"lon":6.783348,"name":"Gemeinschaftsschule Nalbach - Schule am Litermont","official_id":"260011","phone":"06838-983706","school_type":"Gemeinschaftsschule","school_type_entity":"Gemeinschaftsschule","state":"SL"},{"address":"Beckinger Straße 38, 66780 Rehlingen-Siersburg","fax":"06835 922414","full_time_school":true,"id":"SL-4114-360011","lat":49.377395,"lon":6.682702,"name":"Gemeinschaftsschule Rehlingen-Siersburg","official_id":"360011","phone":"06835/92240","school_type":"Gemeinschaftsschule","school_type_entity":"Gemeinschaftsschule","state":"SL"},{"address":"St. Nazairer Allee 6, 66740 Saarlouis","fax":"06831-41898","full_time_school":true,"id":"SL-4115-160011","lat":49.32305,"lon":6.74288,"name":"Gemeinschaftsschule In den Fliesen Saarlouis I","official_id":"160011","phone":"06831/41878","school_type":"Gemeinschaftsschule","school_type_entity":"Gemeinschaftsschule","state":"SL"},{"address":"Kreuzbergstraße 87, 66740 Saarlouis","fax":"06831-80057","full_time_school":true,"id":"SL-4115-160021","lat":49.331832,"lon":6.781331,"name":"Gemeinschaftsschule Saarlouis II","official_id":"160021","phone":"06831-80056","school_type":"Gemeinschaftsschule","school_type_entity":"Gemeinschaftsschule","state":"SL"},{"address":"An der Waldwies 2-4, 66793 Saarwellingen","fax":"06838-900620","full_time_school":true,"id":"SL-4116-160011","lat":49.35,"lon":6.83333,"name":"Gemeinschaftsschule Saarwellingen","official_id":"160011","phone":"06838/90060","school_type":"Gemeinschaftsschule","school_type_entity":"Gemeinschaftsschule","state":"SL"},{"address":"Wilhelm-Busch-Straße 11, 66839 Schmelz","fax":"06887-887126","full_time_school":true,"id":"SL-4117-260011","lat":49.442066,"lon":6.848665,"name":"Gemeinschaftsschule Schmelz","official_id":"260011","phone":"06887/2570","school_type":"Gemeinschaftsschule","school_type_entity":"Gemeinschaftsschule","state":"SL"},{"address":"Weiherstraße 24a, 66773 Schwalbach","fax":"06834-953954","full_time_school":true,"id":"SL-4118-160011","lat":49.306365,"lon":6.814084,"name":"Gemeinschaftsschule Schwalbach","official_id":"160011","phone":"06834/953953","school_type":"Gemeinschaftsschule","school_type_entity":"Gemeinschaftsschule","state":"SL"},{"address":"Comeniusstraße 22, 66802 Überherrn","fax":"06836-2031","full_time_school":false,"id":"SL-4119-360011","lat":49.23264,"lon":6.70581,"name":"Gemeinschaftsschule Überherrn","official_id":"360011","phone":"06836/2531","school_type":"Gemeinschaftsschule","school_type_entity":"Gemeinschaftsschule","state":"SL"},{"address":"Weberstrasse, 66787 Wadgassen","fax":"06834-99416","full_time_school":true,"id":"SL-4120-360011","lat":49.265133,"lon":6.816505,"name":"Gemeinschaftsschule - Bisttalschule Wadgassen","official_id":"360011","phone":"06834-99415","school_type":"Gemeinschaftsschule","school_type_entity":"Gemeinschaftsschule","state":"SL"},{"address":"Bungertstraße 30, 66798 Wallerfangen","fax":"06831-964594","full_time_school":true,"id":"SL-4121-360011","lat":49.324331,"lon":6.713363,"name":"Gemeinschaftsschule Wallerfangen","official_id":"360011","phone":"06831/964585","school_type":"Gemeinschaftsschule","school_type_entity":"Gemeinschaftsschule","state":"SL"},{"address":"Eichendorffweg 1, 66450 Bexbach","fax":"06826-932929","full_time_school":true,"id":"SL-5111-160011","lat":49.352201,"lon":7.253793,"name":"Gemeinschaftsschule \"Galileo-Schule\"","official_id":"160011","phone":"06826-93290","school_type":"Gemeinschaftsschule","school_type_entity":"Gemeinschaftsschule","state":"SL"},{"address":"Schulzentrum, 66440 Blieskastel","fax":"06842/923766","full_time_school":true,"id":"SL-5112-260011","lat":49.24222,"lon":7.25444,"name":"Gemeinschaftsschule Blieskastel","official_id":"260011","phone":"06842/923760","school_type":"Gemeinschaftsschule","school_type_entity":"Gemeinschaftsschule","state":"SL"},{"address":"Schulzentrum, 66453 Gersheim","fax":"06843-9007-127","full_time_school":true,"id":"SL-5113-260011","lat":49.13333,"lon":7.2,"name":"Gemeinschaftsschule","official_id":"260011","phone":"06843-9007-29","school_type":"Gemeinschaftsschule","school_type_entity":"Gemeinschaftsschule","state":"SL"},{"address":"Virchowstraße 7, 66424 Homburg","fax":"06841-923326","full_time_school":true,"id":"SL-5114-160011","lat":49.31497,"lon":7.338603,"name":"Gemeinschaftsschule Homburg I","official_id":"160011","phone":"06841/92330","school_type":"Gemeinschaftsschule","school_type_entity":"Gemeinschaftsschule","state":"SL"},{"address":"Cranachstraße 7, 66424 Homburg","fax":"06841/9729321","full_time_school":true,"id":"SL-5114-160021","lat":49.333053,"lon":7.325007,"name":"Gemeinschaftsschule Homburg II","official_id":"160021","phone":"06841/972930","school_type":"Gemeinschaftsschule","school_type_entity":"Gemeinschaftsschule","state":"SL"},{"address":"Hauptstraße 75, 66459 Kirkel-Limbach","fax":"06841-980429","full_time_school":true,"id":"SL-5115-160011","lat":50.859967,"lon":12.802456,"name":"Gemeinschaftsschule Kirkel- Limbach","official_id":"160011","phone":"06841-980040","school_type":"Gemeinschaftsschule","school_type_entity":"Gemeinschaftsschule","state":"SL"},{"address":"Vichter Straße 1, 66399 Mandelbachtal","fax":"06803/390020","full_time_school":true,"id":"SL-5116-260011","lat":49.21823,"lon":7.155979,"name":"Gemeinschaftsschule Mandelbachtal","official_id":"260011","phone":"06803/39000","school_type":"Gemeinschaftsschule","school_type_entity":"Gemeinschaftsschule","state":"SL"},{"address":"Im Schmelzerwald 66, 66386 St. Ingbert","fax":"06894-960918","full_time_school":false,"id":"SL-5117-260011","lat":49.271203,"lon":7.104844,"name":"Gemeinschaftsschule I St. Ingbert","official_id":"260011","phone":"06894/96090","school_type":"Gemeinschaftsschule","school_type_entity":"Gemeinschaftsschule","state":"SL"},{"address":"Sportplatzstraße 3, 66386 St. Ingbert","fax":"06894/9989829","full_time_school":true,"id":"SL-5117-260021","lat":49.286512,"lon":7.166076,"name":"Gemeinschaftsschule St. Ingbert-Rohrbach","official_id":"260021","phone":"06894/9989820","school_type":"Gemeinschaftsschule","school_type_entity":"Gemeinschaftsschule","state":"SL"},{"address":"Schulstraße 43, 66629 Freisen","fax":"06855/996902","full_time_school":false,"id":"SL-6111-260011","lat":49.547767,"lon":7.252041,"name":"Gemeinschaftsschule Freisen","official_id":"260011","phone":"06855/7992","school_type":"Gemeinschaftsschule","school_type_entity":"Gemeinschaftsschule","state":"SL"},{"address":"Marienstrasse 21, 66646 Marpingen","fax":"06853-910611","full_time_school":true,"id":"SL-6112-160011","lat":49.450562,"lon":7.055691,"name":"Gemeinschaftsschule","official_id":"160011","phone":"06853-91060","school_type":"Gemeinschaftsschule","school_type_entity":"Gemeinschaftsschule","state":"SL"},{"address":"Trierer Straße 23, 66625 Nohfelden-Türkismühle","fax":"06852-902511","full_time_school":true,"id":"SL-6114-260011","lat":49.580851,"lon":7.101035,"name":"Gemeinschaftsschule","official_id":"260011","phone":"06852-90250","school_type":"Gemeinschaftsschule","school_type_entity":"Gemeinschaftsschule","state":"SL"},{"address":"Willi-Graf-Straße 3, 66606 St. Wendel","fax":"06851/931933","full_time_school":true,"id":"SL-6117-160011","lat":49.469108,"lon":7.153093,"name":"Gemeinschaftsschule St. Wendel","official_id":"160011","phone":"06851/93190","school_type":"Gemeinschaftsschule","school_type_entity":"Gemeinschaftsschule","state":"SL"},{"address":"Toni Lermen Straße 2, 66636 Tholey-Theley","fax":"06853/912850","full_time_school":false,"id":"SL-6118-160011","lat":49.500473,"lon":7.025386,"name":"Gemeinschaftsschule Tholey","official_id":"160011","phone":"06853/9128-0","school_type":"Gemeinschaftsschule","school_type_entity":"Gemeinschaftsschule","state":"SL"},{"address":"Am Landwehrplatz 3, 66111 Saarbrücken","fax":null,"full_time_school":false,"id":"SL-1100-015011","lat":49.233761,"lon":7.001224,"name":"Abendgymnasium Saarbrücken","official_id":"015011","phone":"0681-3798118","school_type":"Abendgymnasium-Saarland-Kolleg","school_type_entity":"Abend-Gymnasium","state":"SL"},{"address":"Rheinstraße 95, 66113 Saarbrücken","fax":"0681-754826","full_time_school":false,"id":"SL-1100-016011","lat":49.24736,"lon":6.958567,"name":"Saarland-Kolleg","official_id":"016011","phone":"0681-751610","school_type":"Abendgymnasium-Saarland-Kolleg","school_type_entity":"Abend-Gymnasium","state":"SL"}]