[{"name":"\"Grundschule am Schlosspark\" Rösa","id":"ST-0","address":"Gutshof 4 06774 Muldestausee OT Rösa","fax":"034208/780012","phone":"034208/72142","full_time_school":false,"email":"kontakt@gs-roesa.bildung-lsa.de","website":"http://www.gs-roesa.bildung-lsa.de","programs":{"programs":[]},"state":"ST","lon":12.488334,"lat":51.614023},{"name":"Berufsbildende Schulen des Landkreises Harz","id":"ST-1","address":"Feldstraße 79 38855 Wernigerode","fax":"03943/545713","phone":"03943/54570","full_time_school":false,"email":"kontakt@bbs-wernigerode.bildung-lsa.de","website":"http://www.bbs-wernigerode.de","programs":{"programs":[]},"state":"ST","lon":10.796153,"lat":51.845259},{"name":"Berufsbildende Schulen des Altmarkkreises Salzwedel","id":"ST-2","address":"Käthe-Kollwitz-Straße 1 29410 Hansestadt Salzwedel","fax":"03901/858033","phone":"03901/85800","full_time_school":false,"email":"kontakt@bbs-salzwedel.bildung-lsa.de","website":"http://www.bbs-salzwedel.bildung-lsa.de","programs":{"programs":[]},"state":"ST","lon":11.18639,"lat":52.832368},{"name":"Berufsbildende Schulen Burgenlandkreis","id":"ST-3","address":"Tagewerbener Straße 75 06667 Weißenfels","fax":"03443/283112","phone":"03443/283171","full_time_school":false,"email":"kontakt@bbs-blk.bildung-lsa.de","website":"http://www.bbs-blk.de","programs":{"programs":[]},"state":"ST","lon":11.963513,"lat":51.217315},{"name":"Berufsbildende Schulen Anhalt-Bitterfeld","id":"ST-4","address":"Parsevalstraße 2 06749 Bitterfeld-Wolfen OT Bitterfeld","fax":"03493/305919","phone":"03493/305910","full_time_school":false,"email":"kontakt@bbs-abi.bildung-lsa.de","website":"http://www.bbs-abi.bildung-lsa.de","programs":{"programs":[]},"state":"ST","lon":12.30166,"lat":51.627024},{"name":"Berufsbildende Schulen \"Otto von Guericke\"","id":"ST-5","address":"Am Krökentor 1 b - 3 39104 Magdeburg","fax":"0391/5321550","phone":"0391/532150","full_time_school":false,"email":"kontakt@bbs3-magdeburg.bildung-lsa.de","website":"http://www.bbsovg-magdeburg.de","programs":{"programs":[]},"state":"ST","lon":11.636805,"lat":52.138141},{"name":"Berufsbildende Schulen \"Hermann Beims\"","id":"ST-6","address":"Salzmannstraße 9 - 15 39112 Magdeburg","fax":"0391/5412000","phone":"0391/5414666","full_time_school":false,"email":"kontakt@bbs2-magdeburg.bildung-lsa.de","website":"http://www.bbs2-magdeburg.bildung-lsa.de","programs":{"programs":[]},"state":"ST","lon":11.604539,"lat":52.108682},{"name":"Berufsbildende Schulen \"Gutjahr\" Halle (Saale)","id":"ST-7","address":"An der Schwimmhalle 3 06122 Halle (Saale)","fax":"0345/6830411","phone":"0345/683040","full_time_school":false,"email":"kontakt@bbs-gutjahr.bildung-lsa.de","website":"http://www.bbs-gutjahr.bildung-lsa.de","programs":{"programs":[]},"state":"ST","lon":11.914071,"lat":51.48065},{"name":"Berufsbildende Schulen \"Geschwister Scholl\"","id":"ST-8","address":"Böhnshauser Straße 4 38895 Halberstadt OT Langenstein","fax":"03941/5732922","phone":"03941/5732916","full_time_school":false,"email":"kontakt@bbs-halberstadt.bildung-lsa.de","website":"http://www.bbs-halberstadt.de","programs":{"programs":[]},"state":"ST","lon":11.0447,"lat":51.8962},{"name":"Berufsbildende Schulen \"Eike von Repgow\"","id":"ST-9","address":"Albert-Vater-Straße 90 39108 Magdeburg","fax":"0391/50692281","phone":"0391/5069220","full_time_school":false,"email":"kontakt@bbs1-magdeburg.bildung-lsa.de","website":"http://www.bbs1-md.de","programs":{"programs":[]},"state":"ST","lon":11.611883,"lat":52.13977},{"name":"Berufsbildende Schulen \"Dr. Otto Schlein\"","id":"ST-10","address":"Alt Westerhüsen 51/52 39122 Magdeburg","fax":"0391/4069657","phone":"0391/406960","full_time_school":false,"email":"kontakt@bbs4-magdeburg.bildung-lsa.de","website":"http://www.bbs4-magdeburg.bildung-lsa.de","programs":{"programs":[]},"state":"ST","lon":11.678537,"lat":52.060399},{"name":"Berufsbildende Schulen \"Conrad Tack\"","id":"ST-11","address":"Magdeburger Chaussee 1 39288 Burg","fax":"03921/976613","phone":"03921/97660","full_time_school":false,"email":"kontakt@bbs-burg.bildung-lsa.de","website":"http://www.bbs-burg.de","programs":{"programs":[]},"state":"ST","lon":11.848704,"lat":52.268158},{"name":"Bernsteinschule Friedersdorf","id":"ST-12","address":"Kirchplatz 2 06774 Muldestausee OT Friedersdorf","fax":"03493/55494","phone":"03493/55494","full_time_school":false,"email":"kontakt@gs-friedersdorf.bildung-lsa.de","website":"http://www.gs-friedersdorf.bildung-lsa.de","programs":{"programs":[]},"state":"ST","lon":12.367157,"lat":51.646708},{"name":"Bergschule Weißenfels","id":"ST-13","address":"Karl-Liebknecht-Str. 6 06667 Weißenfels","fax":"03443/305184","phone":"03443/305184","full_time_school":false,"email":"kontakt@gs-berg-weissenfels.bildung-lsa.de","website":"http://www.gs-berg-weissenfels.bildung-lsa.de","programs":{"programs":[]},"state":"ST","lon":11.978639,"lat":51.202284},{"name":"Bergschule Landsberg","id":"ST-14","address":"Hillerstraße 8 06188 Landsberg","fax":"034602/400760","phone":"034602/20382","full_time_school":false,"email":"kontakt@gs-landsberg.bildung-lsa.de","website":"http://www.bergschule-landsberg.de","programs":{"programs":[]},"state":"ST","lon":12.161903,"lat":51.526264},{"name":"Bergschule Bad Kösen","id":"ST-15","address":"Kirchplatz 2 06628 Naumburg (Saale) OT Bad Kösen","fax":"034463/60427","phone":"034463/27293","full_time_school":false,"email":"kontakt@gs-berg-badkoesen.bildung-lsa.de","website":"http://www.gs-berg-badkoesen.bildung-lsa.de","programs":{"programs":["Seniorpartner in School"]},"state":"ST","lon":11.721042,"lat":51.131771},{"name":"Zweite Integrierte Gesamtschule Halle","id":"ST-16","address":"Rigaer Straße 1a 06128 Halle (Saale)","fax":"0345/12269037","phone":"0345/12269036","full_time_school":false,"email":"kontakt@igs2-halle.bildung-lsa.de","website":"http://www.igs2-halle.bildung-lsa.de","programs":{"programs":["Schule ohne Rassismus - Schule mit Courage"]},"state":"ST","lon":11.953198,"lat":51.451564},{"name":"Zinzendorfschule Gnadau","id":"ST-17","address":"Mühlenweg 2 39249 Barby OT Gnadau","fax":"03928/4698899","phone":"03928/4698888","full_time_school":false,"email":"kontakt@gs-evangelisch-gnadau.bildung-lsa.de","website":"http://www.gs-evangelisch-gnadau.bildung-lsa.de","programs":{"programs":[]},"state":"ST","lon":11.779915,"lat":51.975753},{"name":"Wolterstorff-Gymnasium","id":"ST-18","address":"Wolterstorffstraße 20 06493 Ballenstedt","fax":"039483/979444","phone":"039483/280","full_time_school":false,"email":"kontakt@gym-wolterstorff.bildung-lsa.de","website":"http://www.gymba.de","programs":{"programs":["Schule ohne Rassismus - Schule mit Courage"]},"state":"ST","lon":11.224899,"lat":51.717876},{"name":"Wittekind-Grundschule","id":"ST-19","address":"Friedenstraße 37 06114 Halle (Saale)","fax":"0345/5238706","phone":"0345/5229140","full_time_school":false,"email":"kontakt@gs-wittekind.bildung-lsa.de","website":"http://www.gs-wittekind.bildung-lsa.de","programs":{"programs":[]},"state":"ST","lon":11.958274,"lat":51.500371},{"name":"Winckelmann-Gymnasium","id":"ST-20","address":"Westwall 26 39576 Hansestadt Stendal","fax":"03931/4182171","phone":"03931/41820","full_time_school":false,"email":"kontakt@gym-winckelmann-stendal.bildung-lsa.de","website":"http://www.winckelmann-gymnasium.de","programs":{"programs":[]},"state":"ST","lon":11.854135,"lat":52.60315},{"name":"Wilhelm und Alexander von Humboldt Gymnasium","id":"ST-21","address":"Rathausstraße 2 06333 Hettstedt","fax":"03476/812472","phone":"03476/812152","full_time_school":false,"email":"kontakt@gym-humboldt.bildung-lsa.de","website":"http://www.gymnasium-hettstedt.de","programs":{"programs":["Schule ohne Rassismus - Schule mit Courage"]},"state":"ST","lon":11.511651,"lat":51.646408},{"name":"Weinberggrundschule","id":"ST-22","address":"Hauptstraße 12 a 06198 Salzatal OT Höhnstedt","fax":"034601/39421","phone":"034601/31778","full_time_school":false,"email":"kontakt@gs-allende-hoehnstedt.bildung-lsa.de","website":"http://www.gs-allende-hoehnstedt.bildung-lsa.de","programs":{"programs":[]},"state":"ST","lon":11.737466,"lat":51.503144},{"name":"Wartbergschule","id":"ST-23","address":"Goethestraße 15 39167 Hohe Börde OT Niederndodeleben","fax":"039204/76920","phone":"039204/7690","full_time_school":false,"email":"kontakt@sks-niederndodeleben.bildung-lsa.de","website":"http://www.sks-niederndodeleben.bildung-lsa.de","programs":{"programs":[]},"state":"ST","lon":11.497779,"lat":52.13642},{"name":"WALDSCHULE - Förderschule (GB) Hettstedt","id":"ST-24","address":"Arnstedter Weg 11 06333 Hettstedt","fax":"03476/936085","phone":"03476/851088","full_time_school":false,"email":"kontakt@waldschule.bildung-lsa.de","website":"http://www.waldschule.bildung-lsa.de","programs":{"programs":[]},"state":"ST","lon":11.513022,"lat":51.656779},{"name":"Uta-Schule","id":"ST-25","address":"Schönburger Straße 20 06618 Naumburg (Saale)","fax":"03445/6990458","phone":"03445/703360","full_time_school":false,"email":"kontakt@gs-uta.bildung-lsa.de","website":"http://www.gs-uta.bildung-lsa.de","programs":{"programs":[]},"state":"ST","lon":11.819548,"lat":51.151808},{"name":"Thomas-Müntzer-Grundschule Sieglitz","id":"ST-26","address":"Sieglitz 63 06618 Molauer Land OT Sieglitz","fax":"036421/22678","phone":"036421/22678","full_time_school":false,"email":"kontakt@gs-muentzer-sieglitz.bildung-lsa.de","website":"http://www.gs-muentzer-sieglitz.bildung-lsa.de","programs":{"programs":[]},"state":"ST","lon":11.759101,"lat":51.06386},{"name":"Thomas-Müntzer-Grundschule","id":"ST-27","address":"Raismeser Straße 9 06295 Lutherstadt Eisleben","fax":"03475/725871","phone":"03475/717710","full_time_school":false,"email":"kontakt@gs-muentzer-eisleben.bildung-lsa.de","website":"http://www.gs-muentzer-eisleben.bildung-lsa.de","programs":{"programs":[]},"state":"ST","lon":11.566228,"lat":51.511606},{"name":"Thomas-Mann-Grundschule","id":"ST-28","address":"Schulweg 2 38871 Ilsenburg (Harz) OT Darlingerode","fax":"03943/605998","phone":"03943/633540","full_time_school":false,"email":"kontakt@gs-mann-darlingerode.bildung-lsa.de","website":"http://www.gs-mann-darlingerode.bildung-lsa.de","programs":{"programs":[]},"state":"ST","lon":10.715806,"lat":51.858555},{"name":"Südharz-Grundschule Roßla","id":"ST-29","address":"Agnesdorfer Straße 30/31 06536 Südharz OT Roßla","fax":"034651/90963","phone":"034651/90962","full_time_school":false,"email":"kontakt@gs-rossla.bildung-lsa.de","website":"nicht angegeben","programs":{"programs":[]},"state":"ST","lon":11.077033,"lat":51.46404},{"name":"Staatlich anerkannte Ersatzschule mit Ausgleichsklassen","id":"ST-30","address":"Dr.-John-Rittmeister-Straße 6 06406 Bernburg (Saale)","fax":"nicht angegeben","phone":"03471/374032","full_time_school":false,"email":"kontakt@sos-bernburg-a.bildung-lsa.de","website":"http://www.sos-bernburg-a.bildung-lsa.de","programs":{"programs":[]},"state":"ST","lon":11.729733,"lat":51.789657},{"name":"St. Mechthild-Grundschule","id":"ST-31","address":"Nachtweide 76 39124 Magdeburg","fax":"0391/25443832","phone":"0391/2448850","full_time_school":false,"email":"kontakt@gs-st-mechthild.bildung-lsa.de","website":"http://www.gs-st-mechthild.bildung-lsa.de","programs":{"programs":[]},"state":"ST","lon":11.644419,"lat":52.159008},{"name":"Sprachheilschule Halle","id":"ST-32","address":"Ingolstädter Straße 33 06128 Halle (Saale)","fax":"0345/1316451","phone":"0345/4721133","full_time_school":false,"email":"kontakt@sos-halle-s.bildung-lsa.de","website":"http://www.sprachheilschule-halle.de","programs":{"programs":[]},"state":"ST","lon":11.950519,"lat":51.45162},{"name":"Sportschulen Halle","id":"ST-33","address":"Amselweg 49 06110 Halle (Saale)","fax":"0345/1319820","phone":"0345/131980","full_time_school":false,"email":"kontakt@gym-sport-halle.bildung-lsa.de","website":"http://www.sportschulen-halle.de","programs":{"programs":[]},"state":"ST","lon":11.968366,"lat":51.461713},{"name":"Sportgymnasium","id":"ST-34","address":"Friedrich-Ebert-Straße 16 39114 Magdeburg","fax":"0391/8182855","phone":"0391/8182811","full_time_school":false,"email":"kontakt@gym-sport-magdeburg.bildung-lsa.de","website":"http://www.sportgymnasium-magdeburg.de","programs":{"programs":[]},"state":"ST","lon":11.664787,"lat":52.123156},{"name":"Sonnenlandschule - Förderschule (GB)","id":"ST-35","address":"Bahnhofstraße 12 06766 Bitterfeld-Wolfen OT Wolfen","fax":"03494/36878799","phone":"03494/3687870","full_time_school":false,"email":"kontakt@sos-wolfen.bildung-lsa.de","website":"http://www.sonnenlandschule-wolfen.de","programs":{"programs":[]},"state":"ST","lon":12.317934,"lat":51.61989},{"name":"Sonderschule Neinstedt","id":"ST-36","address":"Lindenstraße 21 a 06502 Thale OT Neinstedt","fax":"nicht angegeben","phone":"03947/99670","full_time_school":false,"email":"kontakt@sos-neinstedt.bildung-lsa.de","website":"http://www.sos-neinstedt.bildung-lsa.de","programs":{"programs":[]},"state":"ST","lon":11.090122,"lat":51.751758},{"name":"Sonderschule für Geistigbehinderte Jugenddorf Sangerhausen","id":"ST-37","address":"Lindenstraße 06526 Sangerhausen","fax":"03464/5698920","phone":"03464/569890","full_time_school":false,"email":"kontakt@sos-jugenddorf.bildung-lsa.de","website":"http://www.sos-jugenddorf.bildung-lsa.de","programs":{"programs":[]},"state":"ST","lon":11.295568,"lat":51.457935},{"name":"SINE-CURA-Schule - Förderschule (GB)","id":"ST-38","address":"Starenweg 19 06485 Quedlinburg OT Gernrode","fax":"039485/610090","phone":"039485/610012","full_time_school":false,"email":"kontakt@sos-sinecura.bildung-lsa.de","website":"http://www.sos-sinecura.bildung-lsa.de","programs":{"programs":[]},"state":"ST","lon":11.129845,"lat":51.729464},{"name":"Siedlungs-Grundschule","id":"ST-39","address":"Richard-Wagner-Straße 2 a 06231 Bad Dürrenberg","fax":"03462/868274","phone":"03462/82382","full_time_school":false,"email":"kontakt@gs-siedlung.bildung-lsa.de","website":"http://www.gs-siedlung.bildung-lsa.de","programs":{"programs":[]},"state":"ST","lon":12.074743,"lat":51.304645},{"name":"Sekundarschule Zörbig","id":"ST-40","address":"Grünstraße 5 06780 Zörbig","fax":"034956/39086","phone":"034956/20044","full_time_school":false,"email":"kontakt@sks-zoerbig.bildung-lsa.de","website":"http://www.sks-zoerbig.bildung-lsa.de","programs":{"programs":[]},"state":"ST","lon":12.118783,"lat":51.626531},{"name":"Sekundarschule Zoberberg","id":"ST-41","address":"Kastanienhof 14 06847 Dessau-Roßlau","fax":"0340/53342315","phone":"0340/5334230","full_time_school":false,"email":"kontakt@sks-zoberberg.bildung-lsa.de","website":"http://www.sks-zoberberg.bildung-lsa.de","programs":{"programs":[]},"state":"ST","lon":12.189075,"lat":51.815998},{"name":"Sekundarschule Wanzleben","id":"ST-42","address":"Schulpromenade 9 39164 Wanzleben-Börde OT Wanzleben","fax":"039209/43521","phone":"039209/3165","full_time_school":false,"email":"kontakt@sks-wanzleben.bildung-lsa.de","website":"http://www.sks-wanzleben.bildung-lsa.de","programs":{"programs":[]},"state":"ST","lon":11.3131766,"lat":52.0953318},{"name":"Sekundarschule V","id":"ST-43","address":"Diesterwegring 24 39387 Oschersleben (Bode)","fax":"03949/512416","phone":"03949/2242","full_time_school":false,"email":"kontakt@sks-oschersleben5.bildung-lsa.de","website":"http://www.sks-oschersleben5.bildung-lsa.de","programs":{"programs":[]},"state":"ST","lon":11.236493,"lat":52.037459},{"name":"Sekundarschule Thale/Nord","id":"ST-44","address":"Neustädter Straße 48 06502 Thale","fax":"03947/7792816","phone":"03947/779280","full_time_school":false,"email":"kontakt@sks-thale-nord.bildung-lsa.de","website":"http://www.sks-thale-nord.bildung-lsa.de","programs":{"programs":["Be smart - don't Start"]},"state":"ST","lon":11.04067,"lat":51.758659},{"name":"Sekundarschule Sülzetal","id":"ST-45","address":"Halberstädter Straße 4 39171 Sülzetal OT Langenweddingen","fax":"039205/699076","phone":"039205/69343","full_time_school":false,"email":"kontakt@sks-altenweddingen.bildung-lsa.de","website":"http://www.gts-sülzetal.de","programs":{"programs":[]},"state":"ST","lon":11.521582,"lat":52.032191},{"name":"Sekundarschule Roßla","id":"ST-46","address":"Ziegeleistraße 38 06536 Südharz OT Roßla","fax":"034651/296026","phone":"034651/2466","full_time_school":false,"email":"kontakt@sks-rossla.bildung-lsa.de","website":"http://www.sks-rossla.bildung-lsa.de","programs":{"programs":[]},"state":"ST","lon":11.082398,"lat":51.461884},{"name":"Sekundarschule Raguhn","id":"ST-47","address":"Gartenstraße 34 06779 Raguhn-Jeßnitz OT Raguhn","fax":"034906/324595","phone":"034906/20240","full_time_school":false,"email":"kontakt@sks-raguhn.bildung-lsa.de","website":"http://www.sekundarschule-raguhn.de","programs":{"programs":[]},"state":"ST","lon":12.272886,"lat":51.712015},{"name":"Sekundarschule Muldenstein","id":"ST-48","address":"Burgkemnitzer Straße 28 06774 Muldestausee OT Muldenstein","fax":"03493/511134","phone":"03493/55132","full_time_school":false,"email":"kontakt@sks-muldenstein.bildung-lsa.de","website":"http://www.schule-muldenstein.de","programs":{"programs":["Schule ohne Rassismus - Schule mit Courage"]},"state":"ST","lon":12.342252,"lat":51.67115},{"name":"Sekundarschule Möser","id":"ST-49","address":"Thälmannstraße 9 39291 Möser","fax":"039222/96196","phone":"039222/96194","full_time_school":false,"email":"kontakt@sks-moeser.bildung-lsa.de","website":"http://www.sks-moeser.bildung-lsa.de","programs":{"programs":[]},"state":"ST","lon":11.792681,"lat":52.217499},{"name":"Sekundarschule LebenLernen Wernigerode","id":"ST-50","address":"Ilsenburger Straße 31 - Haus B 38855 Wernigerode","fax":"nicht angegeben","phone":"03943/625312","full_time_school":false,"email":"kontakt@sks-lebenlernen-wernigerode.bildung-lsa.de","website":"http://www.sks-lebenlernen-wernigerode.bildung-lsa.de","programs":{"programs":[]},"state":"ST","lon":10.768147,"lat":51.837611},{"name":"Sekundarschule Kreuzberge","id":"ST-51","address":"Werner-Seelenbinder-Ring 59 06849 Dessau-Roßlau","fax":"0340/8824912","phone":"0340/8824908","full_time_school":false,"email":"kontakt@sks-kreuzberge.bildung-lsa.de","website":"http://www.sks-kreuzberge.bildung-lsa.de","programs":{"programs":[]},"state":"ST","lon":12.248067,"lat":51.810713},{"name":"Sekundarschule Jessen-Nord","id":"ST-52","address":"Straße der Jugend 9 06917 Jessen (Elster)","fax":"03537/213171","phone":"03537/213166","full_time_school":false,"email":"kontakt@sks-jessen-nord.bildung-lsa.de","website":"http://www.sks-jessen-nord.de","programs":{"programs":["Schule ohne Rassismus - Schule mit Courage"]},"state":"ST","lon":12.962779,"lat":51.79703},{"name":"Sekundarschule III","id":"ST-53","address":"Schillerstraße 06712 Zeitz","fax":"03441/718658","phone":"03441/212140","full_time_school":false,"email":"kontakt@sks-zeitz3.bildung-lsa.de","website":"http://www.sks-zeitz3.bildung-lsa.de","programs":{"programs":["Schule ohne Rassismus - Schule mit Courage"]},"state":"ST","lon":12.1428431,"lat":51.0526974},{"name":"Sekundarschule I Wolfen-Nord","id":"ST-54","address":"Fritz-Weineck-Straße 6 und 8 06766 Bitterfeld-Wolfen OT Wolfen","fax":"03494/503064","phone":"03494/21046","full_time_school":false,"email":"kontakt@sks-wolfennord1.bildung-lsa.de","website":"http://www.sekundarschule1wolfen.de.vu","programs":{"programs":[]},"state":"ST","lon":12.260029,"lat":51.684909},{"name":"Sekundarschule Halle-Süd - Ganztagsschule","id":"ST-55","address":"Kurt-Wüsteneck-Straße 21 06132 Halle (Saale)","fax":"0345/77577347","phone":"0345/7704715","full_time_school":true,"email":"kontakt@sks-halle-sued.bildung-lsa.de","website":"http://www.sks-halle-sued.bildung-lsa.de","programs":{"programs":["Be smart - don't Start"]},"state":"ST","lon":11.980272,"lat":51.429718},{"name":"Sekundarschule Förderstedt","id":"ST-56","address":"Schulstraße 6 a 39443 Staßfurt OT Förderstedt","fax":"039266/92078","phone":"039266/92077","full_time_school":false,"email":"kontakt@sks-foerderstedt.bildung-lsa.de","website":"http://www.sks-foerderstedt.bildung-lsa.de","programs":{"programs":[]},"state":"ST","lon":11.594372,"lat":51.849191},{"name":"Sekundarschule Elsteraue","id":"ST-57","address":"Ostrauer Straße 7 06729 Elsteraue OT Reuden","fax":"034424/404919","phone":"034424/40490","full_time_school":false,"email":"kontakt@sks-reuden.bildung-lsa.de","website":"http://www.sks-reuden.bildung-lsa.de","programs":{"programs":["Be smart - don't Start","Schule ohne Rassismus - Schule mit Courage","Seniorpartner in School"]},"state":"ST","lon":12.190993,"lat":51.107867},{"name":"Sekundarschule Elster","id":"ST-58","address":"Lindenstraße 11 06895 Zahna-Elster OT Elster","fax":"035383/600040","phone":"035383/20313","full_time_school":false,"email":"kontakt@sks-elster.bildung-lsa.de","website":"http://www.sks-elster.bildung-lsa.de","programs":{"programs":["Schule ohne Rassismus - Schule mit Courage"]},"state":"ST","lon":12.821886,"lat":51.828249},{"name":"Sekundarschule Eilsleben","id":"ST-59","address":"Ummendorfer Straße 9 39365 Eilsleben","fax":"039409/21223","phone":"039409/21222","full_time_school":false,"email":"kontakt@sks-eilsleben.bildung-lsa.de","website":"http://www.sks-eilsleben.bildung-lsa.de","programs":{"programs":[]},"state":"ST","lon":11.202485,"lat":52.150665},{"name":"Sekundarschule Droyßig","id":"ST-60","address":"Friedensstraße 6 06722 Droyßig","fax":"034425/27779","phone":"034425/21336","full_time_school":false,"email":"kontakt@sks-droyssig.bildung-lsa.de","website":"http://www.sks-droyssig.bildung-lsa.de","programs":{"programs":["Schule ohne Rassismus - Schule mit Courage"]},"state":"ST","lon":12.031435,"lat":51.038823},{"name":"Sekundarschule Dähre","id":"ST-61","address":"Bahnhofstraße 8 29413 Dähre","fax":"039031/80238","phone":"039031/302","full_time_school":false,"email":"kontakt@sks-daehre.bildung-lsa.de","website":"http://www.sekundarschule-daehre.de","programs":{"programs":["Schule ohne Rassismus - Schule mit Courage"]},"state":"ST","lon":10.910596,"lat":52.799223},{"name":"Sekundarschule Coswig","id":"ST-62","address":"Lange Straße 42b 06869 Coswig (Anhalt)","fax":"034903/48783","phone":"034903/63457","full_time_school":false,"email":"kontakt@sks-coswig.bildung-lsa.de","website":"http://www.sks-coswig.bildung-lsa.de","programs":{"programs":["Schule ohne Rassismus - Schule mit Courage"]},"state":"ST","lon":12.453874,"lat":51.884252},{"name":"Sekundarschule CIERVISTI - Ganztagsschule","id":"ST-63","address":"Fuhrstraße 40 39261 Zerbst (Anhalt)","fax":"03923/787698","phone":"03923/780020","full_time_school":true,"email":"kontakt@sks-zerbst.bildung-lsa.de","website":"http://www.sks-zerbst.bildung-lsa.de","programs":{"programs":["Be smart - don't Start","Schule ohne Rassismus - Schule mit Courage"]},"state":"ST","lon":12.090895,"lat":51.967149},{"name":"Sekundarschule Brettin","id":"ST-64","address":"Am Bahnhof 8 39307 Stadt Jerichow OT Brettin","fax":"03933/91433","phone":"03933/4834","full_time_school":false,"email":"kontakt@sks-brettin.bildung-lsa.de","website":"http://www.sks-brettin.bildung-lsa.de","programs":{"programs":[]},"state":"ST","lon":12.180645,"lat":52.425891},{"name":"Sekundarschule Bismark","id":"ST-65","address":"Karl-Marx-Straße 5 39629 Bismark (Altmark)","fax":"039089/31914","phone":"039089/2083","full_time_school":false,"email":"kontakt@sks-bismark.bildung-lsa.de","website":"http://www.sks-bismark.bildung-lsa.de","programs":{"programs":[]},"state":"ST","lon":11.554885,"lat":52.662888},{"name":"Sekundarschule Benndorf","id":"ST-66","address":"Adolf-Diesterweg-Straße 2 06308 Benndorf","fax":"034772/29163","phone":"034772/29153","full_time_school":false,"email":"kontakt@sks-benndorf.bildung-lsa.de","website":"http://www.sks-benndorf.bildung-lsa.de","programs":{"programs":[]},"state":"ST","lon":11.496771,"lat":51.574181},{"name":"Sekundarschule Beetzendorf","id":"ST-67","address":"Friedrich-Engels-Straße 14 38489 Beetzendorf","fax":"039000/907886","phone":"039000/350","full_time_school":false,"email":"kontakt@sks-beetzendorf.bildung-lsa.de","website":"http://www.sks-beetzendorf.bildung-lsa.de","programs":{"programs":["Schule ohne Rassismus - Schule mit Courage"]},"state":"ST","lon":11.084304,"lat":52.699044},{"name":"Sekundarschule Bad Schmiedeberg","id":"ST-68","address":"Torgauer Straße 32 a 06905 Bad Schmiedeberg","fax":"034925/70270","phone":"034925/70275","full_time_school":false,"email":"kontakt@sks-badschmiedeberg.bildung-lsa.de","website":"http://www.sks-badschmiedeberg.bildung-lsa.de","programs":{"programs":["Schule ohne Rassismus - Schule mit Courage"]},"state":"ST","lon":12.74236,"lat":51.691077},{"name":"Sekundarschule Bad Bibra","id":"ST-69","address":"Steinbacher Straße 2 06647 Bad Bibra","fax":"034465/700074","phone":"034465/700031","full_time_school":false,"email":"kontakt@sks-badbibra.bildung-lsa.de","website":"http://www.sks-badbibra.bildung-lsa.de","programs":{"programs":[]},"state":"ST","lon":11.580288,"lat":51.20341},{"name":"Sekundarschule Annaburg","id":"ST-70","address":"Kellerberg 3 06925 Annaburg","fax":"035385/21054","phone":"035385/20280","full_time_school":false,"email":"kontakt@sks-annaburg.bildung-lsa.de","website":"http://www.sks-annaburg.bildung-lsa.de","programs":{"programs":["Schule ohne Rassismus - Schule mit Courage"]},"state":"ST","lon":13.045813,"lat":51.728565},{"name":"Sekundarschule an der Rüsternbreite","id":"ST-71","address":"Geschwister-Scholl-Straße 1 06366 Köthen (Anhalt)","fax":"03496/5099079","phone":"03496/551260","full_time_school":false,"email":"kontakt@sks-ruesternbreite.bildung-lsa.de","website":"http://www.sks-ruesternbreite.bildung-lsa.de","programs":{"programs":["Be smart - don't Start"]},"state":"ST","lon":11.957922,"lat":51.742513},{"name":"Sekundarschule an der Biethe","id":"ST-72","address":"Mitschurinstraße 21 06862 Dessau-Roßlau","fax":"034901/94703","phone":"034901/82562","full_time_school":false,"email":"kontakt@sks-biethe.bildung-lsa.de","website":"http://www.sks-biethe.bildung-lsa.de","programs":{"programs":[]},"state":"ST","lon":12.228693,"lat":51.8873},{"name":"Sekundarschule am Schillerpark","id":"ST-73","address":"Ringstraße 48 06844 Dessau-Roßlau","fax":"0340/5169668","phone":"0340/213730","full_time_school":false,"email":"kontakt@sks-rathaus.bildung-lsa.de","website":"http://www.sks-rathaus.bildung-lsa.de","programs":{"programs":[]},"state":"ST","lon":12.250374,"lat":51.843739},{"name":"Sekundarschule am Burgtor","id":"ST-74","address":"Burgstraße 16 06385 Aken (Elbe)","fax":"034909/82098","phone":"034909/82095","full_time_school":false,"email":"kontakt@sks-aken.bildung-lsa.de","website":"http://www.sks-aken.bildung-lsa.de","programs":{"programs":[]},"state":"ST","lon":12.04016,"lat":51.855633},{"name":"Sekundarschule \"Würdetal\"","id":"ST-75","address":"Am Stadion 9 06179 Teutschenthal","fax":"034601/397683","phone":"034601/22424","full_time_school":false,"email":"kontakt@sks-teutschenthal.bildung-lsa.de","website":"http://www.sks-teutschenthal.bildung-lsa.de","programs":{"programs":[]},"state":"ST","lon":11.804784,"lat":51.452961},{"name":"Sekundarschule \"Walter Gemm\"","id":"ST-76","address":"Paulsplan 3 38820 Halberstadt","fax":"03941/597655","phone":"03941/24584","full_time_school":false,"email":"kontakt@sks-gemm.bildung-lsa.de","website":"http://www.sks-gemm.bildung-lsa.de","programs":{"programs":[]},"state":"ST","lon":11.055775,"lat":51.897574},{"name":"Sekundarschule \"Völkerfreundschaft\"","id":"ST-77","address":"Am Wasserturm 36 06366 Köthen (Anhalt)","fax":"03496/3099047","phone":"03496/212235","full_time_school":false,"email":"kontakt@sks-voelkerfreundschaft.bildung-lsa.de","website":"http://www.sks-voelkerfreundschaft.bildung-lsa.de","programs":{"programs":["Schule ohne Rassismus - Schule mit Courage"]},"state":"ST","lon":11.979622,"lat":51.744626},{"name":"Sekundarschule \"Unteres Geiseltal\"","id":"ST-78","address":"Häuerstraße 39 06242 Braunsbedra","fax":"034633/23270","phone":"034633/22609","full_time_school":false,"email":"kontakt@sks-geiseltal.bildung-lsa.de","website":"http://www.sks-geiseltal.bildung-lsa.de","programs":{"programs":["Be smart - don't Start"]},"state":"ST","lon":11.892326,"lat":51.287055},{"name":"Sekundarschule \"Thomas Müntzer\"","id":"ST-79","address":"Bauernwinkel 23 39393 Ausleben","fax":"039404/50782","phone":"039404/277","full_time_school":false,"email":"kontakt@sks-ausleben.bildung-lsa.de","website":"http://www.sks-ausleben.bildung-lsa.de","programs":{"programs":[]},"state":"ST","lon":11.112107,"lat":52.092595},{"name":"Sekundarschule \"Thomas Müntzer\"","id":"ST-80","address":"Umfassungsstraße 76 a 39124 Magdeburg","fax":"0391/2584200","phone":"0391/2524241","full_time_school":false,"email":"kontakt@sks-muentzer-magdeburg.bildung-lsa.de","website":"http://www.gts-thomas-muentzer.de","programs":{"programs":[]},"state":"ST","lon":11.631775,"lat":52.155427},{"name":"Sekundarschule \"Thomas Müntzer\"","id":"ST-81","address":"Borngasse 2 06526 Sangerhausen","fax":"03464/342778","phone":"03464/573047","full_time_school":false,"email":"kontakt@sks-muentzer-sangerhausen.bildung-lsa.de","website":"http://www.sks-muentzer-sangerhausen.bildung-lsa.de","programs":{"programs":[]},"state":"ST","lon":11.301733,"lat":51.478381},{"name":"Sekundarschule \"Thomas Müntzer\"","id":"ST-82","address":"Sophienstraße 11 06542 Allstedt","fax":"034652/10041","phone":"034652/375","full_time_school":false,"email":"kontakt@sks-muentzer-allstedt.bildung-lsa.de","website":"http://www.sks-muentzer-allstedt.bildung-lsa.de","programs":{"programs":["Be smart - don't Start"]},"state":"ST","lon":11.380689,"lat":51.407325},{"name":"Sekundarschule \"Thomas Müntzer\"","id":"ST-83","address":"Unter den Zindeln 11 38855 Wernigerode","fax":"03943/906392","phone":"03943/632164","full_time_school":false,"email":"kontakt@sks-muentzer-wernigerode.bildung-lsa.de","website":"http://www.muentzerschule-wernigerode.de","programs":{"programs":["Fairtrade Schools"]},"state":"ST","lon":10.781745,"lat":51.835021},{"name":"Sekundarschule \"Thomas Mann\" Stadt Osterwieck","id":"ST-84","address":"Schulstraße 1 38836 Osterwieck OT Dardesheim","fax":"039422/61652","phone":"039422/60827","full_time_school":false,"email":"kontakt@sks-mann-dardesheim.bildung-lsa.de","website":"http://www.mannschule.de","programs":{"programs":["Schule ohne Rassismus - Schule mit Courage"]},"state":"ST","lon":10.599214,"lat":51.979605},{"name":"Sekundarschule \"Theodor Fontane\"","id":"ST-85","address":"Schulstraße 1 39619 Arendsee (Altmark)","fax":"039384/92132","phone":"039384/92130","full_time_school":false,"email":"kontakt@gms-arendsee.bildung-lsa.de","website":"http://www.gms-arendsee.bildung-lsa.de","programs":{"programs":[]},"state":"ST","lon":11.485691,"lat":52.880407},{"name":"Sekundarschule \"Saale-Elster-Auen\"","id":"ST-86","address":"Schulstraße 1 a 06258 Schkopau","fax":"03461/723875","phone":"03461/723838","full_time_school":false,"email":"kontakt@sks-schkopau.bildung-lsa.de","website":"http://www.sks-schkopau.bildung-lsa.de","programs":{"programs":["Umweltschule Europa"]},"state":"ST","lon":11.980963,"lat":51.390288},{"name":"Sekundarschule \"Rosa Luxemburg\"","id":"ST-87","address":"Lutherstraße 54 06886 Lutherstadt Wittenberg","fax":"03491/403465","phone":"03491/403455","full_time_school":false,"email":"kontakt@sks-luxemburg.bildung-lsa.de","website":"http://www.sks-luxemburg.bildung-lsa.de","programs":{"programs":[]},"state":"ST","lon":12.648024,"lat":51.869394},{"name":"Sekundarschule \"Quer - Bunt\"","id":"ST-88","address":"Pappelstraße 2 06268 Querfurt","fax":"034771/28697","phone":"034771/28698","full_time_school":false,"email":"kontakt@sks-querfurt.bildung-lsa.de","website":"http://www.gtsq.de","programs":{"programs":[]},"state":"ST","lon":11.614518,"lat":51.375777},{"name":"Sekundarschule \"Puschkin\"","id":"ST-89","address":"Puschkinstraße 11 39387 Oschersleben (Bode)","fax":"03949/500278","phone":"03949/2101","full_time_school":false,"email":"kontakt@sks-puschkin.bildung-lsa.de","website":"http://www.sks-puschkin.bildung-lsa.de","programs":{"programs":[]},"state":"ST","lon":11.232335,"lat":52.026041},{"name":"Sekundarschule \"Prof. Otto Schmeil\" Gröbers","id":"ST-90","address":"Schulstraße 1 06184 Kabelsketal OT Gröbers","fax":"034605/43304","phone":"034605/20354","full_time_school":false,"email":"kontakt@sks-groebers.bildung-lsa.de","website":"http://www.sek-groebers.de","programs":{"programs":[]},"state":"ST","lon":12.119916,"lat":51.428814},{"name":"Sekundarschule \"Maxim Gorki\"","id":"ST-91","address":"Straße der Jugend 85 39218 Schönebeck (Elbe)","fax":"03928/425417","phone":"03928/65446","full_time_school":false,"email":"kontakt@sks-gorki-schoenebeck.bildung-lsa.de","website":"http://www.sks-gorki-schoenebeck.bildung-lsa.de","programs":{"programs":["Schule ohne Rassismus - Schule mit Courage"]},"state":"ST","lon":11.712691,"lat":52.021793},{"name":"Sekundarschule \"Martin Luther\" Mansfeld","id":"ST-92","address":"Kastanienweg 8 06343 Mansfeld","fax":"034782/22775","phone":"034782/20454","full_time_school":false,"email":"kontakt@sks-luther.bildung-lsa.de","website":"http://www.lutherschulemansfeld.de","programs":{"programs":[]},"state":"ST","lon":11.458301,"lat":51.599428},{"name":"Sekundarschule \"Marie Gerike\"","id":"ST-93","address":"Gerikestraße 26 A 39340 Haldensleben","fax":"03904/710723","phone":"03904/2308","full_time_school":false,"email":"kontakt@marie-gerike-schule.bildung-lsa.de","website":"http://www.marie-gerike-schule.bildung-lsa.de","programs":{"programs":[]},"state":"ST","lon":11.410195,"lat":52.285455},{"name":"Sekundarschule \"Ludwig Gleim\"","id":"ST-94","address":"Konradsburger Straße 32 06463 Falkenstein (Harz) OT Ermsleben","fax":"034743/93902","phone":"034743/93901","full_time_school":false,"email":"kontakt@sks-ermsleben.bildung-lsa.de","website":"http://www.sks-ermsleben.bildung-lsa.de","programs":{"programs":[]},"state":"ST","lon":11.345336,"lat":51.728504},{"name":"Sekundarschule \"LebenLernen\" Schönebeck","id":"ST-95","address":"Magdeburger Straße 241 39218 Schönebeck (Elbe)","fax":"nicht angegeben","phone":"03928/702884","full_time_school":false,"email":"kontakt@sks-lebenlernen-schoenebeck.bildung-lsa.de","website":"http://www.sks-lebenlernen-schoenebeck.bildung-lsa.de","programs":{"programs":["Be smart - don't Start"]},"state":"ST","lon":11.705365,"lat":52.022532},{"name":"Sekundarschule \"LebenLernen\" Schneidlingen","id":"ST-96","address":"Heinrich-Heine-Straße 18 39444 Hecklingen OT Schneidlingen","fax":"039267/64690","phone":"039267/64355","full_time_school":false,"email":"kontakt@sks-lebenlernen.bildung-lsa.de","website":"http://www.sks-lebenlernen.bildung-lsa.de","programs":{"programs":[]},"state":"ST","lon":11.450535,"lat":51.892595},{"name":"Sekundarschule \"LebenLernen\" Magdeburg","id":"ST-97","address":"Liebknechtstraße 73 39110 Magdeburg","fax":"0391/7356714","phone":"0391/7356738","full_time_school":false,"email":"kontakt@sks-lebenlernen-magdeburg.bildung-lsa.de","website":"http://www.sks-lebenlernen-magdeburg.bildung-lsa.de","programs":{"programs":["Schule ohne Rassismus - Schule mit Courage"]},"state":"ST","lon":11.603112,"lat":52.122622},{"name":"Sekundarschule \"Komarow\"","id":"ST-98","address":"Stadtseeallee 95 39576 Hansestadt Stendal","fax":"03931/519696","phone":"03931/412054","full_time_school":false,"email":"kontakt@sks-komarow.bildung-lsa.de","website":"http://www.sks-komarow.bildung-lsa.de","programs":{"programs":[]},"state":"ST","lon":11.833928,"lat":52.598161},{"name":"Sekundarschule \"Karl Marx\"","id":"ST-99","address":"Straße der OdF 27 39638 Hansestadt Gardelegen","fax":"03907/910584","phone":"03907/712410","full_time_school":false,"email":"kontakt@sks-kmarx-gardelegen.bildung-lsa.de","website":"http://www.sks-kmarx-gardelegen.bildung-lsa.de","programs":{"programs":[]},"state":"ST","lon":11.393,"lat":52.5265},{"name":"Sekundarschule \"Karl Marx\"","id":"ST-100","address":"Ballerstedter Straße 50 39606 Hansestadt Osterburg (Altmark)","fax":"03937/838395","phone":"03937/82412","full_time_school":false,"email":"kontakt@sks-osterburg.bildung-lsa.de","website":"http://www.sekundarschuleosterburg.de","programs":{"programs":[]},"state":"ST","lon":11.746558,"lat":52.783676},{"name":"Sekundarschule \"Johann Wolfgang von Goethe\"","id":"ST-101","address":"Helmstedter Straße 42 39116 Magdeburg","fax":"0391/6224966","phone":"0391/6224966","full_time_school":false,"email":"kontakt@sks-goethe-magdeburg.bildung-lsa.de","website":"http://www.sks-goethe-magdeburg.bildung-lsa.de","programs":{"programs":[]},"state":"ST","lon":11.602602,"lat":52.115846},{"name":"Sekundarschule \"Johann Gottfried Herder\"","id":"ST-102","address":"Feldstraße 19 39240 Calbe (Saale)","fax":"039291/463874","phone":"039291/41033","full_time_school":false,"email":"kontakt@sks-herder-calbe.bildung-lsa.de","website":"http://www.sks-herder-calbe.bildung-lsa.de","programs":{"programs":[]},"state":"ST","lon":11.768226,"lat":51.902098},{"name":"Sekundarschule \"Johann Friedrich Danneil\"","id":"ST-103","address":"An der Westpromenade 6 39624 Kalbe (Milde)","fax":"039080/72669","phone":"039080/2165","full_time_school":false,"email":"kontakt@sks-kalbe.bildung-lsa.de","website":"http://www.schule-kalbe.de","programs":{"programs":[]},"state":"ST","lon":11.386765,"lat":52.651233},{"name":"Sekundarschule \"Johann Christian Reil\"","id":"ST-104","address":"Ernst-Schneller-Straße 1 06114 Halle (Saale)","fax":"0345/5322006","phone":"0345/5322005","full_time_school":false,"email":"kontakt@sks-reil.bildung-lsa.de","website":"http://www.reil-schule.de","programs":{"programs":["Schule ohne Rassismus - Schule mit Courage"]},"state":"ST","lon":11.964649,"lat":51.497947},{"name":"Sekundarschule \"Hinrich Brunsberg\"","id":"ST-105","address":"Augustastraße 31 39590 Tangermünde","fax":"039322/45164","phone":"039322/2970","full_time_school":false,"email":"kontakt@sks-tangermuende.bildung-lsa.de","website":"http://www.sks-tangermuende.bildung-lsa.de","programs":{"programs":[]},"state":"ST","lon":11.960996,"lat":52.539877},{"name":"Sekundarschule \"Hermann Kasten\"","id":"ST-106","address":"Straße der Solidarität 42 39418 Staßfurt","fax":"03925/930400","phone":"03925/930399","full_time_school":false,"email":"kontakt@sks-kasten.bildung-lsa.de","website":"http://www.sks-kasten.bildung-lsa.de","programs":{"programs":["Schule ohne Rassismus - Schule mit Courage"]},"state":"ST","lon":11.558987,"lat":51.862332},{"name":"Sekundarschule \"Heinrich Heine\"","id":"ST-107","address":"Hemingwaystraße 1 06126 Halle (Saale)","fax":"0345/2097813","phone":"0345/6875129","full_time_school":false,"email":"kontakt@sks-heine2-halle.bildung-lsa.de","website":"http://www.sks-heine2-halle.bildung-lsa.de","programs":{"programs":[]},"state":"ST","lon":11.906035,"lat":51.481249},{"name":"Sekundarschule \"Heinrich Heine\"","id":"ST-108","address":"Heinrich-Heine-Weg 1 06889 Lutherstadt Wittenberg OT Reinsdorf","fax":"03491/669003","phone":"03491/667808","full_time_school":false,"email":"kontakt@sks-heine-reinsdorf.bildung-lsa.de","website":"http://www.sks-heine-reinsdorf.bildung-lsa.de","programs":{"programs":["Schule ohne Rassismus - Schule mit Courage"]},"state":"ST","lon":12.60837,"lat":51.899409},{"name":"Sekundarschule \"Heinrich Heine\"","id":"ST-109","address":"Alban-Hess-Straße 45 b 06526 Sangerhausen","fax":"03464/519159","phone":"03464/521807","full_time_school":false,"email":"kontakt@sks-heine-sangerhausen.bildung-lsa.de","website":"http://www.sks-heine-sangerhausen.bildung-lsa.de","programs":{"programs":["Be smart - don't Start"]},"state":"ST","lon":11.300553,"lat":51.469183},{"name":"Sekundarschule \"Happy Children\"","id":"ST-110","address":"Schäferplatz 14 06429 Nienburg (Saale)","fax":"nicht angegeben","phone":"034721/41430","full_time_school":false,"email":"kontakt@sks-nienburg.bildung-lsa.de","website":"http://www.sks-nienburg.bildung-lsa.de","programs":{"programs":[]},"state":"ST","lon":11.769644,"lat":51.839111},{"name":"Sekundarschule \"Hans Schellheimer\"","id":"ST-111","address":"Friedrich-Ebert-Straße 51 39114 Magdeburg","fax":"0391/8110003","phone":"0391/857314","full_time_school":false,"email":"kontakt@sportsekundarschule-magdeburg.bildung-lsa.de","website":"http://www.sportsekundarschule-magdeburg.bildung-lsa.de","programs":{"programs":[]},"state":"ST","lon":11.6659,"lat":52.12545},{"name":"Sekundarschule \"Gotthold Ephraim Lessing\"","id":"ST-112","address":"Lindenallee 29 29410 Hansestadt Salzwedel","fax":"03901/305192","phone":"03901/305190","full_time_school":false,"email":"kontakt@sks-lessing-salzwedel.bildung-lsa.de","website":"http://www.lessingsek-salzwedel.de","programs":{"programs":[]},"state":"ST","lon":11.169498,"lat":52.845069},{"name":"Sekundarschule \"Geschwister Scholl\"","id":"ST-113","address":"Friedrich-Ebert-Straße 19 39596 Goldbeck","fax":"039388/29980","phone":"039388/28233","full_time_school":false,"email":"kontakt@sks-goldbeck.bildung-lsa.de","website":"http://www.sks-goldbeck.bildung-lsa.de","programs":{"programs":["Schule ohne Rassismus - Schule mit Courage"]},"state":"ST","lon":11.863304,"lat":52.712998},{"name":"Sekundarschule \"Fritz Heicke\"","id":"ST-114","address":"Nordhausener Straße 18 39245 Gommern","fax":"039200/40151","phone":"039200/51258","full_time_school":false,"email":"kontakt@sks-gommern.bildung-lsa.de","website":"http://www.sks-gommern.bildung-lsa.de","programs":{"programs":["Be smart - don't Start","Schule ohne Rassismus - Schule mit Courage","Umweltschule Europa"]},"state":"ST","lon":11.820804,"lat":52.074846},{"name":"Sekundarschule \"Friedrich Ludwig Jahn\"","id":"ST-115","address":"Nordstraße 4 06632 Freyburg (Unstrut)","fax":"034464/27135","phone":"034464/28215","full_time_school":false,"email":"kontakt@sks-freyburg.bildung-lsa.de","website":"http://www.sks-freyburg.bildung-lsa.de","programs":{"programs":[]},"state":"ST","lon":11.768486,"lat":51.219982},{"name":"Sekundarschule \"Friedrich Adolph Wilhelm Diesterweg\"","id":"ST-116","address":"Karl-Marx-Straße 37 39288 Burg","fax":"03921/4827360","phone":"03921/2529","full_time_school":false,"email":"kontakt@sks-diesterweg-burg.bildung-lsa.de","website":"http://www.sks-diesterweg-burg.bildung-lsa.de","programs":{"programs":[]},"state":"ST","lon":11.853811,"lat":52.27521},{"name":"Sekundarschule \"Friedensschule\"","id":"ST-117","address":"Elballee 87 06846 Dessau-Roßlau","fax":"0340/6610554","phone":"0340/616207","full_time_school":false,"email":"kontakt@sks-frieden.bildung-lsa.de","website":"http://www.sks-frieden.bildung-lsa.de","programs":{"programs":[]},"state":"ST","lon":12.214778,"lat":51.850658},{"name":"Sekundarschule \"Freiherr Spiegel\"","id":"ST-118","address":"Wilhelm-Trautewein-Straße 19 38820 Halberstadt","fax":"03941/568107","phone":"03941/601302","full_time_school":false,"email":"kontakt@sks-spiegel.bildung-lsa.de","website":"http://www.sek-spiegel-hbs.de","programs":{"programs":["UNESCO Projektschulen"]},"state":"ST","lon":11.068005,"lat":51.893281},{"name":"Sekundarschule \"Ernst Bansi\"","id":"ST-119","address":"Albert-Schweitzer-Straße 19 06484 Quedlinburg","fax":"03946/9019276","phone":"03946/51035","full_time_school":false,"email":"kontakt@sks-bansi.bildung-lsa.de","website":"http://www.sks-bansi.bildung-lsa.de","programs":{"programs":["Be smart - don't Start"]},"state":"ST","lon":11.149615,"lat":51.779159},{"name":"Sekundarschule \"Drömlingschule\" Oebisfelde","id":"ST-120","address":"Friedrich-Ludwig-Jahn-Straße 7 39646 Stadt Oebisfelde-Weferlingen OT Oebisfelde","fax":"039002/81365","phone":"039002/40016","full_time_school":false,"email":"kontakt@sks-droemlingschule.bildung-lsa.de","website":"http://www.sks-droemlingschule.bildung-lsa.de","programs":{"programs":[]},"state":"ST","lon":10.990204,"lat":52.431386},{"name":"Sekundarschule \"Drei Türme\" Hohenmölsen","id":"ST-121","address":"Erich-Weinert-Straße 18 06679 Hohenmölsen","fax":"034441/449108","phone":"034441/22823","full_time_school":false,"email":"kontakt@sks-hohenmoelsen.bildung-lsa.de","website":"http://www.sdt-hhm.de","programs":{"programs":["Be smart - don't Start"]},"state":"ST","lon":12.106994,"lat":51.155514},{"name":"Sekundarschule \"Comenius\"","id":"ST-122","address":"Blumenthalstraße 40 39576 Hansestadt Stendal","fax":"03931/25183111","phone":"03931/25183100","full_time_school":false,"email":"kontakt@sks-stendal.bildung-lsa.de","website":"http://www.sks-stendal.bildung-lsa.de","programs":{"programs":[]},"state":"ST","lon":11.853739,"lat":52.598918},{"name":"Sekundarschule \"Carl von Clausewitz\"","id":"ST-123","address":"Straße der Einheit 35 a 39288 Burg","fax":"03921/990590","phone":"03921/2473","full_time_school":false,"email":"kontakt@sks-clausewitz.bildung-lsa.de","website":"http://www.sks-clausewitz.bildung-lsa.de","programs":{"programs":[]},"state":"ST","lon":11.845,"lat":52.270022},{"name":"Sekundarschule \"Campus Technicus\"","id":"ST-124","address":"Käthe-Kollwitz-Straße 12-14 06406 Bernburg (Saale)","fax":"03471/6235129","phone":"03471/623510","full_time_school":false,"email":"kontakt@sks-campus-technicus.bildung-lsa.de","website":"http://www.sks-campus-technicus.bildung-lsa.de","programs":{"programs":["Be smart - don't Start"]},"state":"ST","lon":11.7404983,"lat":51.7939344},{"name":"Sekundarschule \"Brüder Grimm\"","id":"ST-125","address":"Am Markt 7 39359 Calvörde","fax":"039051/98150","phone":"039051/317","full_time_school":false,"email":"kontakt@sks-grimm.bildung-lsa.de","website":"http://www.sks-grimm.bildung-lsa.de","programs":{"programs":[]},"state":"ST","lon":11.300465,"lat":52.396778},{"name":"Sekundarschule \"Bodfeld\" Elbingerode","id":"ST-126","address":"Straße des Friedens 1 38875 Oberharz am Brocken OT Elbingerode","fax":"039454/49170","phone":"039454/49155","full_time_school":false,"email":"kontakt@sks-bodfeld.bildung-lsa.de","website":"http://www.sks-bodfeld.bildung-lsa.de","programs":{"programs":[]},"state":"ST","lon":10.794061,"lat":51.769084},{"name":"Sekundarschule \"Bertolt Brecht\"","id":"ST-127","address":"Eichsfeld 10 06237 Leuna OT Zöschen","fax":"034638/29991","phone":"034638/20252","full_time_school":false,"email":"kontakt@sks-brecht.bildung-lsa.de","website":"http://www.Sekundarschule-Zoeschen.de","programs":{"programs":["Schule ohne Rassismus - Schule mit Courage"]},"state":"ST","lon":12.120556,"lat":51.358123},{"name":"Sekundarschule \"August Wilhelm Francke\"","id":"ST-128","address":"Apollostraße 15 39118 Magdeburg","fax":"0391/613124","phone":"0391/613102","full_time_school":false,"email":"kontakt@sks-francke-magdeburg.bildung-lsa.de","website":"http://www.sks-francke-magdeburg.bildung-lsa.de","programs":{"programs":[]},"state":"ST","lon":11.609468,"lat":52.090413},{"name":"Sekundarschule \"August Hermann Francke\"","id":"ST-129","address":"Franckeplatz 1 // Haus 49 06110 Halle (Saale)","fax":"0345/2093030","phone":"0345/2026931","full_time_school":false,"email":"kontakt@sks-francke-halle.bildung-lsa.de","website":"http://www.sks-francke-halle.bildung-lsa.de","programs":{"programs":[]},"state":"ST","lon":11.971147,"lat":51.478046},{"name":"Sekundarschule \"August Bebel\"","id":"ST-130","address":"Albert-Einstein-Straße 27 - 31 06237 Leuna","fax":"03461/813676","phone":"03461/813117","full_time_school":false,"email":"kontakt@sks-leuna.bildung-lsa.de","website":"http://www.sekundarschule-leuna.de","programs":{"programs":[]},"state":"ST","lon":12.02407,"lat":51.327345},{"name":"Sekundarschule \"An der Elbe\" Parey","id":"ST-131","address":"Am Deich 6 39317 Elbe-Parey OT Parey","fax":"039349/52291","phone":"039349/51768","full_time_school":false,"email":"kontakt@sks-parey.bildung-lsa.de","website":"http://www.sks-parey.bildung-lsa.de","programs":{"programs":[]},"state":"ST","lon":11.978539,"lat":52.378631},{"name":"Sekundarschule \"An der Weinstraße\"","id":"ST-132","address":"Schochwitzer Straße 8 06198 Salzatal OT Höhnstedt","fax":"034601/30186","phone":"034601/22377","full_time_school":false,"email":"kontakt@sks-hoehnstedt.bildung-lsa.de","website":"http://www.sks-hoehnstedt.bildung-lsa.de","programs":{"programs":[]},"state":"ST","lon":11.739211,"lat":51.503045},{"name":"Sekundarschule \"An der Doppelkapelle\" Landsberg","id":"ST-133","address":"Bergstraße 21 06188 Landsberg","fax":"034602/400757","phone":"034602/20390","full_time_school":false,"email":"kontakt@sks-landsberg.bildung-lsa.de","website":"http://www.sks-landsberg.bildung-lsa.de","programs":{"programs":[]},"state":"ST","lon":12.169375,"lat":51.525229},{"name":"Sekundarschule \"Am Weinberg\"","id":"ST-134","address":"Pestalozzistraße 5 39539 Havelberg","fax":"039387/88973","phone":"039387/8131","full_time_school":false,"email":"kontakt@sks-havelberg.bildung-lsa.de","website":"http://www.sks-havelberg.bildung-lsa.de","programs":{"programs":[]},"state":"ST","lon":12.085626,"lat":52.825862},{"name":"Sekundarschule \"Am Tierpark\"","id":"ST-135","address":"Am Tierpark 2 39418 Staßfurt","fax":"03925/323130","phone":"03925/323129","full_time_school":false,"email":"kontakt@sks-tierpark.bildung-lsa.de","website":"http://www.sks-tierpark.bildung-lsa.de","programs":{"programs":["Schule ohne Rassismus - Schule mit Courage"]},"state":"ST","lon":11.579579,"lat":51.845677},{"name":"Sekundarschule \"Am Schwanenteich\"","id":"ST-136","address":"Rasberger Straße 2 06712 Zeitz","fax":"03441/216874","phone":"03441/213082","full_time_school":false,"email":"kontakt@sks-schwanenteich.bildung-lsa.de","website":"http://www.schule-am-schwanenteich.de","programs":{"programs":[]},"state":"ST","lon":12.130236,"lat":51.044445},{"name":"Sekundarschule \"Am Salzigen See\" Röblingen","id":"ST-137","address":"Kesselstraße 9 06317 Seegebiet Mansfelder Land OT Röblingen","fax":"034774/41175","phone":"034774/20392","full_time_school":false,"email":"kontakt@sks-roeblingen.bildung-lsa.de","website":"http://www.sekundarschule-roeblingen.de","programs":{"programs":[]},"state":"ST","lon":11.670738,"lat":51.464226},{"name":"Sekundarschule \"Am Petersberg\"","id":"ST-138","address":"Wiesenweg 7 06193 Petersberg OT Wallwitz","fax":"034606/35380","phone":"034606/20289","full_time_school":false,"email":"kontakt@sks-petersberg.bildung-lsa.de","website":"http://www.sks-petersberg.bildung-lsa.de","programs":{"programs":[]},"state":"ST","lon":11.924785,"lat":51.581936},{"name":"Sekundarschule \"Am Lerchenfeld\"","id":"ST-139","address":"Berliner Straße 8 a 39218 Schönebeck (Elbe)","fax":"03928/42199915","phone":"03928/4219990","full_time_school":false,"email":"kontakt@sks-lerchenfeld.bildung-lsa.de","website":"http://www.lerchenfeldschule.de","programs":{"programs":["Schule ohne Rassismus - Schule mit Courage"]},"state":"ST","lon":11.736002,"lat":52.008328},{"name":"Sekundarschule \"Am Gröpertor\"","id":"ST-140","address":"Hospitalstraße 1 38820 Halberstadt","fax":"03941/6789873","phone":"03941/611024","full_time_school":false,"email":"kontakt@sks-groepertor.bildung-lsa.de","website":"http://www.sks-groepertor.bildung-lsa.de","programs":{"programs":[]},"state":"ST","lon":11.048118,"lat":51.902117},{"name":"Sekundarschule \"Am Fliederweg\"","id":"ST-141","address":"Budapester Straße 5 06130 Halle (Saale)","fax":"0345/6865825","phone":"0345/4441294","full_time_school":false,"email":"kontakt@sks-fliederweg.bildung-lsa.de","website":"http://www.sks-fliederweg.bildung-lsa.de","programs":{"programs":[]},"state":"ST","lon":11.963576,"lat":51.454461},{"name":"Sekundarschule \"Am Drömling\" Mieste","id":"ST-142","address":"Schillerstraße 21 39649 Hansestadt Gardelegen OT Mieste","fax":"039082/98214","phone":"039082/422","full_time_school":false,"email":"kontakt@sks-mieste.bildung-lsa.de","website":"http://www.sks-mieste.bildung-lsa.de","programs":{"programs":[]},"state":"ST","lon":11.213421,"lat":52.480442},{"name":"Sekundarschule \"Am Baumschulenweg\"","id":"ST-143","address":"Mützelstraße 50 39307 Genthin","fax":"03933/822693","phone":"03933/3637","full_time_school":false,"email":"kontakt@sks-baum-gnt.bildung-lsa.de","website":"http://www.sks-baum-gnt.bildung-lsa.de","programs":{"programs":[]},"state":"ST","lon":12.163486,"lat":52.398977},{"name":"Sekundarschule \"Alexander von Humboldt\"","id":"ST-144","address":"Theaterplatz 3 06618 Naumburg (Saale)","fax":"03445/777184","phone":"03445/776229","full_time_school":false,"email":"kontakt@sks-humboldt-naumburg.bildung-lsa.de","website":"http://www.sks-humboldt-naumburg.bildung-lsa.de","programs":{"programs":["Schule ohne Rassismus - Schule mit Courage","Seniorpartner in School"]},"state":"ST","lon":11.814817,"lat":51.151272},{"name":"Sekundarschule \"Albrecht Dürer\"","id":"ST-145","address":"Albrecht-Dürer-Straße 6 06217 Merseburg (Saale)","fax":"03461/230145","phone":"03461/210821","full_time_school":false,"email":"kontakt@sks-duerer-merseburg.bildung-lsa.de","website":"http://www.sks-duerer-merseburg.bildung-lsa.de","programs":{"programs":["Schule ohne Rassismus - Schule mit Courage"]},"state":"ST","lon":11.982344,"lat":51.355651},{"name":"Sekundarschule \"Albert Schweitzer\"","id":"ST-146","address":"Kösener Straße 70 06618 Naumburg (Saale)","fax":"03445/750810","phone":"03445/778284","full_time_school":false,"email":"kontakt@sks-schweitzer-naumburg.bildung-lsa.de","website":"http://www.sks-schweitzer-naumburg.bildung-lsa.de","programs":{"programs":["Seniorpartner in School"]},"state":"ST","lon":11.786084,"lat":51.150905},{"name":"Sekundarschule \"Albert Niemann\"","id":"ST-147","address":"Parkstraße 5 39343 Erxleben","fax":"039052/98250","phone":"039052/331","full_time_school":false,"email":"kontakt@sks-erxleben.bildung-lsa.de","website":"http://www.sks-erxleben.bildung-lsa.de","programs":{"programs":[]},"state":"ST","lon":11.243236,"lat":52.216928},{"name":"Sekundarschule \"Adolph Diesterweg\"","id":"ST-148","address":"Teichstraße 25 06809 Sandersdorf-Brehna OT Roitzsch","fax":"034954/31931","phone":"034954/21534","full_time_school":false,"email":"kontakt@sks-diesterweg-roitzsch.bildung-lsa.de","website":"http://www.sks-diesterweg-roitzsch.bildung-lsa.de","programs":{"programs":["Schule ohne Rassismus - Schule mit Courage"]},"state":"ST","lon":12.260103,"lat":51.575696},{"name":"Sekundarschule \"Adolf Holst\"","id":"ST-149","address":"Arthur-Scheibner-Ring 1 06249 Mücheln (Geiseltal)","fax":"034632/22277","phone":"034632/22275","full_time_school":false,"email":"kontakt@sks-holst.bildung-lsa.de","website":"http://www.sksadolfholst.de","programs":{"programs":["Be smart - don't Start","Schule ohne Rassismus - Schule mit Courage"]},"state":"ST","lon":11.813121,"lat":51.297092},{"name":"Sekundarschule \"Adolf Diesterweg\"","id":"ST-150","address":"Arneburger Straße 1 a 39576 Hansestadt Stendal","fax":"03931/210003","phone":"03931/212504","full_time_school":false,"email":"kontakt@sks-diesterweg-stendal.bildung-lsa.de","website":"http://www.sks-diesterweg-stendal.bildung-lsa.de","programs":{"programs":[]},"state":"ST","lon":11.862023,"lat":52.610664},{"name":"Sekundar- und Gemeinschaftsschule Seehausen","id":"ST-151","address":"Winckelmannplatz 5 a 39615 Seehausen (Altmark)","fax":"039386/52147","phone":"039386/52153","full_time_school":false,"email":"kontakt@sks-seehausen.bildung-lsa.de","website":"http://www.sekundarschule-seehausen.de","programs":{"programs":[]},"state":"ST","lon":11.749719,"lat":52.891432},{"name":"Seelandschule","id":"ST-152","address":"Schulstraße 15 06469 Stadt Seeland OT Nachterstedt","fax":"034741/70533","phone":"034741/6251","full_time_school":false,"email":"kontakt@sks-nachterstedt.bildung-lsa.de","website":"http://www.sks-nachterstedt.bildung-lsa.de","programs":{"programs":["Schule ohne Rassismus - Schule mit Courage"]},"state":"ST","lon":11.339626,"lat":51.797669},{"name":"Sebastian-Kneipp-Grundschule","id":"ST-153","address":"Schulstraße 1 06647 Finneland OT Saubach","fax":"034465/85255","phone":"034465/88232","full_time_school":false,"email":"kontakt@gs-saubach.bildung-lsa.de","website":"http://www.gs-saubach.bildung-lsa.de","programs":{"programs":[]},"state":"ST","lon":11.528688,"lat":51.211582},{"name":"Schulzentrum Stadt Könnern Sekundarschule","id":"ST-154","address":"Rudolf-Breitscheid-Straße 16 06420 Könnern","fax":"034691/520058","phone":"034691/52000","full_time_school":false,"email":"kontakt@sks-koennern.bildung-lsa.de","website":"http://www.schulzentrum-stadt-koennern.de","programs":{"programs":["Schule ohne Rassismus - Schule mit Courage"]},"state":"ST","lon":11.768501,"lat":51.670247},{"name":"Schule des Zweiten Bildungsweges","id":"ST-155","address":"Nietlebener Straße 4 06126 Halle (Saale)","fax":"0345/5558799","phone":"0345/555870","full_time_school":false,"email":"kontakt@s2b-halle.bildung-lsa.de","website":"http://www.s2b-halle.bildung-lsa.de","programs":{"programs":[]},"state":"ST","lon":11.912482,"lat":51.480128},{"name":"Schule des Zweiten Bildungsweges","id":"ST-156","address":"Brandenburger Straße 8 39104 Magdeburg","fax":"0391/5616822","phone":"0391/5616824","full_time_school":false,"email":"kontakt@s2b-magdeburg.bildung-lsa.de","website":"http://www.s2b-md.de","programs":{"programs":["Schule ohne Rassismus - Schule mit Courage"]},"state":"ST","lon":11.630271,"lat":52.133132},{"name":"Schule des Lebens \"Helen Keller\"","id":"ST-157","address":"Ernst-Barlach-Ring 37 06124 Halle (Saale)","fax":"0345/8046156","phone":"0345/8048887","full_time_school":false,"email":"kontakt@sos-keller.bildung-lsa.de","website":"http://www.sos-keller.bildung-lsa.de","programs":{"programs":[]},"state":"ST","lon":11.929192,"lat":51.478872},{"name":"Scharnhorst-Schule Großgörschen","id":"ST-158","address":"Platz der Deutschen Einheit 1 06686 Lützen OT Großgörschen","fax":"034444/901050","phone":"034444/20532","full_time_school":false,"email":"kontakt@gs-grossgoerschen.bildung-lsa.de","website":"http://www.gs-grossgoerschen.bildung-lsa.de","programs":{"programs":[]},"state":"ST","lon":12.182438,"lat":51.215244},{"name":"Sankt Mauritius-Sekundarschule","id":"ST-159","address":"Jamboler Straße 1 06130 Halle (Saale)","fax":"0345/27980555","phone":"0345/27980580","full_time_school":false,"email":"kontakt@sks-katholisch-halle.bildung-lsa.de","website":"http://www.sks-katholisch-halle.bildung-lsa.de","programs":{"programs":[]},"state":"ST","lon":11.966984,"lat":51.449262},{"name":"Salztorschule","id":"ST-160","address":"Kramerplatz 13 06618 Naumburg (Saale)","fax":"03445/6990460","phone":"03445/776269","full_time_school":false,"email":"kontakt@gs-salztor.bildung-lsa.de","website":"http://www.gs-salztor.bildung-lsa.de","programs":{"programs":[]},"state":"ST","lon":11.804575,"lat":51.150726},{"name":"Saaleschule - Integrierte Gesamtschule in freier Trägerschaft","id":"ST-161","address":"Hans-Dittmar-Straße 9 06118 Halle (Saale)","fax":"0345/684586103","phone":"0345/6845860","full_time_school":false,"email":"kontakt@igs-saaleschule.bildung-lsa.de","website":"http://www.saaleschule.de","programs":{"programs":["Schule ohne Rassismus - Schule mit Courage"]},"state":"ST","lon":11.960878,"lat":51.522367},{"name":"Roland-Gymnasium","id":"ST-162","address":"Brüderstraße 46 39288 Burg","fax":"03921/727828","phone":"03921/72780","full_time_school":false,"email":"kontakt@gym-burg.bildung-lsa.de","website":"http://www.br-g.de","programs":{"programs":["Be smart - don't Start"]},"state":"ST","lon":11.857773,"lat":52.269492},{"name":"Reitersteinschule - Grundschule Hornhausen","id":"ST-163","address":"Wulferstedter Straße 13 39387 Oschersleben (Bode) OT Hornhausen","fax":"03949/501016","phone":"03949/2690","full_time_school":false,"email":"kontakt@gs-hornhausen.bildung-lsa.de","website":"http://www.gs-hornhausen.bildung-lsa.de","programs":{"programs":[]},"state":"ST","lon":11.168503,"lat":52.045361},{"name":"Regenbogenschule - Förderschule (GB)","id":"ST-164","address":"Breite Straße 6/7 06844 Dessau-Roßlau","fax":"0340/213892","phone":"0340/213198","full_time_school":false,"email":"kontakt@sos-regenbogen-dessau.bildung-lsa.de","website":"http://www.regenbogenschule-dessau.de","programs":{"programs":[]},"state":"ST","lon":12.252895,"lat":51.837822},{"name":"Regenbogenschule","id":"ST-165","address":"Krähenbergstraße 10 06366 Köthen (Anhalt)","fax":"03496/509282","phone":"03496/551263","full_time_school":false,"email":"kontakt@gs-regenbogenschule.bildung-lsa.de","website":"nicht angegeben","programs":{"programs":[]},"state":"ST","lon":11.954255,"lat":51.745017},{"name":"Purnitz Grundschule","id":"ST-166","address":"Straße der Jugend 5 38486 Klötze","fax":"03909/473370","phone":"03909/2029","full_time_school":false,"email":"kontakt@gs-kloetze2.bildung-lsa.de","website":"http://www.gs-kloetze2.bildung-lsa.de","programs":{"programs":[]},"state":"ST","lon":11.176266,"lat":52.627969},{"name":"Privatschule Stendal","id":"ST-167","address":"Weberstraße 27 39576 Hansestadt Stendal","fax":"nicht angegeben","phone":"03931/257880","full_time_school":false,"email":"kontakt@sks-privatschule-stendal.bildung-lsa.de","website":"http://www.sks-privatschule-stendal.bildung-lsa.de","programs":{"programs":[]},"state":"ST","lon":11.858739,"lat":52.60108},{"name":"Privatgymnasium Tangermünde","id":"ST-168","address":"Schulstraße 1 39590 Tangermünde","fax":"039322/42013","phone":"039322/2313","full_time_school":false,"email":"kontakt@gym-tangermuende.bildung-lsa.de","website":"http://www.gym-tangermuende.bildung-lsa.de","programs":{"programs":[]},"state":"ST","lon":11.969889,"lat":52.539102},{"name":"Privatgymnasium Stendal","id":"ST-169","address":"Weberstraße 27 39576 Hansestadt Stendal","fax":"nicht angegeben","phone":"03931/257880","full_time_school":false,"email":"kontakt@gym-privatgymnasium-stendal.bildung-lsa.de","website":"http://www.gym-privatgymnasium-stendal.bildung-lsa.de","programs":{"programs":[]},"state":"ST","lon":11.858739,"lat":52.60108},{"name":"Prinzess-Ilse-Grundschule","id":"ST-170","address":"Harzburger Straße 3 38871 Ilsenburg (Harz)","fax":"039452/48423","phone":"039452/2270","full_time_school":false,"email":"kontakt@gs-ilse.bildung-lsa.de","website":"http://www.gs-ilse.bildung-lsa.de","programs":{"programs":[]},"state":"ST","lon":10.67515,"lat":51.866179},{"name":"Petri-Sekundarschule","id":"ST-171","address":"Kirchstraße 1 39397 Schwanebeck","fax":"039424/949902","phone":"039424/365","full_time_school":false,"email":"kontakt@sks-petri.bildung-lsa.de","website":"http://www.sks-petri.bildung-lsa.de","programs":{"programs":["Be smart - don't Start","Schule ohne Rassismus - Schule mit Courage"]},"state":"ST","lon":11.120284,"lat":51.967097},{"name":"Pestalozzischule Zeitz - Förderschule (LB)","id":"ST-172","address":"Altenburger Straße 45 a 06712 Zeitz","fax":"03441/726990","phone":"03441/212333","full_time_school":false,"email":"kontakt@sos-pestalozzi-zeitz.bildung-lsa.de","website":"http://www.pestalozzischule-zeitz.de","programs":{"programs":[]},"state":"ST","lon":12.14125,"lat":51.046274},{"name":"Pestalozzischule - Förderschule (LB)","id":"ST-173","address":"An der Schnellrodaer Straße 1 06249 Mücheln (Geiseltal)","fax":"034632/90609","phone":"034632/22823","full_time_school":false,"email":"kontakt@sos-muecheln.bildung-lsa.de","website":"http://www.sos-muecheln.bildung-lsa.de","programs":{"programs":[]},"state":"ST","lon":11.795295,"lat":51.303924},{"name":"Pestalozzi-Schule - Förderschule (LB)","id":"ST-174","address":"Minslebener Straße 52 38855 Wernigerode","fax":"03943/41086","phone":"03943/22000","full_time_school":false,"email":"kontakt@sos-pestalozzi-wernigerode.bildung-lsa.de","website":"http://www.pestalozzi-wernigerode.de","programs":{"programs":[]},"state":"ST","lon":10.798855,"lat":51.842041},{"name":"Perver-Grundschule","id":"ST-175","address":"Sankt-Georg-Straße 123 29410 Hansestadt Salzwedel","fax":"03901/477566","phone":"03901/477566","full_time_school":false,"email":"kontakt@gs-perver.bildung-lsa.de","website":"http://www.gs-perver.bildung-lsa.de","programs":{"programs":[]},"state":"ST","lon":11.165958,"lat":52.84249},{"name":"Paul-Gerhardt-Gymnasium","id":"ST-176","address":"Schulstraße 6 06773 Gräfenhainichen","fax":"034953/22114","phone":"034953/22098","full_time_school":false,"email":"kontakt@gym-gerhardt.bildung-lsa.de","website":"http://www.gym-gerhardt.bildung-lsa.de","programs":{"programs":["Be smart - don't Start"]},"state":"ST","lon":12.459717,"lat":51.730936},{"name":"Ökumenisches Domgymnasium Magdeburg","id":"ST-177","address":"Hegelstraße 5 39104 Magdeburg","fax":"0391/5980310","phone":"0391/598030","full_time_school":false,"email":"kontakt@gym-oekumene.bildung-lsa.de","website":"http://www.domgymnasium-magdeburg.de","programs":{"programs":["Be smart - don't Start","Schule ohne Rassismus - Schule mit Courage"]},"state":"ST","lon":11.632489,"lat":52.122487},{"name":"Ökowegschule Kugelberg","id":"ST-178","address":"Kugelbergring 32 06667 Weißenfels","fax":"03443/238541","phone":"03443/303135","full_time_school":false,"email":"kontakt@sks-oekoweg.bildung-lsa.de","website":"http://www.oekowegschule.de","programs":{"programs":["Be smart - don't Start"]},"state":"ST","lon":11.980599,"lat":51.193791},{"name":"Novalis-Grundschule","id":"ST-179","address":"Fichtestraße 84 06333 Hettstedt","fax":"03476/553205","phone":"03476/851072","full_time_school":false,"email":"kontakt@gs-novalis.bildung-lsa.de","website":"http://www.gs-novalis.bildung-lsa.de","programs":{"programs":[]},"state":"ST","lon":11.501125,"lat":51.657099},{"name":"Norbertusgymnasium","id":"ST-180","address":"Nachtweide 77 39124 Magdeburg","fax":"0391/2445011","phone":"0391/2445010","full_time_school":false,"email":"kontakt@gym-norbertus.bildung-lsa.de","website":"http://www.norbertus.de","programs":{"programs":[]},"state":"ST","lon":11.644323,"lat":52.15846},{"name":"Neustädter Grundschule","id":"ST-181","address":"Weberstraße 6 06484 Quedlinburg","fax":"03946/2820","phone":"03946/2820","full_time_school":false,"email":"kontakt@gs-neustaedter.bildung-lsa.de","website":"http://www.neustaedter-grundschule-qlb.de","programs":{"programs":[]},"state":"ST","lon":11.147682,"lat":51.790937},{"name":"Neustadt-Sekundarschule","id":"ST-182","address":"Novalisstraße 11 06667 Weißenfels","fax":"03443/239877","phone":"03443/205036","full_time_school":false,"email":"kontakt@sks-neustadt.bildung-lsa.de","website":"http://www.sks-neustadt.bildung-lsa.de","programs":{"programs":["Schule ohne Rassismus - Schule mit Courage"]},"state":"ST","lon":11.964668,"lat":51.209093},{"name":"Neumarkt-Grundschule","id":"ST-183","address":"Hermannstraße 32 06108 Halle (Saale)","fax":"0345/6784672","phone":"0345/2024379","full_time_school":false,"email":"kontakt@gs-neumarkt.bildung-lsa.de","website":"http://www.gs-neumarkt.bildung-lsa.de","programs":{"programs":[]},"state":"ST","lon":11.963712,"lat":51.491491},{"name":"Neues städtisches Gymnasium Halle","id":"ST-184","address":"Oleariusstraße 7 06108 Halle (Saale)","fax":"0345/69495377","phone":"0345/58229371","full_time_school":false,"email":"kontakt@nsg-halle.bildung-lsa.de","website":"http://www.nsg-halle.de","programs":{"programs":[]},"state":"ST","lon":11.967527,"lat":51.481507},{"name":"Neue Schule Magdeburg","id":"ST-185","address":"Nachtweide 68 39124 Magdeburg","fax":"0391/55555260","phone":"0391/55555260","full_time_school":false,"email":"kontakt@neue-schule-magdeburg.bildung-lsa.de","website":"http://www.neue-schule-magdeburg.de","programs":{"programs":[]},"state":"ST","lon":11.643418,"lat":52.161473},{"name":"Naturpark- Grundschule","id":"ST-186","address":"Weidener Straße 6 06868 Coswig (Anhalt) OT Jeber-Bergfrieden","fax":"034907/30254","phone":"034907/20226","full_time_school":false,"email":"kontakt@gs-jeberbergfrieden.bildung-lsa.de","website":"http://www.gs-jeberbergfrieden.bildung-lsa.de","programs":{"programs":[]},"state":"ST","lon":12.352775,"lat":51.981064},{"name":"Naturgrundschule Heiligenthal","id":"ST-187","address":"Schulweg 3 06347 Gerbstedt OT Heiligenthal","fax":"034783/29230","phone":"034783/29830","full_time_school":false,"email":"kontakt@gs-heiligenthal.bildung-lsa.de","website":"http://www.gs-heiligenthal.bildung-lsa.de","programs":{"programs":[]},"state":"ST","lon":11.632878,"lat":51.607203},{"name":"Montessori-Grundschule","id":"ST-188","address":"Flemminger Weg 141 06618 Naumburg (Saale)","fax":"03445/7810993","phone":"03445/7810990","full_time_school":false,"email":"kontakt@gs-montessori-naumburg.bildung-lsa.de","website":"http://www.montessorischule-naumburg.de","programs":{"programs":[]},"state":"ST","lon":11.781439,"lat":51.142471},{"name":"Martin-Luther-Gymnasium","id":"ST-189","address":"Siegfried-Berger-Weg 16/17 06295 Lutherstadt Eisleben","fax":"03475/695037","phone":"03475/602870","full_time_school":false,"email":"kontakt@gym-luther-eisleben.bildung-lsa.de","website":"http://www.gym-luther-eisleben.bildung-lsa.de","programs":{"programs":[]},"state":"ST","lon":11.547119,"lat":51.522168},{"name":"Martin-Luther-Grundschule","id":"ST-190","address":"Herzogstraße 3 38889 Blankenburg (Harz)","fax":"03944/364032","phone":"03944/364032","full_time_school":false,"email":"kontakt@gs-luther-blankenburg.bildung-lsa.de","website":"http://www.gs-luther-blankenburg.bildung-lsa.de","programs":{"programs":[]},"state":"ST","lon":10.959014,"lat":51.790723},{"name":"Marktschule","id":"ST-191","address":"Marktstraße 8 a 06484 Quedlinburg","fax":"03946/810929","phone":"03946/3658","full_time_school":false,"email":"kontakt@gs-markt-quedlinburg.bildung-lsa.de","website":"http://www.marktschule-quedlinburg.de","programs":{"programs":[]},"state":"ST","lon":11.141576,"lat":51.790446},{"name":"Markgraf-Albrecht-Gymnasium","id":"ST-192","address":"Werbener Straße 1 39606 Hansestadt Osterburg (Altmark)","fax":"03937/2929048","phone":"03937/82922","full_time_school":false,"email":"kontakt@gym-albrecht.bildung-lsa.de","website":"http://www.gym-albrecht.bildung-lsa.de","programs":{"programs":["Schule ohne Rassismus - Schule mit Courage"]},"state":"ST","lon":11.755046,"lat":52.791971},{"name":"Marianne-Buggenhagen-Schule - Förderschule (KB)","id":"ST-193","address":"Oehrenfelder Weg 25 a 38871 Ilsenburg (Harz) OT Darlingerode","fax":"03943/905928","phone":"03943/905927","full_time_school":false,"email":"kontakt@sos-darlingerode.bildung-lsa.de","website":"http://www.sos-darlingerode.bildung-lsa.de","programs":{"programs":[]},"state":"ST","lon":10.721866,"lat":51.84523},{"name":"Maria Montessori-Schule","id":"ST-194","address":"Franckeplatz 1 // Haus 19 06110 Halle (Saale)","fax":"0345/4723204","phone":"0345/502125","full_time_school":false,"email":"kontakt@gs-montessori.bildung-lsa.de","website":"http://www.montessori-halle.de","programs":{"programs":["Fairtrade Schools"]},"state":"ST","lon":11.971147,"lat":51.478046},{"name":"Luther-Melanchthon-Gymnasium","id":"ST-195","address":"Schillerstraße 22 a 06886 Lutherstadt Wittenberg","fax":"03491/877789","phone":"03491/877780","full_time_school":false,"email":"kontakt@gym-luther-wittenberg.bildung-lsa.de","website":"http://www.hundertwasserschule.de","programs":{"programs":["Be smart - don't Start"]},"state":"ST","lon":12.65926,"lat":51.876162},{"name":"Luisenschule Wörlitz","id":"ST-196","address":"Amtsgasse 37 06785 Oranienbaum-Wörlitz OT Wörlitz","fax":"034905/30678","phone":"034905/20362","full_time_school":false,"email":"kontakt@gs-woerlitz.bildung-lsa.de","website":"http://www.gs-woerlitz.bildung-lsa.de","programs":{"programs":[]},"state":"ST","lon":12.4233,"lat":51.8481},{"name":"Luisenschule","id":"ST-197","address":"Am Grauen Hof 1 06449 Aschersleben","fax":"03473/8408642","phone":"03473/2392","full_time_school":false,"email":"kontakt@gs-luisenschule.bildung-lsa.de","website":"http://www.gs-luisenschule.bildung-lsa.de","programs":{"programs":[]},"state":"ST","lon":11.45352,"lat":51.756168},{"name":"Ludwigsgymnasium","id":"ST-198","address":"Wallstraße 31 a 06366 Köthen (Anhalt)","fax":"03496/211076","phone":"03496/211075","full_time_school":false,"email":"kontakt@gym-ludwig.bildung-lsa.de","website":"http://www.gym-ludwig.bildung-lsa.de","programs":{"programs":["UNESCO Projektschulen"]},"state":"ST","lon":11.970266,"lat":51.75273},{"name":"Ludwig-Schneider-Grundschule","id":"ST-199","address":"Kirchstraße 22 39218 Schönebeck (Elbe)","fax":"03928/425763","phone":"03928/425762","full_time_school":false,"email":"kontakt@gs-schneider.bildung-lsa.de","website":"http://www.gs-schneider.bildung-lsa.de","programs":{"programs":[]},"state":"ST","lon":11.722028,"lat":52.005763},{"name":"Lucas-Cranach-Gymnasium","id":"ST-200","address":"An der Stiege 6 a 06886 Lutherstadt Wittenberg OT Piesteritz","fax":"03491/611098","phone":"03491/662264","full_time_school":false,"email":"kontakt@gym-cranach.bildung-lsa.de","website":"http://www.lucas-cranach-gymnasium.de","programs":{"programs":["Schule ohne Rassismus - Schule mit Courage"]},"state":"ST","lon":12.596766,"lat":51.867729},{"name":"Lindenschule - Förderschule (GB)","id":"ST-201","address":"In der Alten Kaserne 15 a 39288 Burg","fax":"03921/996759","phone":"03921/996757","full_time_school":false,"email":"kontakt@sos-linden.bildung-lsa.de","website":"http://www.sos-linden.bildung-lsa.de","programs":{"programs":[]},"state":"ST","lon":11.836623,"lat":52.265983},{"name":"LILIEN-Grundschule","id":"ST-202","address":"Lilienstraße 23 06122 Halle (Saale)","fax":"0345/6819536","phone":"0345/8045088","full_time_school":false,"email":"kontakt@gs-lilien.bildung-lsa.de","website":"http://www.gs-lilien.bildung-lsa.de","programs":{"programs":[]},"state":"ST","lon":11.933045,"lat":51.485707},{"name":"Liborius-Gymnasium","id":"ST-203","address":"Rabestraße 19 06844 Dessau-Roßlau","fax":"0340/2208529","phone":"0340/212175","full_time_school":false,"email":"kontakt@gym-liborius.bildung-lsa.de","website":"http://www.liboriusdessau.de","programs":{"programs":[]},"state":"ST","lon":12.248241,"lat":51.837967},{"name":"Lessing-Grundschule","id":"ST-204","address":"Schleiermacherstraße 30 b 06114 Halle (Saale)","fax":"0345/5233908","phone":"0345/5233824","full_time_school":false,"email":"kontakt@gs-lessing1-halle.bildung-lsa.de","website":"http://www.gs-lessing1-halle.bildung-lsa.de","programs":{"programs":[]},"state":"ST","lon":11.977318,"lat":51.49546},{"name":"Lessing-Grundschule","id":"ST-205","address":"Lessingstraße 6 06242 Braunsbedra","fax":"034633/90465","phone":"034633/22385","full_time_school":false,"email":"kontakt@gs-lessing-braunsbedra.bildung-lsa.de","website":"http://www.gs-lessing-braunsbedra.bildung-lsa.de","programs":{"programs":[]},"state":"ST","lon":11.884598,"lat":51.286694},{"name":"Latina \"August Hermann Francke\"","id":"ST-206","address":"Franckeplatz 1 // Haus 42 06110 Halle (Saale)","fax":"0345/4781200","phone":"0345/4781100","full_time_school":false,"email":"kontakt@gym-latina.bildung-lsa.de","website":"http://www.latina-halle.de","programs":{"programs":["Schule ohne Rassismus - Schule mit Courage"]},"state":"ST","lon":11.971147,"lat":51.478046},{"name":"Landschulheim Grovesmühle - Realschule","id":"ST-207","address":"Grovesmühle 1 38871 Nordharz OT Veckenstedt","fax":"nicht angegeben","phone":"039451/6080","full_time_school":false,"email":"kontakt@sks-veckenstedt-grovesmuehle.bildung-lsa.de","website":"http://www.sks-veckenstedt-grovesmuehle.bildung-lsa.de","programs":{"programs":[]},"state":"ST","lon":10.735309,"lat":51.898969},{"name":"Landschulheim Grovesmühle - Gymnasium","id":"ST-208","address":"Grovesmühle 1 38871 Nordharz OT Veckenstedt","fax":"039451/60820","phone":"039451/6080","full_time_school":false,"email":"kontakt@gym-veckenstedt.bildung-lsa.de","website":"http://www.grovesmuehle.de","programs":{"programs":[]},"state":"ST","lon":10.735309,"lat":51.898969},{"name":"Landschule Osterhausen","id":"ST-209","address":"Sittichenbacher Chaussee 4 a 06295 Lutherstadt Eisleben OT Osterhausen","fax":"034776/918519","phone":"034776/918510","full_time_school":false,"email":"kontakt@gs-osterhausen.bildung-lsa.de","website":"http://www.landschule-osterhausen.de","programs":{"programs":[]},"state":"ST","lon":11.507333,"lat":51.454139},{"name":"Landesschule Pforta","id":"ST-210","address":"Schulstraße 12 06628 Naumburg (Saale) OT Schulpforte","fax":"034463/26839","phone":"034463/350","full_time_school":false,"email":"kontakt@gym-pforta.bildung-lsa.de","website":"http://www.landesschule-pforta.de","programs":{"programs":[]},"state":"ST","lon":11.751649,"lat":51.142385},{"name":"Landesgymnasium für Musik","id":"ST-211","address":"Kanzleistraße 4 38855 Wernigerode","fax":"03943/2678129","phone":"03943/267810","full_time_school":false,"email":"kontakt@gym-musik.bildung-lsa.de","website":"http://www.landesgymnasium.de","programs":{"programs":[]},"state":"ST","lon":10.784824,"lat":51.831348},{"name":"Landesbildungszentrum Tangerhütte","id":"ST-212","address":"Birkholzer Chaussee 6 39517 Tangerhütte","fax":"03935/943200","phone":"03935/9430","full_time_school":false,"email":"kontakt@sos-ssz-tangerhuette.bildung-lsa.de","website":"http://www.landesbildungszentrum-tangerhuette.de","programs":{"programs":[]},"state":"ST","lon":11.82567,"lat":52.429166},{"name":"Landesbildungszentrum für Körperbehinderte Halle","id":"ST-213","address":"Murmansker Straße 16 06130 Halle (Saale)","fax":"0345/4721179","phone":"0345/4721135","full_time_school":false,"email":"kontakt@sos-lbzkb.bildung-lsa.de","website":"http://www.sos-lbzkb.bildung-lsa.de","programs":{"programs":[]},"state":"ST","lon":11.966323,"lat":51.450418},{"name":"Landesbildungszentrum für Hörgeschädigte \"Albert Klotz\"","id":"ST-214","address":"Murmansker Straße 12 06130 Halle (Saale)","fax":"0345/13356817","phone":"0345/1335680","full_time_school":false,"email":"kontakt@sos-lbzhg.bildung-lsa.de","website":"http://www.sos-lbzhg.bildung-lsa.de","programs":{"programs":[]},"state":"ST","lon":11.970951,"lat":51.450051},{"name":"Landesbildungszentrum für Hörgeschädigte","id":"ST-215","address":"Westerhäuser Straße 40 38820 Halberstadt","fax":"03941/678725","phone":"03941/6786","full_time_school":false,"email":"kontakt@sos-halberstadt.bildung-lsa.de","website":"http://www.sos-halberstadt.bildung-lsa.de","programs":{"programs":[]},"state":"ST","lon":11.051448,"lat":51.881188},{"name":"Landesbildungszentrum für Blinde und Sehbehinderte \"Hermann von Helmholtz\"","id":"ST-216","address":"Oebisfelder Weg 2 06124 Halle (Saale)","fax":"0345/4446969","phone":"0345/4446960","full_time_school":false,"email":"kontakt@sos-helmholtz.bildung-lsa.de","website":"http://www.sos-helmholtz.bildung-lsa.de","programs":{"programs":[]},"state":"ST","lon":11.9192508,"lat":51.4744967},{"name":"Kurfürst-Joachim-Friedrich-Gymnasium","id":"ST-217","address":"Schwimmbadstraße 1 39326 Wolmirstedt","fax":"039201/55132","phone":"039201/55110","full_time_school":false,"email":"kontakt@gym-friedrich.bildung-lsa.de","website":"http://www.kjf-gym.de","programs":{"programs":["Schule ohne Rassismus - Schule mit Courage"]},"state":"ST","lon":11.61247,"lat":52.248373},{"name":"Kröllwitz-Grundschule","id":"ST-218","address":"An der Petruskirche 29 06120 Halle (Saale)","fax":"0345/6829963","phone":"0345/5511478","full_time_school":false,"email":"kontakt@gs-kroellwitz.bildung-lsa.de","website":"http://www.gs-kroellwitz.bildung-lsa.de","programs":{"programs":["Schule ohne Rassismus - Schule mit Courage"]},"state":"ST","lon":11.95199,"lat":51.50687},{"name":"Kooperative Gesamtschule \"Wilhelm von Humboldt\"","id":"ST-219","address":"Lilienstraße 19 06122 Halle (Saale)","fax":"0345/8056680","phone":"0345/8042118","full_time_school":false,"email":"kontakt@kgs-humboldt.bildung-lsa.de","website":"http://www.kgs-halle.de","programs":{"programs":[]},"state":"ST","lon":11.934568,"lat":51.485283},{"name":"Kooperative Gesamtschule \"Ulrich von Hutten\"","id":"ST-220","address":"Roßbachstraße 78 06112 Halle (Saale)","fax":"0345/135699","phone":"0345/135690","full_time_school":false,"email":"kontakt@kgs-hutten.bildung-lsa.de","website":"http://www.kgs-hutten.bildung-lsa.de","programs":{"programs":["Schule ohne Rassismus - Schule mit Courage"]},"state":"ST","lon":11.987989,"lat":51.464721},{"name":"Kinder- und Jugenddorf Belleben","id":"ST-221","address":"Insel 84 c 06420 Könnern OT Belleben","fax":"034692/28523","phone":"034692/28520","full_time_school":false,"email":"kontakt@sos-belleben.bildung-lsa.de","website":"http://www.foerderschule-belleben.de","programs":{"programs":[]},"state":"ST","lon":11.633486,"lat":51.67186},{"name":"Katholische Sankt Franziskus-Grundschule","id":"ST-222","address":"Murmansker Straße 14 06130 Halle (Saale)","fax":"0345/279980555","phone":"0345/2798050","full_time_school":false,"email":"kontakt@gs-st-franziskus.bildung-lsa.de","website":"http://www.gs-st-franziskus.bildung-lsa.de","programs":{"programs":[]},"state":"ST","lon":11.968428,"lat":51.450233},{"name":"Käthe-Kollwitz-Gymnasium","id":"ST-223","address":"Käthe-Kollwitz-Platz 1 38820 Halberstadt","fax":"03941/442540","phone":"03941/441062","full_time_school":false,"email":"kontakt@gym-kollwitz-halberstadt.bildung-lsa.de","website":"http://www.kaeko-halberstadt.de","programs":{"programs":["Schule ohne Rassismus - Schule mit Courage"]},"state":"ST","lon":11.052683,"lat":51.887597},{"name":"Katharinenschule","id":"ST-224","address":"Hospitalstraße 4 39444 Hecklingen OT Schneidlingen","fax":"nicht angegeben","phone":"039267/432","full_time_school":false,"email":"kontakt@sos-katharinen.bildung-lsa.de","website":"http://www.sos-katharinen.bildung-lsa.de","programs":{"programs":[]},"state":"ST","lon":11.441502,"lat":51.889808},{"name":"Katharinenschule","id":"ST-225","address":"Katharinenstraße 1 a 06295 Lutherstadt Eisleben","fax":"03475/602125","phone":"03475/602094","full_time_school":false,"email":"kontakt@sks-katharinen.bildung-lsa.de","website":"http://www.sks-katharinen.bildung-lsa.de","programs":{"programs":["Be smart - don't Start","UNESCO Projektschulen"]},"state":"ST","lon":11.540597,"lat":51.531082},{"name":"Kastanienschule","id":"ST-226","address":"Kastanienstraße 1 b 06366 Köthen (Anhalt)","fax":"03496/216618","phone":"03496/216626","full_time_school":false,"email":"kontakt@gs-kastanien.bildung-lsa.de","website":"http://www.gs-kastanien.bildung-lsa.de","programs":{"programs":[]},"state":"ST","lon":11.986704,"lat":51.754517},{"name":"Karl-Friedrich-Friesen-Grundschule","id":"ST-227","address":"Friesenstraße 33 06112 Halle (Saale)","fax":"0345/1317401","phone":"0345/5126550","full_time_school":false,"email":"kontakt@gs-friesen.bildung-lsa.de","website":"http://www.gs-friesen.bildung-lsa.de","programs":{"programs":[]},"state":"ST","lon":11.981267,"lat":51.486828},{"name":"Johannes-Schule Merseburg e. V.","id":"ST-228","address":"von-Harnack-Straße 73 06217 Merseburg (Saale)","fax":"03461/305857","phone":"03461/305856","full_time_school":false,"email":"kontakt@gs-johannes-merseburg.bildung-lsa.de","website":"http://www.gs-johannes-merseburg.bildung-lsa.de","programs":{"programs":[]},"state":"ST","lon":11.985525,"lat":51.365203},{"name":"Johanne-Nathusius-Schule - Förderschule (GB)","id":"ST-229","address":"Lüneburger Heerstraße 22 39340 Haldensleben","fax":"03904/668708","phone":"03904/42752","full_time_school":false,"email":"kontakt@sos-nathusius.bildung-lsa.de","website":"http://www.sos-nathusius.bildung-lsa.de","programs":{"programs":[]},"state":"ST","lon":11.373616,"lat":52.28015},{"name":"Johann-Gottfried-Herder-Gymnasium","id":"ST-230","address":"Friesenstraße 3/4 06112 Halle (Saale)","fax":"0345/69493001","phone":"0345/2024648","full_time_school":false,"email":"kontakt@gym-herder-halle.bildung-lsa.de","website":"http://www.gym-herder-halle.bildung-lsa.de","programs":{"programs":[]},"state":"ST","lon":11.980268,"lat":51.486869},{"name":"Jeetzeschule in Salzwedel - IGS in freier Trägerschaft","id":"ST-231","address":"Karl-Marx-Straße 2 - 4 29410 Hansestadt Salzwedel","fax":"03901/3059844","phone":"03901/3059840","full_time_school":false,"email":"kontakt@igs-jeetze.bildung-lsa.de","website":"http://www.jeetzeschule.de","programs":{"programs":["Schule ohne Rassismus - Schule mit Courage"]},"state":"ST","lon":11.154852,"lat":52.857945},{"name":"Internatsschule Hadmersleben - Sekundarschule","id":"ST-232","address":"Planstraße 36 39387 Oschersleben (Bode) OT Hadmersleben","fax":"039408/93102","phone":"039408/93100","full_time_school":false,"email":"kontakt@sek-internatsschule-hadmersleben.bildung-lsa.de","website":"http://www.privatgymnasium.de","programs":{"programs":["Be smart - don't Start"]},"state":"ST","lon":11.295444,"lat":51.991826},{"name":"Internatsschule Hadmersleben - Gymnasium","id":"ST-233","address":"Planstraße 36 39387 Oschersleben (Bode) OT Hadmersleben","fax":"nicht angegeben","phone":"039408/93100","full_time_school":false,"email":"kontakt@gym-internatsschule-hadmersleben.bildung-lsa.de","website":"http://www.privatgymnasium.de","programs":{"programs":["Be smart - don't Start"]},"state":"ST","lon":11.295444,"lat":51.991826},{"name":"Internationale Grundschule Pierre Trudeau","id":"ST-234","address":"Schulstraße 12 39179 Barleben","fax":"039203/561546","phone":"039203/561542","full_time_school":false,"email":"kontakt@gs-international.bildung-lsa.de","website":"http://www.ecole-ev.de","programs":{"programs":[]},"state":"ST","lon":11.622258,"lat":52.204338},{"name":"Internationales Gymnasium  Pierre Trudeau","id":"ST-235","address":"Bahnhofstraße 27 - 29 39179 Barleben","fax":"039203/565829","phone":"039203/565810","full_time_school":false,"email":"kontakt@gym-barleben.bildung-lsa.de","website":"http://www.gym-barleben.bildung-lsa.de","programs":{"programs":["Schule ohne Rassismus - Schule mit Courage"]},"state":"ST","lon":11.622659,"lat":52.208292},{"name":"Integrierte Gesamtschule \"Willy Brandt\"","id":"ST-236","address":"Westring 30 - 32 39110 Magdeburg","fax":"0391/5065720","phone":"0391/5065711","full_time_school":false,"email":"kontakt@igs-brandt.bildung-lsa.de","website":"http://www.igs-brandt.bildung-lsa.de","programs":{"programs":["Schule ohne Rassismus - Schule mit Courage","UNESCO Projektschulen"]},"state":"ST","lon":11.604896,"lat":52.125952},{"name":"Integrierte Gesamtschule \"Regine Hildebrandt\"","id":"ST-237","address":"Pablo-Neruda-Straße 10 39126 Magdeburg","fax":"0391/2537995","phone":"0391/2537994","full_time_school":false,"email":"kontakt@igs-neustaedtersee.bildung-lsa.de","website":"http://www.igsmd.de","programs":{"programs":["Be smart - don't Start","Schule ohne Rassismus - Schule mit Courage"]},"state":"ST","lon":11.635574,"lat":52.169331},{"name":"Integrierte Gesamtschule","id":"ST-238","address":"Adam-Kuckhoff-Straße 37 06108 Halle (Saale)","fax":"0345/4704533","phone":"0345/2024392","full_time_school":false,"email":"kontakt@igs-halle.bildung-lsa.de","website":"http://www.igs-halle.de","programs":{"programs":["Schule ohne Rassismus - Schule mit Courage"]},"state":"ST","lon":11.973222,"lat":51.487911},{"name":"Integrationsgrundschule \"Am Kleers\"","id":"ST-239","address":"Erlenstraße 16 06484 Quedlinburg","fax":"03946/810314","phone":"03946/8383","full_time_school":false,"email":"kontakt@gs-kleers.bildung-lsa.de","website":"http://www.gs-kleers.bildung-lsa.de","programs":{"programs":[]},"state":"ST","lon":11.158023,"lat":51.79504},{"name":"Inklusive Grundschule Altenweddingen","id":"ST-240","address":"Bahrendorfer Weg 3 39171 Sülzetal OT Altenweddingen","fax":"039205/20906","phone":"039205/20906","full_time_school":false,"email":"kontakt@gs-altenweddingen.bildung-lsa.de","website":"http://www.gs-altenweddingen.bildung-lsa.de","programs":{"programs":[]},"state":"ST","lon":11.537443,"lat":51.998319},{"name":"Initiative zur Förderung aktiver und freier Pädagogik e. V.","id":"ST-241","address":"Harsdorfer Straße 33 39110 Magdeburg","fax":"nicht angegeben","phone":"0391/5620731","full_time_school":false,"email":"kontakt@gs-ifafp.bildung-lsa.de","website":"http://www.gs-ifafp.bildung-lsa.de","programs":{"programs":[]},"state":"ST","lon":11.599264,"lat":52.13338},{"name":"Hildebrand-Gymnasium","id":"ST-242","address":"Mönchskirchhof 2 c 39576 Hansestadt Stendal","fax":"03931/796789","phone":"03931/216088","full_time_school":false,"email":"kontakt@gym-hildebrand.bildung-lsa.de","website":"http://www.gym-hildebrand.bildung-lsa.de","programs":{"programs":[]},"state":"ST","lon":11.855471,"lat":52.604044},{"name":"Hermann-Conradi-Grundschule","id":"ST-243","address":"Lange Straße 41 06800 Raguhn-Jeßnitz OT Jeßnitz (Anhalt)","fax":"03494/7997925","phone":"03494/77306","full_time_school":false,"email":"kontakt@gs-jessnitz.bildung-lsa.de","website":"http://www.gs-jessnitz.bildung-lsa.de","programs":{"programs":[]},"state":"ST","lon":12.30146,"lat":51.682887},{"name":"Herder-Schule","id":"ST-244","address":"Nordstraße 34 06667 Weißenfels","fax":"03443/3397375","phone":"03443/333831","full_time_school":false,"email":"kontakt@gs-herder-weissenfels.bildung-lsa.de","website":"http://www.gs-herder-weissenfels.bildung-lsa.de","programs":{"programs":[]},"state":"ST","lon":11.970943,"lat":51.209799},{"name":"Henriette-Catharina-von-Oranien-Schule","id":"ST-245","address":"Schloßstraße 8 06785 Oranienbaum-Wörlitz OT Oranienbaum","fax":"034904/20262","phone":"034904/20262","full_time_school":false,"email":"kontakt@gs-oranienbaum.bildung-lsa.de","website":"http://www.gs-oranienbaum.bildung-lsa.de","programs":{"programs":[]},"state":"ST","lon":12.405048,"lat":51.800789},{"name":"Helene-Lange-Sekundarschule","id":"ST-246","address":"Dessauer Straße 9 06749 Bitterfeld-Wolfen OT Bitterfeld","fax":"03493/22731","phone":"03493/22731","full_time_school":false,"email":"kontakt@sks-lange.bildung-lsa.de","website":"http://www.sks-lange.bildung-lsa.de","programs":{"programs":["Be smart - don't Start"]},"state":"ST","lon":12.325474,"lat":51.6277},{"name":"Heinrich-Heine-Gymnasium","id":"ST-247","address":"Reudener Straße 74 06766 Bitterfeld-Wolfen OT Wolfen","fax":"03494/378518","phone":"03494/37850","full_time_school":false,"email":"kontakt@gym-heinrich-heine.bildung-lsa.de","website":"http://www.heine-gymnasium-wolfen.de","programs":{"programs":["Be smart - don't Start","Schule ohne Rassismus - Schule mit Courage"]},"state":"ST","lon":12.24923,"lat":51.667753},{"name":"Heideschule Halle","id":"ST-248","address":"Zanderweg 1 06120 Halle (Saale)","fax":"0345/68489252","phone":"0345/68489249","full_time_school":false,"email":"kontakt@gs-heide-halle.bildung-lsa.de","website":"http://www.gs-heide-halle.bildung-lsa.de","programs":{"programs":[]},"state":"ST","lon":11.913674,"lat":51.517641},{"name":"Heideschule Gossa","id":"ST-249","address":"Straße der Jugend 4 06774 Muldestausee OT Gossa","fax":"034955/21452","phone":"034955/21452","full_time_school":false,"email":"kontakt@gs-heide-gossa.bildung-lsa.de","website":"http://www.gs-heide-gossa.bildung-lsa.de","programs":{"programs":[]},"state":"ST","lon":12.441688,"lat":51.673472},{"name":"Hegel-Gymnasium","id":"ST-250","address":"Geißlerstraße 4 39104 Magdeburg","fax":"0391/5361799","phone":"0391/5361711","full_time_school":false,"email":"kontakt@gym-hegel.bildung-lsa.de","website":"http://www.hegel-gymnasium.de","programs":{"programs":["Be smart - don't Start","Schule ohne Rassismus - Schule mit Courage"]},"state":"ST","lon":11.629773,"lat":52.117749},{"name":"Gymnasium Südstadt","id":"ST-251","address":"Kattowitzer Straße 40 a 06128 Halle (Saale)","fax":"0345/9773318","phone":"0345/1202571","full_time_school":false,"email":"kontakt@gym-suedstadt.bildung-lsa.de","website":"http://www.gymnasium-suedstadt.de","programs":{"programs":[]},"state":"ST","lon":11.949068,"lat":51.457703},{"name":"Gymnasium Stadtfeld","id":"ST-252","address":"Ernst-Pörner-Straße 15 38855 Wernigerode","fax":"03943/266145","phone":"03943/22055","full_time_school":false,"email":"kontakt@gym-stadtfeld.bildung-lsa.de","website":"http://www.gymnasium-stadtfeld.de","programs":{"programs":["Schule ohne Rassismus - Schule mit Courage"]},"state":"ST","lon":10.799111,"lat":51.844127},{"name":"Gymnasium Querfurt","id":"ST-253","address":"Nemsdorfer Weg 8 06268 Querfurt","fax":"034771/22425","phone":"034771/22450","full_time_school":false,"email":"kontakt@gym-querfurt.bildung-lsa.de","website":"http://www.gymnasium-querfurt.de","programs":{"programs":["Schule ohne Rassismus - Schule mit Courage"]},"state":"ST","lon":11.601924,"lat":51.374804},{"name":"Gymnasium Oschersleben","id":"ST-254","address":"Lindenstraße 2 39387 Oschersleben (Bode)","fax":"03949/96551","phone":"03949/2347","full_time_school":false,"email":"kontakt@gym-oschersleben.bildung-lsa.de","website":"http://www.gym-oschersleben.bildung-lsa.de","programs":{"programs":[]},"state":"ST","lon":11.223796,"lat":52.027784},{"name":"Gymnasium Landsberg","id":"ST-255","address":"Bergstraße 19 06188 Landsberg","fax":"034602/21604","phone":"034602/20741","full_time_school":false,"email":"kontakt@gym-landsberg.bildung-lsa.de","website":"http://www.gym-landsberg.de","programs":{"programs":[]},"state":"ST","lon":12.168982,"lat":51.525974},{"name":"Gymnasium Jessen","id":"ST-256","address":"Mühlberger Straße 24 06917 Jessen (Elster)","fax":"03537/214925","phone":"03537/214975","full_time_school":false,"email":"kontakt@gym-jessen.bildung-lsa.de","website":"http://www.gymnasium-jessen.de","programs":{"programs":["Schule ohne Rassismus - Schule mit Courage"]},"state":"ST","lon":12.948573,"lat":51.79001},{"name":"Gymnasium Gommern","id":"ST-257","address":"Magdeburger Straße 26 39245 Gommern","fax":"039200/667820","phone":"039200/66780","full_time_school":false,"email":"kontakt@gym-gommern.bildung-lsa.de","website":"http://www.europaschule-gommern.de","programs":{"programs":["Be smart - don't Start","Schule ohne Rassismus - Schule mit Courage"]},"state":"ST","lon":11.8333,"lat":52.0667},{"name":"Gymnasium Carolinum","id":"ST-258","address":"Schloßgartenstraße 14 06406 Bernburg (Saale)","fax":"03471/626970","phone":"03471/370121","full_time_school":false,"email":"kontakt@gym-carolinum.bildung-lsa.de","website":"http://www.carolinum.net","programs":{"programs":["Schule ohne Rassismus - Schule mit Courage"]},"state":"ST","lon":11.73562,"lat":51.795154},{"name":"Gymnasium Beetzendorf","id":"ST-259","address":"Goethestraße 18 38489 Beetzendorf","fax":"039000/51035","phone":"039000/226","full_time_school":false,"email":"kontakt@gym-beetzendorf.bildung-lsa.de","website":"http://www.gym-beetzendorf.bildung-lsa.de","programs":{"programs":[]},"state":"ST","lon":11.095203,"lat":52.706637},{"name":"Gymnasium \"Werner von Siemens\"","id":"ST-260","address":"Stendaler Straße 10 39106 Magdeburg","fax":"0391/2537906","phone":"0391/2537945","full_time_school":false,"email":"kontakt@gym-siemens.bildung-lsa.de","website":"http://www.siemens.md.st.schule.de","programs":{"programs":["Schule ohne Rassismus - Schule mit Courage"]},"state":"ST","lon":11.654097,"lat":52.149718},{"name":"Gymnasium \"Walter Gropius\" - Europaschule","id":"ST-261","address":"Peterholzstraße 58 06849 Dessau-Roßlau","fax":"0340/8504312","phone":"0340/8504310","full_time_school":false,"email":"kontakt@gym-gropius.bildung-lsa.de","website":"http://www.wgg-dessau.de","programs":{"programs":[]},"state":"ST","lon":12.247712,"lat":51.80284},{"name":"Gymnasium \"Prof. Friedrich Förster\"","id":"ST-262","address":"Schulstraße 23 39340 Haldensleben","fax":"03904/720288","phone":"03904/2288","full_time_school":false,"email":"kontakt@gym-haldensleben.bildung-lsa.de","website":"http://www.pffg.de","programs":{"programs":[]},"state":"ST","lon":11.413358,"lat":52.287566},{"name":"Gymnasium \"Philanthropinum\"","id":"ST-263","address":"Friedrich-Naumann-Straße 2 06844 Dessau-Roßlau","fax":"0340/2400783","phone":"0340/212550","full_time_school":false,"email":"kontakt@gym-philanthropinum.bildung-lsa.de","website":"http://www.philan.de","programs":{"programs":["Schule ohne Rassismus - Schule mit Courage"]},"state":"ST","lon":12.244495,"lat":51.832052},{"name":"Gymnasium \"Martineum\"","id":"ST-264","address":"Johannesbrunnen 34 38820 Halberstadt","fax":"03941/601657","phone":"03941/24227","full_time_school":false,"email":"kontakt@gym-martineum.bildung-lsa.de","website":"http://www.martineum-halberstadt.de","programs":{"programs":["Schule ohne Rassismus - Schule mit Courage","UNESCO Projektschulen"]},"state":"ST","lon":11.046538,"lat":51.897403},{"name":"Gymnasium \"Johann Gottfried Herder\"","id":"ST-265","address":"Am Saalehang 1 06217 Merseburg (Saale)","fax":"03461/204704","phone":"03461/210195","full_time_school":false,"email":"kontakt@gym-herder-merseburg.bildung-lsa.de","website":"http://www.herderianer.de","programs":{"programs":["Be smart - don't Start"]},"state":"ST","lon":11.999613,"lat":51.350409},{"name":"Gymnasium \"Geschwister Scholl\"","id":"ST-266","address":"Apollostraße 17 - 19 39118 Magdeburg","fax":"0391/6076588","phone":"0391/616302","full_time_school":false,"email":"kontakt@gym-scholl-magdeburg.bildung-lsa.de","website":"http://www.gym-scholl-magdeburg.bildung-lsa.de","programs":{"programs":["Schule ohne Rassismus - Schule mit Courage"]},"state":"ST","lon":11.60872,"lat":52.090398},{"name":"Gymnasium \"Freiherr vom Stein\"","id":"ST-267","address":"Geschwister-Scholl-Straße 2 39356 Stadt Oebisfelde-Weferlingen OT Weferlingen","fax":"039061/984858","phone":"039061/2306","full_time_school":false,"email":"kontakt@gym-stein.bildung-lsa.de","website":"http://www.gymnasium-weferlingen.de","programs":{"programs":["Schule ohne Rassismus - Schule mit Courage"]},"state":"ST","lon":10.987538,"lat":52.436379},{"name":"Gymnasium \"Am Thie\"","id":"ST-268","address":"Friedensstraße 26 38889 Blankenburg (Harz)","fax":"03944/367515","phone":"03944/367510","full_time_school":false,"email":"kontakt@gym-thie.bildung-lsa.de","website":"http://www.gat-blankenburg.de","programs":{"programs":["Schule ohne Rassismus - Schule mit Courage","UNESCO Projektschulen"]},"state":"ST","lon":10.957051,"lat":51.796082},{"name":"GutsMuths-Gymnasium","id":"ST-269","address":"Konvent 26 a 06484 Quedlinburg","fax":"03946/915420","phone":"03946/4314","full_time_school":false,"email":"kontakt@gym-gutsmuths.bildung-lsa.de","website":"http://www.gym-gutsmuths.bildung-lsa.de","programs":{"programs":["Schule ohne Rassismus - Schule mit Courage"]},"state":"ST","lon":11.150015,"lat":51.788767},{"name":"Grundschulzentrum Güsen","id":"ST-270","address":"An der Heide 4 a 39317 Elbe-Parey OT Güsen","fax":"039344/9024","phone":"039344/9023","full_time_school":false,"email":"kontakt@gs-guesen.bildung-lsa.de","website":"http://www.gs-guesen.bildung-lsa.de","programs":{"programs":[]},"state":"ST","lon":11.982547,"lat":52.341826},{"name":"Grundschulzentrum \"Bördeblick\"","id":"ST-271","address":"Bruchtor 20 c 39444 Hecklingen OT Groß Börnecke","fax":"039267/64739","phone":"039267/719","full_time_school":false,"email":"kontakt@gs-grossboernecke.bildung-lsa.de","website":"http://www.gs-grossboernecke.bildung-lsa.de","programs":{"programs":[]},"state":"ST","lon":11.474076,"lat":51.88764},{"name":"Grundschule Zuckerdorf Klein Wanzleben","id":"ST-272","address":"Mühlenplan 19 39164 Wanzleben-Börde OT Klein Wanzleben","fax":"039209/42259","phone":"039209/42259","full_time_school":false,"email":"kontakt@gs-kleinwanzleben.bildung-lsa.de","website":"http://www.gs-kleinwanzleben.bildung-lsa.de","programs":{"programs":[]},"state":"ST","lon":11.359026,"lat":52.068366},{"name":"Grundschule Zörbig","id":"ST-273","address":"Kirchplatz 8 06780 Zörbig","fax":"034956/249363","phone":"034956/20368","full_time_school":false,"email":"kontakt@gs-zoerbig.bildung-lsa.de","website":"http://www.gs-zoerbig.bildung-lsa.de","programs":{"programs":[]},"state":"ST","lon":12.119673,"lat":51.626685},{"name":"Grundschule Zoberberg","id":"ST-274","address":"Kastanienhof 14 06847 Dessau-Roßlau","fax":"0340/53342335","phone":"0340/53342330","full_time_school":false,"email":"kontakt@gs-zoberberg.bildung-lsa.de","website":"http://www.gs-zoberberg.bildung-lsa.de","programs":{"programs":["Schule ohne Rassismus - Schule mit Courage"]},"state":"ST","lon":12.189075,"lat":51.815998},