[{"address":"Gutshof 4 06774 Muldestausee OT Rösa","fax":"034208/780012","full_time_school":false,"id":"ST-0","lat":51.614023,"lon":12.488334,"name":"\"Grundschule am Schlosspark\" Rösa","phone":"034208/72142","state":"ST"},{"address":"Feldstraße 79 38855 Wernigerode","fax":"03943/545713","full_time_school":false,"id":"ST-1","lat":51.845259,"lon":10.796153,"name":"Berufsbildende Schulen des Landkreises Harz","phone":"03943/54570","state":"ST"},{"address":"Käthe-Kollwitz-Straße 1 29410 Hansestadt Salzwedel","fax":"03901/858033","full_time_school":false,"id":"ST-2","lat":52.832368,"lon":11.18639,"name":"Berufsbildende Schulen des Altmarkkreises Salzwedel","phone":"03901/85800","state":"ST"},{"address":"Tagewerbener Straße 75 06667 Weißenfels","fax":"03443/283112","full_time_school":false,"id":"ST-3","lat":51.217315,"lon":11.963513,"name":"Berufsbildende Schulen Burgenlandkreis","phone":"03443/283171","state":"ST"},{"address":"Parsevalstraße 2 06749 Bitterfeld-Wolfen OT Bitterfeld","fax":"03493/305919","full_time_school":false,"id":"ST-4","lat":51.627024,"lon":12.30166,"name":"Berufsbildende Schulen Anhalt-Bitterfeld","phone":"03493/305910","state":"ST"},{"address":"Am Krökentor 1 b - 3 39104 Magdeburg","fax":"0391/5321550","full_time_school":false,"id":"ST-5","lat":52.138141,"lon":11.636805,"name":"Berufsbildende Schulen \"Otto von Guericke\"","phone":"0391/532150","state":"ST"},{"address":"Salzmannstraße 9 - 15 39112 Magdeburg","fax":"0391/5412000","full_time_school":false,"id":"ST-6","lat":52.108682,"lon":11.604539,"name":"Berufsbildende Schulen \"Hermann Beims\"","phone":"0391/5414666","state":"ST"},{"address":"An der Schwimmhalle 3 06122 Halle (Saale)","fax":"0345/6830411","full_time_school":false,"id":"ST-7","lat":51.48065,"lon":11.914071,"name":"Berufsbildende Schulen \"Gutjahr\" Halle (Saale)","phone":"0345/683040","state":"ST"},{"address":"Böhnshauser Straße 4 38895 Halberstadt OT Langenstein","fax":"03941/5732922","full_time_school":false,"id":"ST-8","lat":51.89583,"lon":11.04667,"name":"Berufsbildende Schulen \"Geschwister Scholl\"","phone":"03941/5732916","state":"ST"},{"address":"Albert-Vater-Straße 90 39108 Magdeburg","fax":"0391/50692281","full_time_school":false,"id":"ST-9","lat":52.13977,"lon":11.611883,"name":"Berufsbildende Schulen \"Eike von Repgow\"","phone":"0391/5069220","state":"ST"},{"address":"Alt Westerhüsen 51/52 39122 Magdeburg","fax":"0391/4069657","full_time_school":false,"id":"ST-10","lat":52.060399,"lon":11.678537,"name":"Berufsbildende Schulen \"Dr. Otto Schlein\"","phone":"0391/406960","state":"ST"},{"address":"Magdeburger Chaussee 1 39288 Burg","fax":"03921/976613","full_time_school":false,"id":"ST-11","lat":52.268158,"lon":11.848704,"name":"Berufsbildende Schulen \"Conrad Tack\"","phone":"03921/97660","state":"ST"},{"address":"Kirchplatz 2 06774 Muldestausee OT Friedersdorf","fax":"03493/55494","full_time_school":false,"id":"ST-12","lat":51.646708,"lon":12.367157,"name":"Bernsteinschule Friedersdorf","phone":"03493/55494","state":"ST"},{"address":"Karl-Liebknecht-Str. 6 06667 Weißenfels","fax":"03443/305184","full_time_school":false,"id":"ST-13","lat":51.202284,"lon":11.978639,"name":"Bergschule Weißenfels","phone":"03443/305184","state":"ST"},{"address":"Hillerstraße 8 06188 Landsberg","fax":"034602/400760","full_time_school":false,"id":"ST-14","lat":51.526264,"lon":12.161903,"name":"Bergschule Landsberg","phone":"034602/20382","state":"ST"},{"address":"Kirchplatz 2 06628 Naumburg (Saale) OT Bad Kösen","fax":"034463/60427","full_time_school":false,"id":"ST-15","lat":51.131771,"lon":11.721042,"name":"Bergschule Bad Kösen","phone":"034463/27293","state":"ST"},{"address":"Rigaer Straße 1a 06128 Halle (Saale)","fax":"0345/12269037","full_time_school":false,"id":"ST-16","lat":51.451564,"lon":11.953198,"name":"Zweite Integrierte Gesamtschule Halle","phone":"0345/12269036","state":"ST"},{"address":"Mühlenweg 2 39249 Barby OT Gnadau","fax":"03928/4698899","full_time_school":false,"id":"ST-17","lat":51.975753,"lon":11.779915,"name":"Zinzendorfschule Gnadau","phone":"03928/4698888","state":"ST"},{"address":"Wolterstorffstraße 20 06493 Ballenstedt","fax":"039483/979444","full_time_school":false,"id":"ST-18","lat":51.717876,"lon":11.224899,"name":"Wolterstorff-Gymnasium","phone":"039483/280","state":"ST"},{"address":"Friedenstraße 37 06114 Halle (Saale)","fax":"0345/5238706","full_time_school":false,"id":"ST-19","lat":51.500371,"lon":11.958274,"name":"Wittekind-Grundschule","phone":"0345/5229140","state":"ST"},{"address":"Westwall 26 39576 Hansestadt Stendal","fax":"03931/4182171","full_time_school":false,"id":"ST-20","lat":52.60315,"lon":11.854135,"name":"Winckelmann-Gymnasium","phone":"03931/41820","state":"ST"},{"address":"Rathausstraße 2 06333 Hettstedt","fax":"03476/812472","full_time_school":false,"id":"ST-21","lat":51.646408,"lon":11.511651,"name":"Wilhelm und Alexander von Humboldt Gymnasium","phone":"03476/812152","state":"ST"},{"address":"Hauptstraße 12 a 06198 Salzatal OT Höhnstedt","fax":"034601/39421","full_time_school":false,"id":"ST-22","lat":51.503144,"lon":11.737466,"name":"Weinberggrundschule","phone":"034601/31778","state":"ST"},{"address":"Goethestraße 15 39167 Hohe Börde OT Niederndodeleben","fax":"039204/76920","full_time_school":false,"id":"ST-23","lat":52.13642,"lon":11.497779,"name":"Wartbergschule","phone":"039204/7690","state":"ST"},{"address":"Arnstedter Weg 11 06333 Hettstedt","fax":"03476/936085","full_time_school":false,"id":"ST-24","lat":51.656779,"lon":11.513022,"name":"WALDSCHULE - Förderschule (GB) Hettstedt","phone":"03476/851088","state":"ST"},{"address":"Schönburger Straße 20 06618 Naumburg (Saale)","fax":"03445/6990458","full_time_school":false,"id":"ST-25","lat":51.151808,"lon":11.819548,"name":"Uta-Schule","phone":"03445/703360","state":"ST"},{"address":"Sieglitz 63 06618 Molauer Land OT Sieglitz","fax":"036421/22678","full_time_school":false,"id":"ST-26","lat":51.06386,"lon":11.759101,"name":"Thomas-Müntzer-Grundschule Sieglitz","phone":"036421/22678","state":"ST"},{"address":"Raismeser Straße 9 06295 Lutherstadt Eisleben","fax":"03475/725871","full_time_school":false,"id":"ST-27","lat":51.511606,"lon":11.566228,"name":"Thomas-Müntzer-Grundschule","phone":"03475/717710","state":"ST"},{"address":"Schulweg 2 38871 Ilsenburg (Harz) OT Darlingerode","fax":"03943/605998","full_time_school":false,"id":"ST-28","lat":51.858555,"lon":10.715806,"name":"Thomas-Mann-Grundschule","phone":"03943/633540","state":"ST"},{"address":"Agnesdorfer Straße 30/31 06536 Südharz OT Roßla","fax":"034651/90963","full_time_school":false,"id":"ST-29","lat":51.46404,"lon":11.077033,"name":"Südharz-Grundschule Roßla","phone":"034651/90962","state":"ST"},{"address":"Dr.-John-Rittmeister-Straße 6 06406 Bernburg (Saale)","fax":"nicht angegeben","full_time_school":false,"id":"ST-30","lat":51.789657,"lon":11.729733,"name":"Staatlich anerkannte Ersatzschule mit Ausgleichsklassen","phone":"03471/374032","state":"ST"},{"address":"Nachtweide 76 39124 Magdeburg","fax":"0391/25443832","full_time_school":false,"id":"ST-31","lat":52.159008,"lon":11.644419,"name":"St. Mechthild-Grundschule","phone":"0391/2448850","state":"ST"},{"address":"Ingolstädter Straße 33 06128 Halle (Saale)","fax":"0345/1316451","full_time_school":false,"id":"ST-32","lat":51.45162,"lon":11.950519,"name":"Sprachheilschule Halle","phone":"0345/4721133","state":"ST"},{"address":"Amselweg 49 06110 Halle (Saale)","fax":"0345/1319820","full_time_school":false,"id":"ST-33","lat":51.461713,"lon":11.968366,"name":"Sportschulen Halle","phone":"0345/131980","state":"ST"},{"address":"Friedrich-Ebert-Straße 16 39114 Magdeburg","fax":"0391/8182855","full_time_school":false,"id":"ST-34","lat":52.123156,"lon":11.664787,"name":"Sportgymnasium","phone":"0391/8182811","state":"ST"},{"address":"Bahnhofstraße 12 06766 Bitterfeld-Wolfen OT Wolfen","fax":"03494/36878799","full_time_school":false,"id":"ST-35","lat":51.61989,"lon":12.317934,"name":"Sonnenlandschule - Förderschule (GB)","phone":"03494/3687870","state":"ST"},{"address":"Lindenstraße 21 a 06502 Thale OT Neinstedt","fax":"nicht angegeben","full_time_school":false,"id":"ST-36","lat":51.751758,"lon":11.090122,"name":"Sonderschule Neinstedt","phone":"03947/99670","state":"ST"},{"address":"Lindenstraße 06526 Sangerhausen","fax":"03464/5698920","full_time_school":false,"id":"ST-37","lat":51.457935,"lon":11.295568,"name":"Sonderschule für Geistigbehinderte Jugenddorf Sangerhausen","phone":"03464/569890","state":"ST"},{"address":"Starenweg 19 06485 Quedlinburg OT Gernrode","fax":"039485/610090","full_time_school":false,"id":"ST-38","lat":51.729464,"lon":11.129845,"name":"SINE-CURA-Schule - Förderschule (GB)","phone":"039485/610012","state":"ST"},{"address":"Richard-Wagner-Straße 2 a 06231 Bad Dürrenberg","fax":"03462/868274","full_time_school":false,"id":"ST-39","lat":51.304645,"lon":12.074743,"name":"Siedlungs-Grundschule","phone":"03462/82382","state":"ST"},{"address":"Grünstraße 5 06780 Zörbig","fax":"034956/39086","full_time_school":false,"id":"ST-40","lat":51.626531,"lon":12.118783,"name":"Sekundarschule Zörbig","phone":"034956/20044","state":"ST"},{"address":"Kastanienhof 14 06847 Dessau-Roßlau","fax":"0340/53342315","full_time_school":false,"id":"ST-41","lat":51.815998,"lon":12.189075,"name":"Sekundarschule Zoberberg","phone":"0340/5334230","state":"ST"},{"address":"Schulpromenade 9 39164 Wanzleben-Börde OT Wanzleben","fax":"039209/43521","full_time_school":false,"id":"ST-42","lat":52.034282,"lon":11.454068,"name":"Sekundarschule Wanzleben","phone":"039209/3165","state":"ST"},{"address":"Diesterwegring 24 39387 Oschersleben (Bode)","fax":"03949/512416","full_time_school":false,"id":"ST-43","lat":52.037459,"lon":11.236493,"name":"Sekundarschule V","phone":"03949/2242","state":"ST"},{"address":"Neustädter Straße 48 06502 Thale","fax":"03947/7792816","full_time_school":false,"id":"ST-44","lat":51.758659,"lon":11.04067,"name":"Sekundarschule Thale/Nord","phone":"03947/779280","state":"ST"},{"address":"Halberstädter Straße 4 39171 Sülzetal OT Langenweddingen","fax":"039205/699076","full_time_school":false,"id":"ST-45","lat":52.032191,"lon":11.521582,"name":"Sekundarschule Sülzetal","phone":"039205/69343","state":"ST"},{"address":"Ziegeleistraße 38 06536 Südharz OT Roßla","fax":"034651/296026","full_time_school":false,"id":"ST-46","lat":51.461884,"lon":11.082398,"name":"Sekundarschule Roßla","phone":"034651/2466","state":"ST"},{"address":"Gartenstraße 34 06779 Raguhn-Jeßnitz OT Raguhn","fax":"034906/324595","full_time_school":false,"id":"ST-47","lat":51.712015,"lon":12.272886,"name":"Sekundarschule Raguhn","phone":"034906/20240","state":"ST"},{"address":"Burgkemnitzer Straße 28 06774 Muldestausee OT Muldenstein","fax":"03493/511134","full_time_school":false,"id":"ST-48","lat":51.67115,"lon":12.342252,"name":"Sekundarschule Muldenstein","phone":"03493/55132","state":"ST"},{"address":"Thälmannstraße 9 39291 Möser","fax":"039222/96196","full_time_school":false,"id":"ST-49","lat":52.217499,"lon":11.792681,"name":"Sekundarschule Möser","phone":"039222/96194","state":"ST"},{"address":"Ilsenburger Straße 31 - Haus B 38855 Wernigerode","fax":"nicht angegeben","full_time_school":false,"id":"ST-50","lat":51.837611,"lon":10.768147,"name":"Sekundarschule LebenLernen Wernigerode","phone":"03943/625312","state":"ST"},{"address":"Werner-Seelenbinder-Ring 59 06849 Dessau-Roßlau","fax":"0340/8824912","full_time_school":false,"id":"ST-51","lat":51.810713,"lon":12.248067,"name":"Sekundarschule Kreuzberge","phone":"0340/8824908","state":"ST"},{"address":"Straße der Jugend 9 06917 Jessen (Elster)","fax":"03537/213171","full_time_school":false,"id":"ST-52","lat":51.79703,"lon":12.962779,"name":"Sekundarschule Jessen-Nord","phone":"03537/213166","state":"ST"},{"address":"Schillerstraße 06712 Zeitz","fax":"03441/718658","full_time_school":false,"id":"ST-53","lat":51.0526974,"lon":12.1428431,"name":"Sekundarschule III","phone":"03441/212140","state":"ST"},{"address":"Fritz-Weineck-Straße 6 und 8 06766 Bitterfeld-Wolfen OT Wolfen","fax":"03494/503064","full_time_school":false,"id":"ST-54","lat":51.684909,"lon":12.260029,"name":"Sekundarschule I Wolfen-Nord","phone":"03494/21046","state":"ST"},{"address":"Kurt-Wüsteneck-Straße 21 06132 Halle (Saale)","fax":"0345/77577347","full_time_school":true,"id":"ST-55","lat":51.429718,"lon":11.980272,"name":"Sekundarschule Halle-Süd - Ganztagsschule","phone":"0345/7704715","state":"ST"},{"address":"Schulstraße 6 a 39443 Staßfurt OT Förderstedt","fax":"039266/92078","full_time_school":false,"id":"ST-56","lat":51.849191,"lon":11.594372,"name":"Sekundarschule Förderstedt","phone":"039266/92077","state":"ST"},{"address":"Ostrauer Straße 7 06729 Elsteraue OT Reuden","fax":"034424/404919","full_time_school":false,"id":"ST-57","lat":51.107867,"lon":12.190993,"name":"Sekundarschule Elsteraue","phone":"034424/40490","state":"ST"},{"address":"Lindenstraße 11 06895 Zahna-Elster OT Elster","fax":"035383/600040","full_time_school":false,"id":"ST-58","lat":51.828249,"lon":12.821886,"name":"Sekundarschule Elster","phone":"035383/20313","state":"ST"},{"address":"Ummendorfer Straße 9 39365 Eilsleben","fax":"039409/21223","full_time_school":false,"id":"ST-59","lat":52.150665,"lon":11.202485,"name":"Sekundarschule Eilsleben","phone":"039409/21222","state":"ST"},{"address":"Friedensstraße 6 06722 Droyßig","fax":"034425/27779","full_time_school":false,"id":"ST-60","lat":51.038823,"lon":12.031435,"name":"Sekundarschule Droyßig","phone":"034425/21336","state":"ST"},{"address":"Bahnhofstraße 8 29413 Dähre","fax":"039031/80238","full_time_school":false,"id":"ST-61","lat":52.799223,"lon":10.910596,"name":"Sekundarschule Dähre","phone":"039031/302","state":"ST"},{"address":"Lange Straße 42b 06869 Coswig (Anhalt)","fax":"034903/48783","full_time_school":false,"id":"ST-62","lat":51.884252,"lon":12.453874,"name":"Sekundarschule Coswig","phone":"034903/63457","state":"ST"},{"address":"Fuhrstraße 40 39261 Zerbst (Anhalt)","fax":"03923/787698","full_time_school":true,"id":"ST-63","lat":51.967149,"lon":12.090895,"name":"Sekundarschule CIERVISTI - Ganztagsschule","phone":"03923/780020","state":"ST"},{"address":"Am Bahnhof 8 39307 Stadt Jerichow OT Brettin","fax":"03933/91433","full_time_school":false,"id":"ST-64","lat":52.425891,"lon":12.180645,"name":"Sekundarschule Brettin","phone":"03933/4834","state":"ST"},{"address":"Karl-Marx-Straße 5 39629 Bismark (Altmark)","fax":"039089/31914","full_time_school":false,"id":"ST-65","lat":52.662888,"lon":11.554885,"name":"Sekundarschule Bismark","phone":"039089/2083","state":"ST"},{"address":"Adolf-Diesterweg-Straße 2 06308 Benndorf","fax":"034772/29163","full_time_school":false,"id":"ST-66","lat":51.574181,"lon":11.496771,"name":"Sekundarschule Benndorf","phone":"034772/29153","state":"ST"},{"address":"Friedrich-Engels-Straße 14 38489 Beetzendorf","fax":"039000/907886","full_time_school":false,"id":"ST-67","lat":52.699044,"lon":11.084304,"name":"Sekundarschule Beetzendorf","phone":"039000/350","state":"ST"},{"address":"Torgauer Straße 32 a 06905 Bad Schmiedeberg","fax":"034925/70270","full_time_school":false,"id":"ST-68","lat":51.691077,"lon":12.74236,"name":"Sekundarschule Bad Schmiedeberg","phone":"034925/70275","state":"ST"},{"address":"Steinbacher Straße 2 06647 Bad Bibra","fax":"034465/700074","full_time_school":false,"id":"ST-69","lat":51.20341,"lon":11.580288,"name":"Sekundarschule Bad Bibra","phone":"034465/700031","state":"ST"},{"address":"Kellerberg 3 06925 Annaburg","fax":"035385/21054","full_time_school":false,"id":"ST-70","lat":51.728565,"lon":13.045813,"name":"Sekundarschule Annaburg","phone":"035385/20280","state":"ST"},{"address":"Geschwister-Scholl-Straße 1 06366 Köthen (Anhalt)","fax":"03496/5099079","full_time_school":false,"id":"ST-71","lat":51.742513,"lon":11.957922,"name":"Sekundarschule an der Rüsternbreite","phone":"03496/551260","state":"ST"},{"address":"Mitschurinstraße 21 06862 Dessau-Roßlau","fax":"034901/94703","full_time_school":false,"id":"ST-72","lat":51.8873,"lon":12.228693,"name":"Sekundarschule an der Biethe","phone":"034901/82562","state":"ST"},{"address":"Ringstraße 48 06844 Dessau-Roßlau","fax":"0340/5169668","full_time_school":false,"id":"ST-73","lat":51.843739,"lon":12.250374,"name":"Sekundarschule am Schillerpark","phone":"0340/213730","state":"ST"},{"address":"Burgstraße 16 06385 Aken (Elbe)","fax":"034909/82098","full_time_school":false,"id":"ST-74","lat":51.855633,"lon":12.04016,"name":"Sekundarschule am Burgtor","phone":"034909/82095","state":"ST"},{"address":"Am Stadion 9 06179 Teutschenthal","fax":"034601/397683","full_time_school":false,"id":"ST-75","lat":51.452961,"lon":11.804784,"name":"Sekundarschule \"Würdetal\"","phone":"034601/22424","state":"ST"},{"address":"Paulsplan 3 38820 Halberstadt","fax":"03941/597655","full_time_school":false,"id":"ST-76","lat":51.897574,"lon":11.055775,"name":"Sekundarschule \"Walter Gemm\"","phone":"03941/24584","state":"ST"},{"address":"Am Wasserturm 36 06366 Köthen (Anhalt)","fax":"03496/3099047","full_time_school":false,"id":"ST-77","lat":51.744626,"lon":11.979622,"name":"Sekundarschule \"Völkerfreundschaft\"","phone":"03496/212235","state":"ST"},{"address":"Häuerstraße 39 06242 Braunsbedra","fax":"034633/23270","full_time_school":false,"id":"ST-78","lat":51.287055,"lon":11.892326,"name":"Sekundarschule \"Unteres Geiseltal\"","phone":"034633/22609","state":"ST"},{"address":"Bauernwinkel 23 39393 Ausleben","fax":"039404/50782","full_time_school":false,"id":"ST-79","lat":52.092595,"lon":11.112107,"name":"Sekundarschule \"Thomas Müntzer\"","phone":"039404/277","state":"ST"},{"address":"Umfassungsstraße 76 a 39124 Magdeburg","fax":"0391/2584200","full_time_school":false,"id":"ST-80","lat":52.155427,"lon":11.631775,"name":"Sekundarschule \"Thomas Müntzer\"","phone":"0391/2524241","state":"ST"},{"address":"Borngasse 2 06526 Sangerhausen","fax":"03464/342778","full_time_school":false,"id":"ST-81","lat":51.478381,"lon":11.301733,"name":"Sekundarschule \"Thomas Müntzer\"","phone":"03464/573047","state":"ST"},{"address":"Sophienstraße 11 06542 Allstedt","fax":"034652/10041","full_time_school":false,"id":"ST-82","lat":51.407325,"lon":11.380689,"name":"Sekundarschule \"Thomas Müntzer\"","phone":"034652/375","state":"ST"},{"address":"Unter den Zindeln 11 38855 Wernigerode","fax":"03943/906392","full_time_school":false,"id":"ST-83","lat":51.835021,"lon":10.781745,"name":"Sekundarschule \"Thomas Müntzer\"","phone":"03943/632164","state":"ST"},{"address":"Schulstraße 1 38836 Osterwieck OT Dardesheim","fax":"039422/61652","full_time_school":false,"id":"ST-84","lat":51.979605,"lon":10.599214,"name":"Sekundarschule \"Thomas Mann\" Stadt Osterwieck","phone":"039422/60827","state":"ST"},{"address":"Schulstraße 1 39619 Arendsee (Altmark)","fax":"039384/92132","full_time_school":false,"id":"ST-85","lat":52.880407,"lon":11.485691,"name":"Sekundarschule \"Theodor Fontane\"","phone":"039384/92130","state":"ST"},{"address":"Schulstraße 1 a 06258 Schkopau","fax":"03461/723875","full_time_school":false,"id":"ST-86","lat":51.390288,"lon":11.980963,"name":"Sekundarschule \"Saale-Elster-Auen\"","phone":"03461/723838","state":"ST"},{"address":"Lutherstraße 54 06886 Lutherstadt Wittenberg","fax":"03491/403465","full_time_school":false,"id":"ST-87","lat":51.869394,"lon":12.648024,"name":"Sekundarschule \"Rosa Luxemburg\"","phone":"03491/403455","state":"ST"},{"address":"Pappelstraße 2 06268 Querfurt","fax":"034771/28697","full_time_school":false,"id":"ST-88","lat":51.375777,"lon":11.614518,"name":"Sekundarschule \"Quer - Bunt\"","phone":"034771/28698","state":"ST"},{"address":"Puschkinstraße 11 39387 Oschersleben (Bode)","fax":"03949/500278","full_time_school":false,"id":"ST-89","lat":52.026041,"lon":11.232335,"name":"Sekundarschule \"Puschkin\"","phone":"03949/2101","state":"ST"},{"address":"Schulstraße 1 06184 Kabelsketal OT Gröbers","fax":"034605/43304","full_time_school":false,"id":"ST-90","lat":51.428814,"lon":12.119916,"name":"Sekundarschule \"Prof. Otto Schmeil\" Gröbers","phone":"034605/20354","state":"ST"},{"address":"Straße der Jugend 85 39218 Schönebeck (Elbe)","fax":"03928/425417","full_time_school":false,"id":"ST-91","lat":52.021793,"lon":11.712691,"name":"Sekundarschule \"Maxim Gorki\"","phone":"03928/65446","state":"ST"},{"address":"Kastanienweg 8 06343 Mansfeld","fax":"034782/22775","full_time_school":false,"id":"ST-92","lat":51.599428,"lon":11.458301,"name":"Sekundarschule \"Martin Luther\" Mansfeld","phone":"034782/20454","state":"ST"},{"address":"Gerikestraße 26 A 39340 Haldensleben","fax":"03904/710723","full_time_school":false,"id":"ST-93","lat":52.285455,"lon":11.410195,"name":"Sekundarschule \"Marie Gerike\"","phone":"03904/2308","state":"ST"},{"address":"Konradsburger Straße 32 06463 Falkenstein (Harz) OT Ermsleben","fax":"034743/93902","full_time_school":false,"id":"ST-94","lat":51.728504,"lon":11.345336,"name":"Sekundarschule \"Ludwig Gleim\"","phone":"034743/93901","state":"ST"},{"address":"Magdeburger Straße 241 39218 Schönebeck (Elbe)","fax":"nicht angegeben","full_time_school":false,"id":"ST-95","lat":52.022532,"lon":11.705365,"name":"Sekundarschule \"LebenLernen\" Schönebeck","phone":"03928/702884","state":"ST"},{"address":"Heinrich-Heine-Straße 18 39444 Hecklingen OT Schneidlingen","fax":"039267/64690","full_time_school":false,"id":"ST-96","lat":51.892595,"lon":11.450535,"name":"Sekundarschule \"LebenLernen\" Schneidlingen","phone":"039267/64355","state":"ST"},{"address":"Liebknechtstraße 73 39110 Magdeburg","fax":"0391/7356714","full_time_school":false,"id":"ST-97","lat":52.122622,"lon":11.603112,"name":"Sekundarschule \"LebenLernen\" Magdeburg","phone":"0391/7356738","state":"ST"},{"address":"Stadtseeallee 95 39576 Hansestadt Stendal","fax":"03931/519696","full_time_school":false,"id":"ST-98","lat":52.598161,"lon":11.833928,"name":"Sekundarschule \"Komarow\"","phone":"03931/412054","state":"ST"},{"address":"Straße der OdF 27 39638 Hansestadt Gardelegen","fax":"03907/910584","full_time_school":false,"id":"ST-99","lat":52.52639,"lon":11.3925,"name":"Sekundarschule \"Karl Marx\"","phone":"03907/712410","state":"ST"},{"address":"Ballerstedter Straße 50 39606 Hansestadt Osterburg (Altmark)","fax":"03937/838395","full_time_school":false,"id":"ST-100","lat":52.783676,"lon":11.746558,"name":"Sekundarschule \"Karl Marx\"","phone":"03937/82412","state":"ST"},{"address":"Helmstedter Straße 42 39116 Magdeburg","fax":"0391/6224966","full_time_school":false,"id":"ST-101","lat":52.115846,"lon":11.602602,"name":"Sekundarschule \"Johann Wolfgang von Goethe\"","phone":"0391/6224966","state":"ST"},{"address":"Feldstraße 19 39240 Calbe (Saale)","fax":"039291/463874","full_time_school":false,"id":"ST-102","lat":51.902098,"lon":11.768226,"name":"Sekundarschule \"Johann Gottfried Herder\"","phone":"039291/41033","state":"ST"},{"address":"An der Westpromenade 6 39624 Kalbe (Milde)","fax":"039080/72669","full_time_school":false,"id":"ST-103","lat":52.651233,"lon":11.386765,"name":"Sekundarschule \"Johann Friedrich Danneil\"","phone":"039080/2165","state":"ST"},{"address":"Ernst-Schneller-Straße 1 06114 Halle (Saale)","fax":"0345/5322006","full_time_school":false,"id":"ST-104","lat":51.497947,"lon":11.964649,"name":"Sekundarschule \"Johann Christian Reil\"","phone":"0345/5322005","state":"ST"},{"address":"Augustastraße 31 39590 Tangermünde","fax":"039322/45164","full_time_school":false,"id":"ST-105","lat":52.539877,"lon":11.960996,"name":"Sekundarschule \"Hinrich Brunsberg\"","phone":"039322/2970","state":"ST"},{"address":"Straße der Solidarität 42 39418 Staßfurt","fax":"03925/930400","full_time_school":false,"id":"ST-106","lat":51.862332,"lon":11.558987,"name":"Sekundarschule \"Hermann Kasten\"","phone":"03925/930399","state":"ST"},{"address":"Hemingwaystraße 1 06126 Halle (Saale)","fax":"0345/2097813","full_time_school":false,"id":"ST-107","lat":51.481249,"lon":11.906035,"name":"Sekundarschule \"Heinrich Heine\"","phone":"0345/6875129","state":"ST"},{"address":"Heinrich-Heine-Weg 1 06889 Lutherstadt Wittenberg OT Reinsdorf","fax":"03491/669003","full_time_school":false,"id":"ST-108","lat":51.899409,"lon":12.60837,"name":"Sekundarschule \"Heinrich Heine\"","phone":"03491/667808","state":"ST"},{"address":"Alban-Hess-Straße 45 b 06526 Sangerhausen","fax":"03464/519159","full_time_school":false,"id":"ST-109","lat":51.469183,"lon":11.300553,"name":"Sekundarschule \"Heinrich Heine\"","phone":"03464/521807","state":"ST"},{"address":"Schäferplatz 14 06429 Nienburg (Saale)","fax":"nicht angegeben","full_time_school":false,"id":"ST-110","lat":51.839111,"lon":11.769644,"name":"Sekundarschule \"Happy Children\"","phone":"034721/41430","state":"ST"},{"address":"Friedrich-Ebert-Straße 51 39114 Magdeburg","fax":"0391/8110003","full_time_school":false,"id":"ST-111","lat":52.12545,"lon":11.6659,"name":"Sekundarschule \"Hans Schellheimer\"","phone":"0391/857314","state":"ST"},{"address":"Lindenallee 29 29410 Hansestadt Salzwedel","fax":"03901/305192","full_time_school":false,"id":"ST-112","lat":52.845069,"lon":11.169498,"name":"Sekundarschule \"Gotthold Ephraim Lessing\"","phone":"03901/305190","state":"ST"},{"address":"Friedrich-Ebert-Straße 19 39596 Goldbeck","fax":"039388/29980","full_time_school":false,"id":"ST-113","lat":52.712998,"lon":11.863304,"name":"Sekundarschule \"Geschwister Scholl\"","phone":"039388/28233","state":"ST"},{"address":"Nordhausener Straße 18 39245 Gommern","fax":"039200/40151","full_time_school":false,"id":"ST-114","lat":52.074846,"lon":11.820804,"name":"Sekundarschule \"Fritz Heicke\"","phone":"039200/51258","state":"ST"},{"address":"Nordstraße 4 06632 Freyburg (Unstrut)","fax":"034464/27135","full_time_school":false,"id":"ST-115","lat":51.219982,"lon":11.768486,"name":"Sekundarschule \"Friedrich Ludwig Jahn\"","phone":"034464/28215","state":"ST"},{"address":"Karl-Marx-Straße 37 39288 Burg","fax":"03921/4827360","full_time_school":false,"id":"ST-116","lat":52.27521,"lon":11.853811,"name":"Sekundarschule \"Friedrich Adolph Wilhelm Diesterweg\"","phone":"03921/2529","state":"ST"},{"address":"Elballee 87 06846 Dessau-Roßlau","fax":"0340/6610554","full_time_school":false,"id":"ST-117","lat":51.850658,"lon":12.214778,"name":"Sekundarschule \"Friedensschule\"","phone":"0340/616207","state":"ST"},{"address":"Wilhelm-Trautewein-Straße 19 38820 Halberstadt","fax":"03941/568107","full_time_school":false,"id":"ST-118","lat":51.893281,"lon":11.068005,"name":"Sekundarschule \"Freiherr Spiegel\"","phone":"03941/601302","state":"ST"},{"address":"Albert-Schweitzer-Straße 19 06484 Quedlinburg","fax":"03946/9019276","full_time_school":false,"id":"ST-119","lat":51.779159,"lon":11.149615,"name":"Sekundarschule \"Ernst Bansi\"","phone":"03946/51035","state":"ST"},{"address":"Friedrich-Ludwig-Jahn-Straße 7 39646 Stadt Oebisfelde-Weferlingen OT Oebisfelde","fax":"039002/81365","full_time_school":false,"id":"ST-120","lat":52.431386,"lon":10.990204,"name":"Sekundarschule \"Drömlingschule\" Oebisfelde","phone":"039002/40016","state":"ST"},{"address":"Erich-Weinert-Straße 18 06679 Hohenmölsen","fax":"034441/449108","full_time_school":false,"id":"ST-121","lat":51.155514,"lon":12.106994,"name":"Sekundarschule \"Drei Türme\" Hohenmölsen","phone":"034441/22823","state":"ST"},{"address":"Blumenthalstraße 40 39576 Hansestadt Stendal","fax":"03931/25183111","full_time_school":false,"id":"ST-122","lat":52.598918,"lon":11.853739,"name":"Sekundarschule \"Comenius\"","phone":"03931/25183100","state":"ST"},{"address":"Straße der Einheit 35 a 39288 Burg","fax":"03921/990590","full_time_school":false,"id":"ST-123","lat":52.270022,"lon":11.845,"name":"Sekundarschule \"Carl von Clausewitz\"","phone":"03921/2473","state":"ST"},{"address":"Käthe-Kollwitz-Straße 12-14 06406 Bernburg (Saale)","fax":"03471/6235129","full_time_school":false,"id":"ST-124","lat":51.7939344,"lon":11.7404983,"name":"Sekundarschule \"Campus Technicus\"","phone":"03471/623510","state":"ST"},{"address":"Am Markt 7 39359 Calvörde","fax":"039051/98150","full_time_school":false,"id":"ST-125","lat":52.396778,"lon":11.300465,"name":"Sekundarschule \"Brüder Grimm\"","phone":"039051/317","state":"ST"},{"address":"Straße des Friedens 1 38875 Oberharz am Brocken OT Elbingerode","fax":"039454/49170","full_time_school":false,"id":"ST-126","lat":51.769084,"lon":10.794061,"name":"Sekundarschule \"Bodfeld\" Elbingerode","phone":"039454/49155","state":"ST"},{"address":"Eichsfeld 10 06237 Leuna OT Zöschen","fax":"034638/29991","full_time_school":false,"id":"ST-127","lat":51.358123,"lon":12.120556,"name":"Sekundarschule \"Bertolt Brecht\"","phone":"034638/20252","state":"ST"},{"address":"Apollostraße 15 39118 Magdeburg","fax":"0391/613124","full_time_school":false,"id":"ST-128","lat":52.090413,"lon":11.609468,"name":"Sekundarschule \"August Wilhelm Francke\"","phone":"0391/613102","state":"ST"},{"address":"Franckeplatz 1 // Haus 49 06110 Halle (Saale)","fax":"0345/2093030","full_time_school":false,"id":"ST-129","lat":51.478046,"lon":11.971147,"name":"Sekundarschule \"August Hermann Francke\"","phone":"0345/2026931","state":"ST"},{"address":"Albert-Einstein-Straße 27 - 31 06237 Leuna","fax":"03461/813676","full_time_school":false,"id":"ST-130","lat":51.327345,"lon":12.02407,"name":"Sekundarschule \"August Bebel\"","phone":"03461/813117","state":"ST"},{"address":"Am Deich 6 39317 Elbe-Parey OT Parey","fax":"039349/52291","full_time_school":false,"id":"ST-131","lat":52.378631,"lon":11.978539,"name":"Sekundarschule \"An der Elbe\" Parey","phone":"039349/51768","state":"ST"},{"address":"Schochwitzer Straße 8 06198 Salzatal OT Höhnstedt","fax":"034601/30186","full_time_school":false,"id":"ST-132","lat":51.503045,"lon":11.739211,"name":"Sekundarschule \"An der Weinstraße\"","phone":"034601/22377","state":"ST"},{"address":"Bergstraße 21 06188 Landsberg","fax":"034602/400757","full_time_school":false,"id":"ST-133","lat":51.525229,"lon":12.169375,"name":"Sekundarschule \"An der Doppelkapelle\" Landsberg","phone":"034602/20390","state":"ST"},{"address":"Pestalozzistraße 5 39539 Havelberg","fax":"039387/88973","full_time_school":false,"id":"ST-134","lat":52.825862,"lon":12.085626,"name":"Sekundarschule \"Am Weinberg\"","phone":"039387/8131","state":"ST"},{"address":"Am Tierpark 2 39418 Staßfurt","fax":"03925/323130","full_time_school":false,"id":"ST-135","lat":51.845677,"lon":11.579579,"name":"Sekundarschule \"Am Tierpark\"","phone":"03925/323129","state":"ST"},{"address":"Rasberger Straße 2 06712 Zeitz","fax":"03441/216874","full_time_school":false,"id":"ST-136","lat":51.044445,"lon":12.130236,"name":"Sekundarschule \"Am Schwanenteich\"","phone":"03441/213082","state":"ST"},{"address":"Kesselstraße 9 06317 Seegebiet Mansfelder Land OT Röblingen","fax":"034774/41175","full_time_school":false,"id":"ST-137","lat":51.464226,"lon":11.670738,"name":"Sekundarschule \"Am Salzigen See\" Röblingen","phone":"034774/20392","state":"ST"},{"address":"Wiesenweg 7 06193 Petersberg OT Wallwitz","fax":"034606/35380","full_time_school":false,"id":"ST-138","lat":51.581936,"lon":11.924785,"name":"Sekundarschule \"Am Petersberg\"","phone":"034606/20289","state":"ST"},{"address":"Berliner Straße 8 a 39218 Schönebeck (Elbe)","fax":"03928/42199915","full_time_school":false,"id":"ST-139","lat":52.008328,"lon":11.736002,"name":"Sekundarschule \"Am Lerchenfeld\"","phone":"03928/4219990","state":"ST"},{"address":"Hospitalstraße 1 38820 Halberstadt","fax":"03941/6789873","full_time_school":false,"id":"ST-140","lat":51.902117,"lon":11.048118,"name":"Sekundarschule \"Am Gröpertor\"","phone":"03941/611024","state":"ST"},{"address":"Budapester Straße 5 06130 Halle (Saale)","fax":"0345/6865825","full_time_school":false,"id":"ST-141","lat":51.454461,"lon":11.963576,"name":"Sekundarschule \"Am Fliederweg\"","phone":"0345/4441294","state":"ST"},{"address":"Schillerstraße 21 39649 Hansestadt Gardelegen OT Mieste","fax":"039082/98214","full_time_school":false,"id":"ST-142","lat":52.480442,"lon":11.213421,"name":"Sekundarschule \"Am Drömling\" Mieste","phone":"039082/422","state":"ST"},{"address":"Mützelstraße 50 39307 Genthin","fax":"03933/822693","full_time_school":false,"id":"ST-143","lat":52.398977,"lon":12.163486,"name":"Sekundarschule \"Am Baumschulenweg\"","phone":"03933/3637","state":"ST"},{"address":"Theaterplatz 3 06618 Naumburg (Saale)","fax":"03445/777184","full_time_school":false,"id":"ST-144","lat":51.151272,"lon":11.814817,"name":"Sekundarschule \"Alexander von Humboldt\"","phone":"03445/776229","state":"ST"},{"address":"Albrecht-Dürer-Straße 6 06217 Merseburg (Saale)","fax":"03461/230145","full_time_school":false,"id":"ST-145","lat":51.355651,"lon":11.982344,"name":"Sekundarschule \"Albrecht Dürer\"","phone":"03461/210821","state":"ST"},{"address":"Kösener Straße 70 06618 Naumburg (Saale)","fax":"03445/750810","full_time_school":false,"id":"ST-146","lat":51.150905,"lon":11.786084,"name":"Sekundarschule \"Albert Schweitzer\"","phone":"03445/778284","state":"ST"},{"address":"Parkstraße 5 39343 Erxleben","fax":"039052/98250","full_time_school":false,"id":"ST-147","lat":52.216928,"lon":11.243236,"name":"Sekundarschule \"Albert Niemann\"","phone":"039052/331","state":"ST"},{"address":"Teichstraße 25 06809 Sandersdorf-Brehna OT Roitzsch","fax":"034954/31931","full_time_school":false,"id":"ST-148","lat":51.575696,"lon":12.260103,"name":"Sekundarschule \"Adolph Diesterweg\"","phone":"034954/21534","state":"ST"},{"address":"Arthur-Scheibner-Ring 1 06249 Mücheln (Geiseltal)","fax":"034632/22277","full_time_school":false,"id":"ST-149","lat":51.297092,"lon":11.813121,"name":"Sekundarschule \"Adolf Holst\"","phone":"034632/22275","state":"ST"},{"address":"Arneburger Straße 1 a 39576 Hansestadt Stendal","fax":"03931/210003","full_time_school":false,"id":"ST-150","lat":52.610664,"lon":11.862023,"name":"Sekundarschule \"Adolf Diesterweg\"","phone":"03931/212504","state":"ST"},{"address":"Winckelmannplatz 5 a 39615 Seehausen (Altmark)","fax":"039386/52147","full_time_school":false,"id":"ST-151","lat":52.891432,"lon":11.749719,"name":"Sekundar- und Gemeinschaftsschule Seehausen","phone":"039386/52153","state":"ST"},{"address":"Schulstraße 15 06469 Stadt Seeland OT Nachterstedt","fax":"034741/70533","full_time_school":false,"id":"ST-152","lat":51.797669,"lon":11.339626,"name":"Seelandschule","phone":"034741/6251","state":"ST"},{"address":"Schulstraße 1 06647 Finneland OT Saubach","fax":"034465/85255","full_time_school":false,"id":"ST-153","lat":51.211582,"lon":11.528688,"name":"Sebastian-Kneipp-Grundschule","phone":"034465/88232","state":"ST"},{"address":"Rudolf-Breitscheid-Straße 16 06420 Könnern","fax":"034691/520058","full_time_school":false,"id":"ST-154","lat":51.670247,"lon":11.768501,"name":"Schulzentrum Stadt Könnern Sekundarschule","phone":"034691/52000","state":"ST"},{"address":"Nietlebener Straße 4 06126 Halle (Saale)","fax":"0345/5558799","full_time_school":false,"id":"ST-155","lat":51.480128,"lon":11.912482,"name":"Schule des Zweiten Bildungsweges","phone":"0345/555870","state":"ST"},{"address":"Brandenburger Straße 8 39104 Magdeburg","fax":"0391/5616822","full_time_school":false,"id":"ST-156","lat":52.133132,"lon":11.630271,"name":"Schule des Zweiten Bildungsweges","phone":"0391/5616824","state":"ST"},{"address":"Ernst-Barlach-Ring 37 06124 Halle (Saale)","fax":"0345/8046156","full_time_school":false,"id":"ST-157","lat":51.478872,"lon":11.929192,"name":"Schule des Lebens \"Helen Keller\"","phone":"0345/8048887","state":"ST"},{"address":"Platz der Deutschen Einheit 1 06686 Lützen OT Großgörschen","fax":"034444/901050","full_time_school":false,"id":"ST-158","lat":51.215244,"lon":12.182438,"name":"Scharnhorst-Schule Großgörschen","phone":"034444/20532","state":"ST"},{"address":"Jamboler Straße 1 06130 Halle (Saale)","fax":"0345/27980555","full_time_school":false,"id":"ST-159","lat":51.449262,"lon":11.966984,"name":"Sankt Mauritius-Sekundarschule","phone":"0345/27980580","state":"ST"},{"address":"Kramerplatz 13 06618 Naumburg (Saale)","fax":"03445/6990460","full_time_school":false,"id":"ST-160","lat":51.150726,"lon":11.804575,"name":"Salztorschule","phone":"03445/776269","state":"ST"},{"address":"Hans-Dittmar-Straße 9 06118 Halle (Saale)","fax":"0345/684586103","full_time_school":false,"id":"ST-161","lat":51.522367,"lon":11.960878,"name":"Saaleschule - Integrierte Gesamtschule in freier Trägerschaft","phone":"0345/6845860","state":"ST"},{"address":"Brüderstraße 46 39288 Burg","fax":"03921/727828","full_time_school":false,"id":"ST-162","lat":52.269492,"lon":11.857773,"name":"Roland-Gymnasium","phone":"03921/72780","state":"ST"},{"address":"Wulferstedter Straße 13 39387 Oschersleben (Bode) OT Hornhausen","fax":"03949/501016","full_time_school":false,"id":"ST-163","lat":52.045361,"lon":11.168503,"name":"Reitersteinschule - Grundschule Hornhausen","phone":"03949/2690","state":"ST"},{"address":"Breite Straße 6/7 06844 Dessau-Roßlau","fax":"0340/213892","full_time_school":false,"id":"ST-164","lat":51.837822,"lon":12.252895,"name":"Regenbogenschule - Förderschule (GB)","phone":"0340/213198","state":"ST"},{"address":"Krähenbergstraße 10 06366 Köthen (Anhalt)","fax":"03496/509282","full_time_school":false,"id":"ST-165","lat":51.745017,"lon":11.954255,"name":"Regenbogenschule","phone":"03496/551263","state":"ST"},{"address":"Straße der Jugend 5 38486 Klötze","fax":"03909/473370","full_time_school":false,"id":"ST-166","lat":52.627969,"lon":11.176266,"name":"Purnitz Grundschule","phone":"03909/2029","state":"ST"},{"address":"Weberstraße 27 39576 Hansestadt Stendal","fax":"nicht angegeben","full_time_school":false,"id":"ST-167","lat":52.60108,"lon":11.858739,"name":"Privatschule Stendal","phone":"03931/257880","state":"ST"},{"address":"Schulstraße 1 39590 Tangermünde","fax":"039322/42013","full_time_school":false,"id":"ST-168","lat":52.539102,"lon":11.969889,"name":"Privatgymnasium Tangermünde","phone":"039322/2313","state":"ST"},{"address":"Weberstraße 27 39576 Hansestadt Stendal","fax":"nicht angegeben","full_time_school":false,"id":"ST-169","lat":52.60108,"lon":11.858739,"name":"Privatgymnasium Stendal","phone":"03931/257880","state":"ST"},{"address":"Harzburger Straße 3 38871 Ilsenburg (Harz)","fax":"039452/48423","full_time_school":false,"id":"ST-170","lat":51.866179,"lon":10.67515,"name":"Prinzess-Ilse-Grundschule","phone":"039452/2270","state":"ST"},{"address":"Kirchstraße 1 39397 Schwanebeck","fax":"039424/949902","full_time_school":false,"id":"ST-171","lat":51.967097,"lon":11.120284,"name":"Petri-Sekundarschule","phone":"039424/365","state":"ST"},{"address":"Altenburger Straße 45 a 06712 Zeitz","fax":"03441/726990","full_time_school":false,"id":"ST-172","lat":51.046274,"lon":12.14125,"name":"Pestalozzischule Zeitz - Förderschule (LB)","phone":"03441/212333","state":"ST"},{"address":"An der Schnellrodaer Straße 1 06249 Mücheln (Geiseltal)","fax":"034632/90609","full_time_school":false,"id":"ST-173","lat":51.303924,"lon":11.795295,"name":"Pestalozzischule - Förderschule (LB)","phone":"034632/22823","state":"ST"},{"address":"Minslebener Straße 52 38855 Wernigerode","fax":"03943/41086","full_time_school":false,"id":"ST-174","lat":51.842041,"lon":10.798855,"name":"Pestalozzi-Schule - Förderschule (LB)","phone":"03943/22000","state":"ST"},{"address":"Sankt-Georg-Straße 123 29410 Hansestadt Salzwedel","fax":"03901/477566","full_time_school":false,"id":"ST-175","lat":52.84249,"lon":11.165958,"name":"Perver-Grundschule","phone":"03901/477566","state":"ST"},{"address":"Schulstraße 6 06773 Gräfenhainichen","fax":"034953/22114","full_time_school":false,"id":"ST-176","lat":51.730936,"lon":12.459717,"name":"Paul-Gerhardt-Gymnasium","phone":"034953/22098","state":"ST"},{"address":"Hegelstraße 5 39104 Magdeburg","fax":"0391/5980310","full_time_school":false,"id":"ST-177","lat":52.122487,"lon":11.632489,"name":"Ökumenisches Domgymnasium Magdeburg","phone":"0391/598030","state":"ST"},{"address":"Kugelbergring 32 06667 Weißenfels","fax":"03443/238541","full_time_school":false,"id":"ST-178","lat":51.193791,"lon":11.980599,"name":"Ökowegschule Kugelberg","phone":"03443/303135","state":"ST"},{"address":"Fichtestraße 84 06333 Hettstedt","fax":"03476/553205","full_time_school":false,"id":"ST-179","lat":51.657099,"lon":11.501125,"name":"Novalis-Grundschule","phone":"03476/851072","state":"ST"},{"address":"Nachtweide 77 39124 Magdeburg","fax":"0391/2445011","full_time_school":false,"id":"ST-180","lat":52.15846,"lon":11.644323,"name":"Norbertusgymnasium","phone":"0391/2445010","state":"ST"},{"address":"Weberstraße 6 06484 Quedlinburg","fax":"03946/2820","full_time_school":false,"id":"ST-181","lat":51.790937,"lon":11.147682,"name":"Neustädter Grundschule","phone":"03946/2820","state":"ST"},{"address":"Novalisstraße 11 06667 Weißenfels","fax":"03443/239877","full_time_school":false,"id":"ST-182","lat":51.209093,"lon":11.964668,"name":"Neustadt-Sekundarschule","phone":"03443/205036","state":"ST"},{"address":"Hermannstraße 32 06108 Halle (Saale)","fax":"0345/6784672","full_time_school":false,"id":"ST-183","lat":51.491491,"lon":11.963712,"name":"Neumarkt-Grundschule","phone":"0345/2024379","state":"ST"},{"address":"Oleariusstraße 7 06108 Halle (Saale)","fax":"0345/69495377","full_time_school":false,"id":"ST-184","lat":51.481507,"lon":11.967527,"name":"Neues städtisches Gymnasium Halle","phone":"0345/58229371","state":"ST"},{"address":"Nachtweide 68 39124 Magdeburg","fax":"0391/55555260","full_time_school":false,"id":"ST-185","lat":52.161473,"lon":11.643418,"name":"Neue Schule Magdeburg","phone":"0391/55555260","state":"ST"},{"address":"Weidener Straße 6 06868 Coswig (Anhalt) OT Jeber-Bergfrieden","fax":"034907/30254","full_time_school":false,"id":"ST-186","lat":51.981064,"lon":12.352775,"name":"Naturpark- Grundschule","phone":"034907/20226","state":"ST"},{"address":"Schulweg 3 06347 Gerbstedt OT Heiligenthal","fax":"034783/29230","full_time_school":false,"id":"ST-187","lat":51.607203,"lon":11.632878,"name":"Naturgrundschule Heiligenthal","phone":"034783/29830","state":"ST"},{"address":"Flemminger Weg 141 06618 Naumburg (Saale)","fax":"03445/7810993","full_time_school":false,"id":"ST-188","lat":51.142471,"lon":11.781439,"name":"Montessori-Grundschule","phone":"03445/7810990","state":"ST"},{"address":"Siegfried-Berger-Weg 16/17 06295 Lutherstadt Eisleben","fax":"03475/695037","full_time_school":false,"id":"ST-189","lat":51.522168,"lon":11.547119,"name":"Martin-Luther-Gymnasium","phone":"03475/602870","state":"ST"},{"address":"Herzogstraße 3 38889 Blankenburg (Harz)","fax":"03944/364032","full_time_school":false,"id":"ST-190","lat":51.790723,"lon":10.959014,"name":"Martin-Luther-Grundschule","phone":"03944/364032","state":"ST"},{"address":"Marktstraße 8 a 06484 Quedlinburg","fax":"03946/810929","full_time_school":false,"id":"ST-191","lat":51.790446,"lon":11.141576,"name":"Marktschule","phone":"03946/3658","state":"ST"},{"address":"Werbener Straße 1 39606 Hansestadt Osterburg (Altmark)","fax":"03937/2929048","full_time_school":false,"id":"ST-192","lat":52.791971,"lon":11.755046,"name":"Markgraf-Albrecht-Gymnasium","phone":"03937/82922","state":"ST"},{"address":"Oehrenfelder Weg 25 a 38871 Ilsenburg (Harz) OT Darlingerode","fax":"03943/905928","full_time_school":false,"id":"ST-193","lat":51.84523,"lon":10.721866,"name":"Marianne-Buggenhagen-Schule - Förderschule (KB)","phone":"03943/905927","state":"ST"},{"address":"Franckeplatz 1 // Haus 19 06110 Halle (Saale)","fax":"0345/4723204","full_time_school":false,"id":"ST-194","lat":51.478046,"lon":11.971147,"name":"Maria Montessori-Schule","phone":"0345/502125","state":"ST"},{"address":"Schillerstraße 22 a 06886 Lutherstadt Wittenberg","fax":"03491/877789","full_time_school":false,"id":"ST-195","lat":51.876162,"lon":12.65926,"name":"Luther-Melanchthon-Gymnasium","phone":"03491/877780","state":"ST"},{"address":"Amtsgasse 37 06785 Oranienbaum-Wörlitz OT Wörlitz","fax":"034905/30678","full_time_school":false,"id":"ST-196","lat":51.8481,"lon":12.4233,"name":"Luisenschule Wörlitz","phone":"034905/20362","state":"ST"},{"address":"Am Grauen Hof 1 06449 Aschersleben","fax":"03473/8408642","full_time_school":false,"id":"ST-197","lat":51.756168,"lon":11.45352,"name":"Luisenschule","phone":"03473/2392","state":"ST"},{"address":"Wallstraße 31 a 06366 Köthen (Anhalt)","fax":"03496/211076","full_time_school":false,"id":"ST-198","lat":51.75273,"lon":11.970266,"name":"Ludwigsgymnasium","phone":"03496/211075","state":"ST"},{"address":"Kirchstraße 22 39218 Schönebeck (Elbe)","fax":"03928/425763","full_time_school":false,"id":"ST-199","lat":52.005763,"lon":11.722028,"name":"Ludwig-Schneider-Grundschule","phone":"03928/425762","state":"ST"},{"address":"An der Stiege 6 a 06886 Lutherstadt Wittenberg OT Piesteritz","fax":"03491/611098","full_time_school":false,"id":"ST-200","lat":51.867729,"lon":12.596766,"name":"Lucas-Cranach-Gymnasium","phone":"03491/662264","state":"ST"},{"address":"In der Alten Kaserne 15 a 39288 Burg","fax":"03921/996759","full_time_school":false,"id":"ST-201","lat":52.265983,"lon":11.836623,"name":"Lindenschule - Förderschule (GB)","phone":"03921/996757","state":"ST"},{"address":"Lilienstraße 23 06122 Halle (Saale)","fax":"0345/6819536","full_time_school":false,"id":"ST-202","lat":51.485707,"lon":11.933045,"name":"LILIEN-Grundschule","phone":"0345/8045088","state":"ST"},{"address":"Rabestraße 19 06844 Dessau-Roßlau","fax":"0340/2208529","full_time_school":false,"id":"ST-203","lat":51.837967,"lon":12.248241,"name":"Liborius-Gymnasium","phone":"0340/212175","state":"ST"},{"address":"Schleiermacherstraße 30 b 06114 Halle (Saale)","fax":"0345/5233908","full_time_school":false,"id":"ST-204","lat":51.49546,"lon":11.977318,"name":"Lessing-Grundschule","phone":"0345/5233824","state":"ST"},{"address":"Lessingstraße 6 06242 Braunsbedra","fax":"034633/90465","full_time_school":false,"id":"ST-205","lat":51.286694,"lon":11.884598,"name":"Lessing-Grundschule","phone":"034633/22385","state":"ST"},{"address":"Franckeplatz 1 // Haus 42 06110 Halle (Saale)","fax":"0345/4781200","full_time_school":false,"id":"ST-206","lat":51.478046,"lon":11.971147,"name":"Latina \"August Hermann Francke\"","phone":"0345/4781100","state":"ST"},{"address":"Grovesmühle 1 38871 Nordharz OT Veckenstedt","fax":"nicht angegeben","full_time_school":false,"id":"ST-207","lat":51.898969,"lon":10.735309,"name":"Landschulheim Grovesmühle - Realschule","phone":"039451/6080","state":"ST"},{"address":"Grovesmühle 1 38871 Nordharz OT Veckenstedt","fax":"039451/60820","full_time_school":false,"id":"ST-208","lat":51.898969,"lon":10.735309,"name":"Landschulheim Grovesmühle - Gymnasium","phone":"039451/6080","state":"ST"},{"address":"Sittichenbacher Chaussee 4 a 06295 Lutherstadt Eisleben OT Osterhausen","fax":"034776/918519","full_time_school":false,"id":"ST-209","lat":51.454139,"lon":11.507333,"name":"Landschule Osterhausen","phone":"034776/918510","state":"ST"},{"address":"Schulstraße 12 06628 Naumburg (Saale) OT Schulpforte","fax":"034463/26839","full_time_school":false,"id":"ST-210","lat":51.142385,"lon":11.751649,"name":"Landesschule Pforta","phone":"034463/350","state":"ST"},{"address":"Kanzleistraße 4 38855 Wernigerode","fax":"03943/2678129","full_time_school":false,"id":"ST-211","lat":51.831348,"lon":10.784824,"name":"Landesgymnasium für Musik","phone":"03943/267810","state":"ST"},{"address":"Birkholzer Chaussee 6 39517 Tangerhütte","fax":"03935/943200","full_time_school":false,"id":"ST-212","lat":52.429166,"lon":11.82567,"name":"Landesbildungszentrum Tangerhütte","phone":"03935/9430","state":"ST"},{"address":"Murmansker Straße 16 06130 Halle (Saale)","fax":"0345/4721179","full_time_school":false,"id":"ST-213","lat":51.450418,"lon":11.966323,"name":"Landesbildungszentrum für Körperbehinderte Halle","phone":"0345/4721135","state":"ST"},{"address":"Murmansker Straße 12 06130 Halle (Saale)","fax":"0345/13356817","full_time_school":false,"id":"ST-214","lat":51.450051,"lon":11.970951,"name":"Landesbildungszentrum für Hörgeschädigte \"Albert Klotz\"","phone":"0345/1335680","state":"ST"},{"address":"Westerhäuser Straße 40 38820 Halberstadt","fax":"03941/678725","full_time_school":false,"id":"ST-215","lat":51.881188,"lon":11.051448,"name":"Landesbildungszentrum für Hörgeschädigte","phone":"03941/6786","state":"ST"},{"address":"Oebisfelder Weg 2 06124 Halle (Saale)","fax":"0345/4446969","full_time_school":false,"id":"ST-216","lat":51.4744967,"lon":11.9192508,"name":"Landesbildungszentrum für Blinde und Sehbehinderte \"Hermann von Helmholtz\"","phone":"0345/4446960","state":"ST"},{"address":"Schwimmbadstraße 1 39326 Wolmirstedt","fax":"039201/55132","full_time_school":false,"id":"ST-217","lat":52.248373,"lon":11.61247,"name":"Kurfürst-Joachim-Friedrich-Gymnasium","phone":"039201/55110","state":"ST"},{"address":"An der Petruskirche 29 06120 Halle (Saale)","fax":"0345/6829963","full_time_school":false,"id":"ST-218","lat":51.50687,"lon":11.95199,"name":"Kröllwitz-Grundschule","phone":"0345/5511478","state":"ST"},{"address":"Lilienstraße 19 06122 Halle (Saale)","fax":"0345/8056680","full_time_school":false,"id":"ST-219","lat":51.485283,"lon":11.934568,"name":"Kooperative Gesamtschule \"Wilhelm von Humboldt\"","phone":"0345/8042118","state":"ST"},{"address":"Roßbachstraße 78 06112 Halle (Saale)","fax":"0345/135699","full_time_school":false,"id":"ST-220","lat":51.464721,"lon":11.987989,"name":"Kooperative Gesamtschule \"Ulrich von Hutten\"","phone":"0345/135690","state":"ST"},{"address":"Insel 84 c 06420 Könnern OT Belleben","fax":"034692/28523","full_time_school":false,"id":"ST-221","lat":51.67186,"lon":11.633486,"name":"Kinder- und Jugenddorf Belleben","phone":"034692/28520","state":"ST"},{"address":"Murmansker Straße 14 06130 Halle (Saale)","fax":"0345/279980555","full_time_school":false,"id":"ST-222","lat":51.450233,"lon":11.968428,"name":"Katholische Sankt Franziskus-Grundschule","phone":"0345/2798050","state":"ST"},{"address":"Käthe-Kollwitz-Platz 1 38820 Halberstadt","fax":"03941/442540","full_time_school":false,"id":"ST-223","lat":51.887597,"lon":11.052683,"name":"Käthe-Kollwitz-Gymnasium","phone":"03941/441062","state":"ST"},{"address":"Hospitalstraße 4 39444 Hecklingen OT Schneidlingen","fax":"nicht angegeben","full_time_school":false,"id":"ST-224","lat":51.889808,"lon":11.441502,"name":"Katharinenschule","phone":"039267/432","state":"ST"},{"address":"Katharinenstraße 1 a 06295 Lutherstadt Eisleben","fax":"03475/602125","full_time_school":false,"id":"ST-225","lat":51.531082,"lon":11.540597,"name":"Katharinenschule","phone":"03475/602094","state":"ST"},{"address":"Kastanienstraße 1 b 06366 Köthen (Anhalt)","fax":"03496/216618","full_time_school":false,"id":"ST-226","lat":51.754517,"lon":11.986704,"name":"Kastanienschule","phone":"03496/216626","state":"ST"},{"address":"Friesenstraße 33 06112 Halle (Saale)","fax":"0345/1317401","full_time_school":false,"id":"ST-227","lat":51.486828,"lon":11.981267,"name":"Karl-Friedrich-Friesen-Grundschule","phone":"0345/5126550","state":"ST"},{"address":"von-Harnack-Straße 73 06217 Merseburg (Saale)","fax":"03461/305857","full_time_school":false,"id":"ST-228","lat":51.365203,"lon":11.985525,"name":"Johannes-Schule Merseburg e. V.","phone":"03461/305856","state":"ST"},{"address":"Lüneburger Heerstraße 22 39340 Haldensleben","fax":"03904/668708","full_time_school":false,"id":"ST-229","lat":52.28015,"lon":11.373616,"name":"Johanne-Nathusius-Schule - Förderschule (GB)","phone":"03904/42752","state":"ST"},{"address":"Friesenstraße 3/4 06112 Halle (Saale)","fax":"0345/69493001","full_time_school":false,"id":"ST-230","lat":51.486869,"lon":11.980268,"name":"Johann-Gottfried-Herder-Gymnasium","phone":"0345/2024648","state":"ST"},{"address":"Karl-Marx-Straße 2 - 4 29410 Hansestadt Salzwedel","fax":"03901/3059844","full_time_school":false,"id":"ST-231","lat":52.857945,"lon":11.154852,"name":"Jeetzeschule in Salzwedel - IGS in freier Trägerschaft","phone":"03901/3059840","state":"ST"},{"address":"Planstraße 36 39387 Oschersleben (Bode) OT Hadmersleben","fax":"039408/93102","full_time_school":false,"id":"ST-232","lat":51.991826,"lon":11.295444,"name":"Internatsschule Hadmersleben - Sekundarschule","phone":"039408/93100","state":"ST"},{"address":"Planstraße 36 39387 Oschersleben (Bode) OT Hadmersleben","fax":"nicht angegeben","full_time_school":false,"id":"ST-233","lat":51.991826,"lon":11.295444,"name":"Internatsschule Hadmersleben - Gymnasium","phone":"039408/93100","state":"ST"},{"address":"Schulstraße 12 39179 Barleben","fax":"039203/561546","full_time_school":false,"id":"ST-234","lat":52.204338,"lon":11.622258,"name":"Internationale Grundschule Pierre Trudeau","phone":"039203/561542","state":"ST"},{"address":"Bahnhofstraße 27 - 29 39179 Barleben","fax":"039203/565829","full_time_school":false,"id":"ST-235","lat":52.208292,"lon":11.622659,"name":"Internationales Gymnasium  Pierre Trudeau","phone":"039203/565810","state":"ST"},{"address":"Westring 30 - 32 39110 Magdeburg","fax":"0391/5065720","full_time_school":false,"id":"ST-236","lat":52.125952,"lon":11.604896,"name":"Integrierte Gesamtschule \"Willy Brandt\"","phone":"0391/5065711","state":"ST"},{"address":"Pablo-Neruda-Straße 10 39126 Magdeburg","fax":"0391/2537995","full_time_school":false,"id":"ST-237","lat":52.169331,"lon":11.635574,"name":"Integrierte Gesamtschule \"Regine Hildebrandt\"","phone":"0391/2537994","state":"ST"},{"address":"Adam-Kuckhoff-Straße 37 06108 Halle (Saale)","fax":"0345/4704533","full_time_school":false,"id":"ST-238","lat":51.487911,"lon":11.973222,"name":"Integrierte Gesamtschule","phone":"0345/2024392","state":"ST"},{"address":"Erlenstraße 16 06484 Quedlinburg","fax":"03946/810314","full_time_school":false,"id":"ST-239","lat":51.79504,"lon":11.158023,"name":"Integrationsgrundschule \"Am Kleers\"","phone":"03946/8383","state":"ST"},{"address":"Bahrendorfer Weg 3 39171 Sülzetal OT Altenweddingen","fax":"039205/20906","full_time_school":false,"id":"ST-240","lat":51.998319,"lon":11.537443,"name":"Inklusive Grundschule Altenweddingen","phone":"039205/20906","state":"ST"},{"address":"Harsdorfer Straße 33 39110 Magdeburg","fax":"nicht angegeben","full_time_school":false,"id":"ST-241","lat":52.13338,"lon":11.599264,"name":"Initiative zur Förderung aktiver und freier Pädagogik e. V.","phone":"0391/5620731","state":"ST"},{"address":"Mönchskirchhof 2 c 39576 Hansestadt Stendal","fax":"03931/796789","full_time_school":false,"id":"ST-242","lat":52.604044,"lon":11.855471,"name":"Hildebrand-Gymnasium","phone":"03931/216088","state":"ST"},{"address":"Lange Straße 41 06800 Raguhn-Jeßnitz OT Jeßnitz (Anhalt)","fax":"03494/7997925","full_time_school":false,"id":"ST-243","lat":51.682887,"lon":12.30146,"name":"Hermann-Conradi-Grundschule","phone":"03494/77306","state":"ST"},{"address":"Nordstraße 34 06667 Weißenfels","fax":"03443/3397375","full_time_school":false,"id":"ST-244","lat":51.209799,"lon":11.970943,"name":"Herder-Schule","phone":"03443/333831","state":"ST"},{"address":"Schloßstraße 8 06785 Oranienbaum-Wörlitz OT Oranienbaum","fax":"034904/20262","full_time_school":false,"id":"ST-245","lat":51.800789,"lon":12.405048,"name":"Henriette-Catharina-von-Oranien-Schule","phone":"034904/20262","state":"ST"},{"address":"Dessauer Straße 9 06749 Bitterfeld-Wolfen OT Bitterfeld","fax":"03493/22731","full_time_school":false,"id":"ST-246","lat":51.6277,"lon":12.325474,"name":"Helene-Lange-Sekundarschule","phone":"03493/22731","state":"ST"},{"address":"Reudener Straße 74 06766 Bitterfeld-Wolfen OT Wolfen","fax":"03494/378518","full_time_school":false,"id":"ST-247","lat":51.667753,"lon":12.24923,"name":"Heinrich-Heine-Gymnasium","phone":"03494/37850","state":"ST"},{"address":"Zanderweg 1 06120 Halle (Saale)","fax":"0345/68489252","full_time_school":false,"id":"ST-248","lat":51.517641,"lon":11.913674,"name":"Heideschule Halle","phone":"0345/68489249","state":"ST"},{"address":"Straße der Jugend 4 06774 Muldestausee OT Gossa","fax":"034955/21452","full_time_school":false,"id":"ST-249","lat":51.673472,"lon":12.441688,"name":"Heideschule Gossa","phone":"034955/21452","state":"ST"},{"address":"Geißlerstraße 4 39104 Magdeburg","fax":"0391/5361799","full_time_school":false,"id":"ST-250","lat":52.117749,"lon":11.629773,"name":"Hegel-Gymnasium","phone":"0391/5361711","state":"ST"},{"address":"Kattowitzer Straße 40 a 06128 Halle (Saale)","fax":"0345/9773318","full_time_school":false,"id":"ST-251","lat":51.457703,"lon":11.949068,"name":"Gymnasium Südstadt","phone":"0345/1202571","state":"ST"},{"address":"Ernst-Pörner-Straße 15 38855 Wernigerode","fax":"03943/266145","full_time_school":false,"id":"ST-252","lat":51.844127,"lon":10.799111,"name":"Gymnasium Stadtfeld","phone":"03943/22055","state":"ST"},{"address":"Nemsdorfer Weg 8 06268 Querfurt","fax":"034771/22425","full_time_school":false,"id":"ST-253","lat":51.374804,"lon":11.601924,"name":"Gymnasium Querfurt","phone":"034771/22450","state":"ST"},{"address":"Lindenstraße 2 39387 Oschersleben (Bode)","fax":"03949/96551","full_time_school":false,"id":"ST-254","lat":52.027784,"lon":11.223796,"name":"Gymnasium Oschersleben","phone":"03949/2347","state":"ST"},{"address":"Bergstraße 19 06188 Landsberg","fax":"034602/21604","full_time_school":false,"id":"ST-255","lat":51.525974,"lon":12.168982,"name":"Gymnasium Landsberg","phone":"034602/20741","state":"ST"},{"address":"Mühlberger Straße 24 06917 Jessen (Elster)","fax":"03537/214925","full_time_school":false,"id":"ST-256","lat":51.79001,"lon":12.948573,"name":"Gymnasium Jessen","phone":"03537/214975","state":"ST"},{"address":"Magdeburger Straße 26 39245 Gommern","fax":"039200/667820","full_time_school":false,"id":"ST-257","lat":52.077828,"lon":11.820524,"name":"Gymnasium Gommern","phone":"039200/66780","state":"ST"},{"address":"Schloßgartenstraße 14 06406 Bernburg (Saale)","fax":"03471/626970","full_time_school":false,"id":"ST-258","lat":51.795154,"lon":11.73562,"name":"Gymnasium Carolinum","phone":"03471/370121","state":"ST"},{"address":"Goethestraße 18 38489 Beetzendorf","fax":"039000/51035","full_time_school":false,"id":"ST-259","lat":52.706637,"lon":11.095203,"name":"Gymnasium Beetzendorf","phone":"039000/226","state":"ST"},{"address":"Stendaler Straße 10 39106 Magdeburg","fax":"0391/2537906","full_time_school":false,"id":"ST-260","lat":52.149718,"lon":11.654097,"name":"Gymnasium \"Werner von Siemens\"","phone":"0391/2537945","state":"ST"},{"address":"Peterholzstraße 58 06849 Dessau-Roßlau","fax":"0340/8504312","full_time_school":false,"id":"ST-261","lat":51.80284,"lon":12.247712,"name":"Gymnasium \"Walter Gropius\" - Europaschule","phone":"0340/8504310","state":"ST"},{"address":"Schulstraße 23 39340 Haldensleben","fax":"03904/720288","full_time_school":false,"id":"ST-262","lat":52.287566,"lon":11.413358,"name":"Gymnasium \"Prof. Friedrich Förster\"","phone":"03904/2288","state":"ST"},{"address":"Friedrich-Naumann-Straße 2 06844 Dessau-Roßlau","fax":"0340/2400783","full_time_school":false,"id":"ST-263","lat":51.832052,"lon":12.244495,"name":"Gymnasium \"Philanthropinum\"","phone":"0340/212550","state":"ST"},{"address":"Johannesbrunnen 34 38820 Halberstadt","fax":"03941/601657","full_time_school":false,"id":"ST-264","lat":51.897403,"lon":11.046538,"name":"Gymnasium \"Martineum\"","phone":"03941/24227","state":"ST"},{"address":"Am Saalehang 1 06217 Merseburg (Saale)","fax":"03461/204704","full_time_school":false,"id":"ST-265","lat":51.350409,"lon":11.999613,"name":"Gymnasium \"Johann Gottfried Herder\"","phone":"03461/210195","state":"ST"},{"address":"Apollostraße 17 - 19 39118 Magdeburg","fax":"0391/6076588","full_time_school":false,"id":"ST-266","lat":52.090398,"lon":11.60872,"name":"Gymnasium \"Geschwister Scholl\"","phone":"0391/616302","state":"ST"},{"address":"Geschwister-Scholl-Straße 2 39356 Stadt Oebisfelde-Weferlingen OT Weferlingen","fax":"039061/984858","full_time_school":false,"id":"ST-267","lat":52.436379,"lon":10.987538,"name":"Gymnasium \"Freiherr vom Stein\"","phone":"039061/2306","state":"ST"},{"address":"Friedensstraße 26 38889 Blankenburg (Harz)","fax":"03944/367515","full_time_school":false,"id":"ST-268","lat":51.796082,"lon":10.957051,"name":"Gymnasium \"Am Thie\"","phone":"03944/367510","state":"ST"},{"address":"Konvent 26 a 06484 Quedlinburg","fax":"03946/915420","full_time_school":false,"id":"ST-269","lat":51.788767,"lon":11.150015,"name":"GutsMuths-Gymnasium","phone":"03946/4314","state":"ST"},{"address":"An der Heide 4 a 39317 Elbe-Parey OT Güsen","fax":"039344/9024","full_time_school":false,"id":"ST-270","lat":52.341826,"lon":11.982547,"name":"Grundschulzentrum Güsen","phone":"039344/9023","state":"ST"},{"address":"Bruchtor 20 c 39444 Hecklingen OT Groß Börnecke","fax":"039267/64739","full_time_school":false,"id":"ST-271","lat":51.88764,"lon":11.474076,"name":"Grundschulzentrum \"Bördeblick\"","phone":"039267/719","state":"ST"},{"address":"Mühlenplan 19 39164 Wanzleben-Börde OT Klein Wanzleben","fax":"039209/42259","full_time_school":false,"id":"ST-272","lat":52.068366,"lon":11.359026,"name":"Grundschule Zuckerdorf Klein Wanzleben","phone":"039209/42259","state":"ST"},{"address":"Kirchplatz 8 06780 Zörbig","fax":"034956/249363","full_time_school":false,"id":"ST-273","lat":51.626685,"lon":12.119673,"name":"Grundschule Zörbig","phone":"034956/20368","state":"ST"},{"address":"Kastanienhof 14 06847 Dessau-Roßlau","fax":"0340/53342335","full_time_school":false,"id":"ST-274","lat":51.815998,"lon":12.189075,"name":"Grundschule Zoberberg","phone":"0340/53342330","state":"ST"},{"address":"Friedensring 1 39326 Zielitz","fax":"039208/24081","full_time_school":false,"id":"ST-275","lat":52.287561,"lon":11.674345,"name":"Grundschule Zielitz","phone":"039208/2080","state":"ST"},{"address":"Karl-Marx-Straße 31 06712 Zeitz","fax":"03441/215978","full_time_school":false,"id":"ST-276","lat":51.038696,"lon":12.142014,"name":"Grundschule Zeitz-Rasberg","phone":"03441/215925","state":"ST"},{"address":"Gustav-Mahler-Straße 14 06712 Zeitz","fax":"03441/718657","full_time_school":false,"id":"ST-277","lat":51.043064,"lon":12.155347,"name":"Grundschule Zeitz-Ost","phone":"03441/223647","state":"ST"},{"address":"Burgstraße 8 06895 Zahna-Elster OT Zahna","fax":"034924/80785","full_time_school":false,"id":"ST-278","lat":51.910575,"lon":12.788388,"name":"Grundschule Zahna","phone":"034924/20317","state":"ST"},{"address":"Untere Bornholzstraße 5 06526 Sangerhausen OT Wippra","fax":"034775/20363","full_time_school":false,"id":"ST-279","lat":51.573288,"lon":11.278839,"name":"Grundschule Wippra","phone":"034775/20363","state":"ST"},{"address":"Neue Schulstraße 1 06193 Wettin-Löbejün OT Wettin","fax":"034607/34066","full_time_school":false,"id":"ST-280","lat":51.640195,"lon":11.981056,"name":"Grundschule Wettin","phone":"034607/20546","state":"ST"},{"address":"Schulstraße 80 06502 Thale OT Westerhausen","fax":"03946/6403","full_time_school":false,"id":"ST-281","lat":51.805427,"lon":11.055769,"name":"Grundschule Westerhausen","phone":"03946/6403","state":"ST"},{"address":"Grüne Straße 4 39448 Börde-Hakel OT Westeregeln","fax":"039268/989812","full_time_school":false,"id":"ST-282","lat":51.961323,"lon":11.392634,"name":"Grundschule Westeregeln","phone":"039268/2490","state":"ST"},{"address":"Sophienstraße 1 a 39356 Stadt Oebisfelde-Weferlingen OT Weferlingen","fax":"039061/41184","full_time_school":false,"id":"ST-283","lat":52.316451,"lon":11.05536,"name":"Grundschule Weferlingen","phone":"039061/2717","state":"ST"},{"address":"Verbindungsstraße 1 06317 Seegebiet Mansfelder Land OT Wansleben am See","fax":"034601/26327","full_time_school":false,"id":"ST-284","lat":51.454725,"lon":11.748255,"name":"Grundschule Wansleben","phone":"034601/26326","state":"ST"},{"address":"Güterglücker Straße 1 a 39264 Zerbst (Anhalt) OT Walternienburg","fax":"039247/206","full_time_school":false,"id":"ST-285","lat":51.966362,"lon":11.937659,"name":"Grundschule Walternienburg","phone":"039247/414","state":"ST"},{"address":"Götschetalstraße 10 06193 Petersberg OT Wallwitz","fax":"034606/29934","full_time_school":false,"id":"ST-286","lat":51.578994,"lon":11.930611,"name":"Grundschule Wallwitz","phone":"034606/29932","state":"ST"},{"address":"Schulweg 9 06258 Schkopau OT Wallendorf","fax":"034639/20386","full_time_school":false,"id":"ST-287","lat":51.358157,"lon":12.06983,"name":"Grundschule Wallendorf","phone":"034639/20210","state":"ST"},{"address":"Schulstraße 5 39307 Genthin OT Tucheim","fax":"039346/240","full_time_school":false,"id":"ST-288","lat":52.287972,"lon":12.185118,"name":"Grundschule Tucheim","phone":"039346/240","state":"ST"},{"address":"Mittelstraße 7 06729 Elsteraue OT Tröglitz","fax":"03441/229890","full_time_school":false,"id":"ST-289","lat":51.057277,"lon":12.178457,"name":"Grundschule Tröglitz","phone":"03441/536307","state":"ST"},{"address":"Wittenberger Chaussee 21 06905 Bad Schmiedeberg OT Trebitz","fax":"034927/20209","full_time_school":false,"id":"ST-290","lat":51.753133,"lon":12.750553,"name":"Grundschule Trebitz","phone":"034927/20209","state":"ST"},{"address":"Am Park 12 06231 Bad Dürrenberg OT Tollwitz","fax":"03462/83153","full_time_school":false,"id":"ST-291","lat":51.281635,"lon":12.097589,"name":"Grundschule Tollwitz","phone":"03462/83153","state":"ST"},{"address":"Am Stadion 9 06179 Teutschenthal","fax":"034601/270328","full_time_school":false,"id":"ST-292","lat":51.452961,"lon":11.804784,"name":"Grundschule Teutschenthal \"Am Talkessel\"","phone":"034601/24627","state":"ST"},{"address":"An der Mühle 1 06667 Weißenfels OT Tagewerben","fax":"03443/3396091","full_time_school":false,"id":"ST-293","lat":51.242108,"lon":11.952483,"name":"Grundschule Tagewerben","phone":"03443/279428","state":"ST"},{"address":"Wilhelm-Koenen-Straße 33 06526 Sangerhausen","fax":"03464/609214","full_time_school":false,"id":"ST-294","lat":51.459199,"lon":11.290818,"name":"Grundschule Südwest","phone":"03464/515011","state":"ST"},{"address":"Rigaer Straße 1 b 06128 Halle (Saale)","fax":"0345/6813610","full_time_school":false,"id":"ST-295","lat":51.450958,"lon":11.952419,"name":"Grundschule Südstadt","phone":"0345/4721171","state":"ST"},{"address":"Schulstraße 13 06667 Stößen","fax":"034445/20333","full_time_school":false,"id":"ST-296","lat":51.115225,"lon":11.921517,"name":"Grundschule Stößen","phone":"034445/20333","state":"ST"},{"address":"Bergstraße 22 b 39576 Hansestadt Stendal","fax":"03931/418041","full_time_school":false,"id":"ST-297","lat":52.616711,"lon":11.855847,"name":"Grundschule Stendal Nord","phone":"03931/212753","state":"ST"},{"address":"Pestalozzistraße 5 06712 Zeitz","fax":"03441/226639","full_time_school":false,"id":"ST-298","lat":51.072595,"lon":12.1553,"name":"Grundschule Stadtmitte","phone":"03441/212079","state":"ST"},{"address":"Roßlauer Straße 14 06132 Halle (Saale)","fax":"0345/7757922","full_time_school":false,"id":"ST-299","lat":51.440892,"lon":11.971698,"name":"Grundschule Silberwald","phone":"0345/7759733","state":"ST"},{"address":"Augsdorfer Straße 23 06347 Gerbstedt OT Siersleben","fax":"03476/814727","full_time_school":false,"id":"ST-300","lat":51.602134,"lon":11.547335,"name":"Grundschule Siersleben","phone":"03476/813545","state":"ST"},{"address":"Triftstraße 39 06917 Jessen (Elster) OT Seyda","fax":"035387/43250","full_time_school":false,"id":"ST-301","lat":51.880614,"lon":12.909691,"name":"Grundschule Seyda","phone":"035387/43250","state":"ST"},{"address":"Friedrich-Engels-Straße 10 39164 Wanzleben-Börde OT Seehausen","fax":"039407/302","full_time_school":false,"id":"ST-302","lat":52.101892,"lon":11.295038,"name":"Grundschule Seehausen","phone":"039407/302","state":"ST"},{"address":"Obere Weinberge 3 06917 Jessen (Elster) OT Schweinitz","fax":"03537/204424","full_time_school":false,"id":"ST-303","lat":51.796123,"lon":13.016949,"name":"Grundschule Schweinitz","phone":"03537/212349","state":"ST"},{"address":"Am Mühlenberg 2 39524 Schönhausen (Elbe)","fax":"039323/38257","full_time_school":false,"id":"ST-304","lat":52.577862,"lon":12.039624,"name":"Grundschule Schönhausen","phone":"039323/38257","state":"ST"},{"address":"Schulstraße 17 06268 Querfurt OT Niederschmon","fax":"034771/23252","full_time_school":false,"id":"ST-305","lat":51.344954,"lon":11.632559,"name":"Grundschule Schmon","phone":"034771/23240","state":"ST"},{"address":"Schießwinkel 3 38838 Huy OT Schlanstedt","fax":"039401/51767","full_time_school":false,"id":"ST-306","lat":52.0223124,"lon":11.0045547,"name":"Grundschule Schlanstedt","phone":"039401/51767","state":"ST"},{"address":"Schulstraße 12 a 39307 Stadt Jerichow OT Schlagenthin","fax":"039348/183707","full_time_school":false,"id":"ST-307","lat":52.462407,"lon":12.277646,"name":"Grundschule Schlagenthin","phone":"039348/277","state":"ST"},{"address":"Hauptstraße 38 06773 Gräfenhainichen OT Schköna","fax":"034955/21448","full_time_school":false,"id":"ST-308","lat":51.681437,"lon":12.537436,"name":"Grundschule Schköna","phone":"034955/21448","state":"ST"},{"address":"Am alten Bahnhof 6 39579 Bismark (Altmark) OT Schinne","fax":"039320/986470","full_time_school":false,"id":"ST-309","lat":52.654503,"lon":11.733124,"name":"Grundschule Schinne","phone":"039320/347","state":"ST"},{"address":"Hanno-Günther-Straße 8 06246 Goethestadt Bad Lauchstädt OT Schafstädt","fax":"034636/60287","full_time_school":false,"id":"ST-310","lat":51.380155,"lon":11.77193,"name":"Grundschule Schafstädt","phone":"034636/60287","state":"ST"},{"address":"Alte Dorfstraße 18 39387 Oschersleben (Bode)","fax":"03949/948572","full_time_school":false,"id":"ST-311","lat":52.027345,"lon":11.219439,"name":"Grundschule Sankt Martin Oschersleben","phone":"03949/948551","state":"ST"},{"address":"Dammühlenweg 14 39340 Haldensleben","fax":"nicht angegeben","full_time_school":false,"id":"ST-312","lat":52.266256,"lon":11.423284,"name":"Grundschule Sankt Hildegard Haldensleben","phone":"03904/44133","state":"ST"},{"address":"Buchenweg 2 06792 Sandersdorf-Brehna OT Sandersdorf","fax":"03493/823635","full_time_school":false,"id":"ST-313","lat":51.622916,"lon":12.274074,"name":"Grundschule Sandersdorf","phone":"03493/81087","state":"ST"},{"address":"Kirchberg 8 39524 Sandau (Elbe)","fax":"039383/230","full_time_school":false,"id":"ST-314","lat":52.789711,"lon":12.048035,"name":"Grundschule Sandau","phone":"039383/230","state":"ST"},{"address":"Schulstraße 11 06198 Salzatal OT Salzmünde","fax":"034609/250566","full_time_school":false,"id":"ST-315","lat":51.524967,"lon":11.832358,"name":"Grundschule Salzmünde","phone":"034609/20292","state":"ST"},{"address":"Siedlungsweg 15 39240 Barby OT Sachsendorf","fax":"039295/27352","full_time_school":false,"id":"ST-316","lat":51.87156,"lon":11.879039,"name":"Grundschule Sachsendorf","phone":"039295/27352","state":"ST"},{"address":"Hauptstraße 10 39343 Hohe Börde OT Rottmersleben","fax":"039206/689070","full_time_school":false,"id":"ST-317","lat":52.211284,"lon":11.397751,"name":"Grundschule Rottmersleben","phone":"039206/50372","state":"ST"},{"address":"Leipziger Straße 17 06242 Braunsbedra OT Roßbach","fax":"034633/22283","full_time_school":false,"id":"ST-318","lat":51.260365,"lon":11.89882,"name":"Grundschule Roßbach","phone":"034633/22283","state":"ST"},{"address":"Erich-Weinert-Weg 3 06861 Dessau-Roßlau","fax":"034901/87632","full_time_school":false,"id":"ST-319","lat":51.898064,"lon":12.199892,"name":"Grundschule Rodleben","phone":"034901/87622","state":"ST"},{"address":"Große Seestraße 6 06317 Seegebiet Mansfelder Land OT Röblingen","fax":"034774/20481","full_time_school":false,"id":"ST-320","lat":51.464145,"lon":11.67302,"name":"Grundschule Röblingen","phone":"034774/20481","state":"ST"},{"address":"Schulstraße 10 06686 Lützen OT Großgöhren","fax":"03443/236272","full_time_school":false,"id":"ST-321","lat":51.225913,"lon":12.07438,"name":"Grundschule Rippach","phone":"03443/236272","state":"ST"},{"address":"Schulstraße 21 06729 Elsteraue OT Rehmsdorf","fax":"03441/535323","full_time_school":false,"id":"ST-322","lat":51.062502,"lon":12.216896,"name":"Grundschule Rehmsdorf","phone":"03441/535323","state":"ST"},{"address":"Bösdorfer Straße 13 39359 Stadt Oebisfelde-Weferlingen OT Rätzlingen","fax":"039057/2428","full_time_school":false,"id":"ST-323","lat":52.398963,"lon":11.028348,"name":"Grundschule Rätzlingen","phone":"039057/2428","state":"ST"},{"address":"Johann-Gottfried-Galle-Straße 5 a 06901 Kemberg OT Radis","fax":"034953/39487","full_time_school":false,"id":"ST-324","lat":51.752975,"lon":12.510117,"name":"Grundschule Radis","phone":"034953/39487","state":"ST"},{"address":"Regensburger Straße 35 06132 Halle (Saale)","fax":"0345/77577019","full_time_school":false,"id":"ST-325","lat":51.422603,"lon":11.996681,"name":"Grundschule Radewell","phone":"0345/7758653","state":"ST"},{"address":"Postring 2 06369 Stadt Südliches Anhalt OT Radegast","fax":"034978/305848","full_time_school":false,"id":"ST-326","lat":51.657528,"lon":12.08927,"name":"Grundschule Radegast","phone":"034978/21242","state":"ST"},{"address":"Hans-Beimler-Straße 18 29410 Hansestadt Salzwedel OT Pretzier","fax":"039037/297","full_time_school":false,"id":"ST-327","lat":52.832616,"lon":11.258505,"name":"Grundschule Pretzier","phone":"039037/297","state":"ST"},{"address":"An der Schule 3 06925 Annaburg OT Prettin","fax":"035386/22309","full_time_school":false,"id":"ST-328","lat":51.666605,"lon":12.91938,"name":"Grundschule Prettin","phone":"035386/22293","state":"ST"},{"address":"Schulstraße 7 39217 Schönebeck (Elbe) OT Plötzky","fax":"039200/51922","full_time_school":false,"id":"ST-329","lat":52.053633,"lon":11.800841,"name":"Grundschule Plötzky","phone":"039200/51922","state":"ST"},{"address":"Hauptstraße 23 a 06425 Plötzkau","fax":"nicht angegeben","full_time_school":false,"id":"ST-330","lat":51.746862,"lon":11.684117,"name":"Grundschule Plötzkau","phone":"nicht angegeben","state":"ST"},{"address":"Pfeilergraben 3 06449 Aschersleben","fax":"03473/3625","full_time_school":false,"id":"ST-331","lat":51.749202,"lon":11.462835,"name":"Grundschule Pfeilergraben","phone":"03473/3625","state":"ST"},{"address":"Petrikirchstraße 48 39576 Hansestadt Stendal","fax":"03931/410994","full_time_school":false,"id":"ST-332","lat":52.606389,"lon":11.852902,"name":"Grundschule Petrikirchhof","phone":"03931/216111","state":"ST"},{"address":"Dessauer Straße 9 06749 Bitterfeld-Wolfen OT Bitterfeld","fax":"03493/9750104","full_time_school":false,"id":"ST-333","lat":51.6277,"lon":12.325474,"name":"Grundschule Pestalozzi","phone":"03493/22206","state":"ST"},{"address":"Richard-Dembny-Straße 41 39116 Magdeburg","fax":"0391/62029869","full_time_school":false,"id":"ST-334","lat":52.086761,"lon":11.580502,"name":"Grundschule Ottersleben","phone":"0391/6345009","state":"ST"},{"address":"Dodendorfer Straße 30 39171 Sülzetal OT Osterweddingen","fax":"039205/21416","full_time_school":false,"id":"ST-335","lat":52.042705,"lon":11.582788,"name":"Grundschule Osterweddingen","phone":"039205/21416","state":"ST"},{"address":"Schloßberg 1 06721 Osterfeld","fax":"034422/30404","full_time_school":false,"id":"ST-336","lat":51.078683,"lon":11.933408,"name":"Grundschule Osterfeld","phone":"034422/21436","state":"ST"},{"address":"Oberröblinger Hauptstraße 34 06526 Sangerhausen OT Oberröblingen","fax":"03464/6152288","full_time_school":false,"id":"ST-337","lat":51.493715,"lon":11.204193,"name":"Grundschule Oberröblingen","phone":"03464/515361","state":"ST"},{"address":"Dobiener Straße 1 06889 Lutherstadt Wittenberg OT Nudersdorf","fax":"034929/76036","full_time_school":false,"id":"ST-338","lat":51.927862,"lon":12.593938,"name":"Grundschule Nudersdorf","phone":"034929/20284","state":"ST"},{"address":"Straße der Solidarität 42 39418 Staßfurt","fax":"03925/3788355","full_time_school":false,"id":"ST-339","lat":51.862332,"lon":11.558987,"name":"Grundschule Nord","phone":"03925/621283","state":"ST"},{"address":"Hauptstraße 16 06711 Zeitz OT Nonnewitz","fax":"03441/2292190","full_time_school":false,"id":"ST-340","lat":51.064094,"lon":12.136372,"name":"Grundschule Nonnewitz","phone":"03441/680124","state":"ST"},{"address":"Schloßstraße 16 06429 Nienburg (Saale)","fax":"034721/41091","full_time_school":false,"id":"ST-341","lat":51.836663,"lon":11.769978,"name":"Grundschule Nienburg","phone":"034721/21084","state":"ST"},{"address":"Lindenstraße 3 39288 Burg OT Niegripp","fax":"03921/994326","full_time_school":false,"id":"ST-342","lat":52.267857,"lon":11.7578,"name":"Grundschule Niegripp","phone":"03921/994326","state":"ST"},{"address":"Reinsdorfer Weg 6 06642 Nebra (Unstrut)","fax":"034461/56128","full_time_school":false,"id":"ST-343","lat":51.29026,"lon":11.586054,"name":"Grundschule Nebra","phone":"034461/22143","state":"ST"},{"address":"Schulstraße 18 06888 Zahna-Elster OT Mühlanger","fax":"034922/60416","full_time_school":false,"id":"ST-344","lat":51.91667,"lon":12.78333,"name":"Grundschule Mühlanger","phone":"034922/60455","state":"ST"},{"address":"Gartenstraße 27 39291 Möser","fax":"039222/96228","full_time_school":false,"id":"ST-345","lat":52.216166,"lon":11.791305,"name":"Grundschule Möser","phone":"039222/96218","state":"ST"},{"address":"Liebenauer Straße 151/152 06110 Halle (Saale)","fax":"0345/12276932","full_time_school":true,"id":"ST-346","lat":51.469705,"lon":11.974559,"name":"Grundschule mit kooperativem Ganztagsangebot Johannesschule","phone":"0345/1210035","state":"ST"},{"address":"Elsholzweg 11 39649 Hansestadt Gardelegen OT Mieste","fax":"039082/933119","full_time_school":false,"id":"ST-347","lat":52.481919,"lon":11.205062,"name":"Grundschule Mieste","phone":"039082/933127","state":"ST"},{"address":"Lindenstraße 10 - 12 06862 Dessau-Roßlau","fax":"034901/52620","full_time_school":false,"id":"ST-348","lat":51.912092,"lon":12.251147,"name":"Grundschule Meinsdorf","phone":"034901/82668","state":"ST"},{"address":"Alte Bahnhofstraße 8 06449 Aschersleben OT Mehringen","fax":"nicht angegeben","full_time_school":false,"id":"ST-349","lat":51.722136,"lon":11.516323,"name":"Grundschule Mehringen","phone":"03473/9131675","state":"ST"},{"address":"Alte Bergstraße 8a 06343 Mansfeld","fax":"034782/21247","full_time_school":false,"id":"ST-350","lat":51.600475,"lon":11.457927,"name":"Grundschule Mansfeld","phone":"034782/21247","state":"ST"},{"address":"Zackmünder Straße 1 39122 Magdeburg","fax":"0391/4003576","full_time_school":false,"id":"ST-351","lat":52.063237,"lon":11.676821,"name":"Grundschule Magdeburg-Westerhüsen Europaschule","phone":"0391/4046050","state":"ST"},{"address":"Pestalozzistraße 4 06686 Lützen","fax":"034444/90737","full_time_school":false,"id":"ST-352","lat":51.255702,"lon":12.139944,"name":"Grundschule Lützen","phone":"034444/90738","state":"ST"},{"address":"Tangermünder Straße 43 39517 Tangerhütte OT Groß Schwarzlosen","fax":"039361/249","full_time_school":false,"id":"ST-353","lat":52.506413,"lon":11.751907,"name":"Grundschule Lüderitz","phone":"039361/249","state":"ST"},{"address":"Breite Straße 22 a 39418 Staßfurt OT Löderburg","fax":"039265/539966","full_time_school":false,"id":"ST-354","lat":51.878142,"lon":11.539905,"name":"Grundschule Löderburg","phone":"039265/51105","state":"ST"},{"address":"Kirchstraße 2 39279 Möckern OT Loburg","fax":"039245/2448","full_time_school":false,"id":"ST-355","lat":52.139567,"lon":11.953407,"name":"Grundschule Loburg","phone":"039245/2448","state":"ST"},{"address":"Straße der Jugend 3 a 06780 Zörbig OT Löberitz","fax":"034956/39844","full_time_school":false,"id":"ST-356","lat":51.655192,"lon":12.152196,"name":"Grundschule Löberitz","phone":"034956/25517","state":"ST"},{"address":"Magdeburger Straße 29 39638 Hansestadt Gardelegen OT Letzlingen","fax":"039088/80993","full_time_school":false,"id":"ST-357","lat":52.443791,"lon":11.48513,"name":"Grundschule Letzlingen","phone":"039088/227","state":"ST"},{"address":"Bahnhofstraße 7 06667 Weißenfels OT Leißling","fax":"03443/804036","full_time_school":false,"id":"ST-358","lat":51.273334,"lon":12.021123,"name":"Grundschule Leißling","phone":"03443/804036","state":"ST"},{"address":"Kirchtor 6 39171 Sülzetal OT Langenweddingen","fax":"039205/21422","full_time_school":false,"id":"ST-359","lat":52.032326,"lon":11.524394,"name":"Grundschule Langenweddingen","phone":"039205/21422","state":"ST"},{"address":"Warteweg 3 06268 Mücheln (Geiseltal) OT Langeneichstädt","fax":"034636/75778","full_time_school":false,"id":"ST-360","lat":51.346504,"lon":11.743092,"name":"Grundschule Langeneichstädt","phone":"034636/75777","state":"ST"},{"address":"Schulweg 9 a 06667 Weißenfels OT Langendorf","fax":"03443/239229","full_time_school":false,"id":"ST-361","lat":51.2,"lon":11.96667,"name":"Grundschule Langendorf","phone":"03443/801028","state":"ST"},{"address":"Birkenweg 1 29416 Kuhfelde","fax":"039035/97780","full_time_school":false,"id":"ST-362","lat":52.783607,"lon":11.107539,"name":"Grundschule Kuhfelde","phone":"039035/486","state":"ST"},{"address":"Dr.-Külz-Straße 3 39397 Kroppenstedt","fax":"039264/201","full_time_school":false,"id":"ST-363","lat":51.940943,"lon":11.305529,"name":"Grundschule Kroppenstedt","phone":"039264/201","state":"ST"},{"address":"Werner-Seelenbinder-Ring 57 06849 Dessau-Roßlau","fax":"0340/5166289","full_time_school":false,"id":"ST-364","lat":51.810987,"lon":12.248798,"name":"Grundschule Kreuzberge","phone":"0340/8824084","state":"ST"},{"address":"Hauptstraße 36 06712 Kretzschau","fax":"03441/216336","full_time_school":false,"id":"ST-365","lat":51.056085,"lon":12.073539,"name":"Grundschule Kretzschau","phone":"03441/216933","state":"ST"},{"address":"Karl-Liebknecht-Straße 1 06193 Petersberg OT Sennewitz","fax":"034606/35086","full_time_school":false,"id":"ST-366","lat":51.541743,"lon":11.953229,"name":"Grundschule kreative Impulse Sennewitz","phone":"034606/22666","state":"ST"},{"address":"Rudolf-Breitscheid-Straße 16 06420 Könnern","fax":"034691/520014","full_time_school":false,"id":"ST-367","lat":51.670247,"lon":11.768501,"name":"Grundschule Könnern","phone":"034691/520022","state":"ST"},{"address":"Schulstraße 16 06308 Klostermansfeld","fax":"034772/21331","full_time_school":false,"id":"ST-368","lat":51.581066,"lon":11.492149,"name":"Grundschule Klostermansfeld","phone":"034772/25552","state":"ST"},{"address":"Alte Südstraße 7 06246 Goethestadt Bad Lauchstädt OT Klobikau","fax":"034635/20395","full_time_school":false,"id":"ST-369","lat":51.382284,"lon":11.868456,"name":"Grundschule Klobikau","phone":"034635/20395","state":"ST"},{"address":"Schulstraße 8 06901 Kemberg","fax":"034921/20206","full_time_school":false,"id":"ST-370","lat":51.77419,"lon":12.634214,"name":"Grundschule Kemberg","phone":"034921/20206","state":"ST"},{"address":"Paul-Singer-Straße 32 b 06116 Halle (Saale)","fax":"0345/5829872","full_time_school":false,"id":"ST-371","lat":51.479826,"lon":12.048167,"name":"Grundschule Kanena/Reideburg","phone":"0345/5829871","state":"ST"},{"address":"Salzwedeler Straße 11 38489 Jübar","fax":"039003/55894","full_time_school":false,"id":"ST-372","lat":52.689044,"lon":10.912836,"name":"Grundschule Jübar","phone":"039003/231","state":"ST"},{"address":"Rathausstraße 2 39319 Stadt Jerichow","fax":"039343/9031","full_time_school":false,"id":"ST-373","lat":52.497842,"lon":12.025967,"name":"Grundschule Jerichow","phone":"039343/405","state":"ST"},{"address":"Schulstraße 4 a 39638 Hansestadt Gardelegen OT Jävenitz","fax":"039086/91251","full_time_school":false,"id":"ST-374","lat":52.524616,"lon":11.493853,"name":"Grundschule Jävenitz","phone":"039086/91250","state":"ST"},{"address":"Schloßstraße 11 06193 Petersberg OT Ostrau","fax":"034600/20025","full_time_school":false,"id":"ST-375","lat":51.618267,"lon":12.0114,"name":"Grundschule im Schloss Ostrau","phone":"034600/20274","state":"ST"},{"address":"Rosental 12 06217 Merseburg (Saale)","fax":"03461/289985","full_time_school":false,"id":"ST-376","lat":51.3841916,"lon":11.9912372,"name":"Grundschule im Rosental","phone":"03461/201492","state":"ST"},{"address":"Bahnhofstraße 36 06333 Hettstedt","fax":"03476/8004514","full_time_school":false,"id":"ST-377","lat":51.637428,"lon":11.510082,"name":"Grundschule II Hettstedt","phone":"03476/812269","state":"ST"},{"address":"Rohrbecker Straße 9 39606 Iden","fax":"039390/81237","full_time_school":false,"id":"ST-378","lat":52.779745,"lon":11.912629,"name":"Grundschule Iden","phone":"039390/81237","state":"ST"},{"address":"Barneberger Straße 19 a 39393 Hötensleben","fax":"039405/93228","full_time_school":false,"id":"ST-379","lat":52.119374,"lon":11.030543,"name":"Grundschule Hötensleben","phone":"039405/93219","state":"ST"},{"address":"Schulstraße 14 a 06808 Bitterfeld-Wolfen OT Holzweißig","fax":"03493/514643","full_time_school":false,"id":"ST-380","lat":51.6016,"lon":12.308382,"name":"Grundschule Holzweißig","phone":"03493/69054","state":"ST"},{"address":"Lutherplatz 3 06179 Teutschenthal OT Holleben","fax":"0345/6801269","full_time_school":false,"id":"ST-381","lat":51.435605,"lon":11.903556,"name":"Grundschule Holleben","phone":"0345/6130247","state":"ST"},{"address":"Am Kirchplatz 2 06542 Allstedt OT Holdenstedt","fax":"034659/60339","full_time_school":false,"id":"ST-382","lat":51.4761,"lon":11.446533,"name":"Grundschule Holdenstedt","phone":"034659/60339","state":"ST"},{"address":"Nordstraße 4 06679 Hohenmölsen","fax":"034441/392309","full_time_school":false,"id":"ST-383","lat":51.160686,"lon":12.097947,"name":"Grundschule Hohenmölsen","phone":"034441/33168","state":"ST"},{"address":"Matthissonstraße 17 a 39164 Wanzleben-Börde OT Hohendodeleben","fax":"039204/5291","full_time_school":false,"id":"ST-384","lat":52.105069,"lon":11.500731,"name":"Grundschule Hohendodeleben","phone":"039204/5291","state":"ST"},{"address":"Schulstraße 23 38855 Nordharz OT Heudeber","fax":"039458/440","full_time_school":false,"id":"ST-385","lat":51.904671,"lon":10.848069,"name":"Grundschule Heudeber","phone":"039458/440","state":"ST"},{"address":"Lindenstraße 9 38835 Osterwieck OT Hessen","fax":"039426/86227","full_time_school":false,"id":"ST-386","lat":52.013024,"lon":10.657724,"name":"Grundschule Hessen","phone":"039426/273","state":"ST"},{"address":"Henningen 25 d 29410 Hansestadt Salzwedel OT Henningen","fax":"039038/51694","full_time_school":false,"id":"ST-387","lat":53.660573,"lon":9.803295,"name":"Grundschule Henningen","phone":"039038/218","state":"ST"},{"address":"Schulstraße 28 06311 Helbra","fax":"034772/21499","full_time_school":false,"id":"ST-388","lat":51.54972,"lon":11.5,"name":"Grundschule Helbra","phone":"034772/20240","state":"ST"},{"address":"Magdeburger Straße 23 a 06458 Hedersleben","fax":"039481/86593","full_time_school":false,"id":"ST-389","lat":51.857427,"lon":11.253849,"name":"Grundschule Hedersleben","phone":"039481/81782","state":"ST"},{"address":"Schulstraße 4 39444 Hecklingen","fax":"03925/281148","full_time_school":false,"id":"ST-390","lat":51.847403,"lon":11.53187,"name":"Grundschule Hecklingen","phone":"03925/281148","state":"ST"},{"address":"Rinderplatz 6 06536 Südharz OT Hayn (Harz)","fax":"034658/21615","full_time_school":false,"id":"ST-391","lat":51.571938,"lon":11.073931,"name":"Grundschule Hayn (Harz)","phone":"034658/21615","state":"ST"},{"address":"Weißer Garten  2 06493 Harzgerode","fax":"039484/747190","full_time_school":false,"id":"ST-392","lat":51.639557,"lon":11.139991,"name":"Grundschule Harzgerode","phone":"039484/2381","state":"ST"},{"address":"Malinshof 3 39393 Am Großen Bruch OT Hamersleben","fax":"039401/90010","full_time_school":false,"id":"ST-393","lat":52.06096,"lon":11.083944,"name":"Grundschule Hamersleben","phone":"039401/262","state":"ST"},{"address":"Holzgasse 1 39398 Oschersleben (Bode) OT Hadmersleben","fax":"039408/92071","full_time_school":false,"id":"ST-394","lat":51.993802,"lon":11.306767,"name":"Grundschule Hadmersleben","phone":"039408/393","state":"ST"},{"address":"Platz der Freundschaft 13 39439 Güsten","fax":"039262/495","full_time_school":false,"id":"ST-395","lat":51.7975,"lon":11.612981,"name":"Grundschule Güsten","phone":"039262/495","state":"ST"},{"address":"Alfred-Schröder-Straße 17 06348 Mansfeld OT Großörner","fax":"03476/813497","full_time_school":false,"id":"ST-396","lat":51.614746,"lon":11.490808,"name":"Grundschule Großörner","phone":"03476/813497","state":"ST"},{"address":"Bleichenplatz 3 06526 Sangerhausen OT Großleinungen","fax":"034656/20241","full_time_school":false,"id":"ST-397","lat":51.496091,"lon":11.203313,"name":"Grundschule Großleinungen","phone":"034656/31672","state":"ST"},{"address":"Friedensstraße 15 06688 Weißenfels OT Großkorbetha","fax":"034446/33954","full_time_school":false,"id":"ST-398","lat":51.262363,"lon":12.032205,"name":"Grundschule Großkorbetha","phone":"034446/20427","state":"ST"},{"address":"Am Neubau 12 39615 Zehrental OT Groß Garz","fax":"039398/93880","full_time_school":false,"id":"ST-399","lat":52.932589,"lon":11.604873,"name":"Grundschule Groß Garz","phone":"039398/40221","state":"ST"},{"address":"Hallesche Straße 72 06388 Stadt Südliches Anhalt OT Gröbzig","fax":"034976/21170","full_time_school":false,"id":"ST-400","lat":51.669757,"lon":11.891452,"name":"Grundschule Gröbzig","phone":"034976/21038","state":"ST"},{"address":"Schulstraße 2 06184 Kabelsketal OT Gröbers","fax":"034605/43344","full_time_school":false,"id":"ST-401","lat":51.429021,"lon":12.120142,"name":"Grundschule Gröbers","phone":"034605/20600","state":"ST"},{"address":"Griebener Chausseestraße 20 39517 Tangerhütte OT Grieben","fax":"039362/81709","full_time_school":false,"id":"ST-402","lat":52.465948,"lon":11.882598,"name":"Grundschule Grieben","phone":"039362/81340","state":"ST"},{"address":"Neue Straße 32 06803 Bitterfeld-Wolfen OT Greppin","fax":"03493/42280","full_time_school":false,"id":"ST-403","lat":51.64847,"lon":12.301429,"name":"Grundschule Greppin","phone":"03493/42280","state":"ST"},{"address":"Fröbelstraße 15 06679 Hohenmölsen OT Granschütz","fax":"034441/994530","full_time_school":false,"id":"ST-404","lat":51.184515,"lon":12.054597,"name":"Grundschule Granschütz","phone":"034441/93001","state":"ST"},{"address":"Schulstraße 8 39291 Möckern OT Grabow","fax":"03921/944476","full_time_school":false,"id":"ST-405","lat":52.242468,"lon":11.959958,"name":"Grundschule Grabow","phone":"03921/997702","state":"ST"},{"address":"Radegaster Straße 11 a 06369 Stadt Südliches Anhalt OT Görzig","fax":"034975/30599","full_time_school":false,"id":"ST-406","lat":51.668574,"lon":12.07535,"name":"Grundschule Görzig","phone":"034975/21228","state":"ST"},{"address":"Alte Dorfstraße 5 39596 Goldbeck","fax":"039388/28261","full_time_school":false,"id":"ST-407","lat":52.718324,"lon":11.857196,"name":"Grundschule Goldbeck","phone":"039388/28261","state":"ST"},{"address":"Geusaer Straße 73 06217 Merseburg (Saale) OT Geusa","fax":"03461/821020","full_time_school":false,"id":"ST-408","lat":51.335621,"lon":11.94136,"name":"Grundschule Geusa","phone":"03461/213058","state":"ST"},{"address":"Woltersdorfer Straße 1 39175 Biederitz OT Gerwisch","fax":"039292/80081","full_time_school":false,"id":"ST-409","lat":52.134619,"lon":11.776842,"name":"Grundschule Gerwisch","phone":"039292/2553","state":"ST"},{"address":"Hinter der Schule 7 06347 Gerbstedt","fax":"034783/27025","full_time_school":false,"id":"ST-410","lat":51.631012,"lon":11.629549,"name":"Grundschule Gerbstedt","phone":"034783/27025","state":"ST"},{"address":"Hauptstraße 33 b 06502 Thale OT Friedrichsbrunn","fax":"039487/407","full_time_school":false,"id":"ST-411","lat":51.689126,"lon":11.037751,"name":"Grundschule Friedrichsbrunn","phone":"039487/407","state":"ST"},{"address":"Astonstraße 89 39116 Magdeburg","fax":"0391/4004742","full_time_school":false,"id":"ST-412","lat":52.105387,"lon":11.581521,"name":"Grundschule Friedenshöhe","phone":"0391/7392424","state":"ST"},{"address":"Alte Üllnitzer Straße 9 39443 Staßfurt OT Förderstedt","fax":"039266/51515","full_time_school":false,"id":"ST-413","lat":51.893931,"lon":11.715561,"name":"Grundschule Förderstedt","phone":"039266/51515","state":"ST"},{"address":"Bahnhofstraße 5 39606 Hansestadt Osterburg (Altmark) OT Flessau","fax":"039392/912970","full_time_school":false,"id":"ST-414","lat":52.75957,"lon":11.672694,"name":"Grundschule Flessau","phone":"039392/81227","state":"ST"},{"address":"Kallehner Straße 36 39619 Arendsee (Altmark) OT Fleetmark","fax":"039034/941739","full_time_school":false,"id":"ST-415","lat":52.794373,"lon":11.383192,"name":"Grundschule Fleetmark","phone":"039034/677","state":"ST"},{"address":"Vor dem Tore 22 39345 Flechtingen","fax":"039054/984919","full_time_school":false,"id":"ST-416","lat":52.32967,"lon":11.24552,"name":"Grundschule Flechtingen","phone":"039054/2935","state":"ST"},{"address":"Denkmalplatz 1/2 06317 Seegebiet Mansfelder Land OT Erdeborn","fax":"034774/20576","full_time_school":false,"id":"ST-417","lat":51.4736,"lon":11.6897,"name":"Grundschule Erdeborn","phone":"034774/20576","state":"ST"},{"address":"Molkereistraße 32 06895 Zahna-Elster OT Elster","fax":"035383/60692","full_time_school":false,"id":"ST-418","lat":51.831943,"lon":12.816123,"name":"Grundschule Elbkinderland","phone":"035383/20203","state":"ST"},{"address":"Obere Schulstraße 9 - 11 38875 Oberharz am Brocken OT Elbingerode","fax":"039454/48167","full_time_school":false,"id":"ST-419","lat":51.748611,"lon":10.75489,"name":"Grundschule Elbingerode","phone":"039454/42572","state":"ST"},{"address":"Schulstraße 2 06388 Stadt Südliches Anhalt OT Edderitz","fax":"034976/32117","full_time_school":false,"id":"ST-420","lat":51.672782,"lon":12.06965,"name":"Grundschule Edderitz","phone":"034976/32117","state":"ST"},{"address":"Mattstieg 13 a 06648 Eckartsberga","fax":"034467/40051","full_time_school":false,"id":"ST-421","lat":51.119658,"lon":11.553814,"name":"Grundschule Eckartsberga","phone":"034467/40019","state":"ST"},{"address":"Schulstraße 8 b 06722 Droyßig","fax":"034425/21318","full_time_school":false,"id":"ST-422","lat":51.040865,"lon":12.028216,"name":"Grundschule Droyßig","phone":"034425/21315","state":"ST"},{"address":"Schulweg 23 06712 Gutenborn OT Droßdorf","fax":"03441/718932","full_time_school":false,"id":"ST-423","lat":51.007189,"lon":12.125701,"name":"Grundschule Droßdorf","phone":"03441/213742","state":"ST"},{"address":"Friedensstraße 8 06258 Schkopau OT Döllnitz","fax":"0345/78232541","full_time_school":false,"id":"ST-424","lat":51.406179,"lon":12.030078,"name":"Grundschule Döllnitz","phone":"0345/7821317","state":"ST"},{"address":"Querstraße 1 06120 Halle (Saale)","fax":"0345/5115767","full_time_school":false,"id":"ST-425","lat":51.510534,"lon":11.883526,"name":"Grundschule Dölau","phone":"0345/5504339","state":"ST"},{"address":"Zerbster Straße 16 39264 Zerbst (Anhalt) OT Dobritz","fax":"039248/222","full_time_school":false,"id":"ST-426","lat":52.050564,"lon":12.167455,"name":"Grundschule Dobritz","phone":"039248/222","state":"ST"},{"address":"Zur Schule 6 06184 Kabelsketal OT Dieskau","fax":"0345/5801935","full_time_school":false,"id":"ST-427","lat":51.438214,"lon":12.039629,"name":"Grundschule Dieskau","phone":"0345/5800246","state":"ST"},{"address":"Apoldaer Straße 20 06116 Halle (Saale)","fax":"0345/5636037","full_time_school":false,"id":"ST-428","lat":51.490118,"lon":12.005895,"name":"Grundschule Diemitz/Freiimfelde","phone":"0345/5608325","state":"ST"},{"address":"Dabruner Schulstraße 2 06901 Kemberg OT Dabrun","fax":"03491/457150","full_time_school":false,"id":"ST-429","lat":51.773628,"lon":12.635125,"name":"Grundschule Dabrun","phone":"03491/457150","state":"ST"},{"address":"Straße der Jugend 4 06869 Coswig (Anhalt) OT Cobbelsdorf","fax":"034923/65019","full_time_school":false,"id":"ST-430","lat":51.961355,"lon":12.530788,"name":"Grundschule Cobbelsdorf","phone":"034923/20201","state":"ST"},{"address":"Käthe-Kollwitz-Straße 2 06116 Halle (Saale)","fax":"0345/5754418","full_time_school":false,"id":"ST-431","lat":51.478275,"lon":12.031988,"name":"Grundschule Büschdorf","phone":"0345/5608202","state":"ST"},{"address":"Alte Poststraße 25 39517 Burgstall","fax":"039364/259","full_time_school":false,"id":"ST-432","lat":52.415734,"lon":11.699208,"name":"Grundschule Burgstall","phone":"039364/259","state":"ST"},{"address":"Yorckstraße 4 39288 Burg","fax":"03921/981515","full_time_school":false,"id":"ST-433","lat":52.262192,"lon":11.840486,"name":"Grundschule Burg-Süd","phone":"03921/981514","state":"ST"},{"address":"Hoppenstedter Straße 25 38835 Osterwieck OT Bühne","fax":"039421/61150","full_time_school":false,"id":"ST-434","lat":51.996332,"lon":10.639645,"name":"Grundschule Bühne","phone":"039421/89722","state":"ST"},{"address":"Volgfelder Straße 43 39576 Hansestadt Stendal OT Börgitz","fax":"039325/97719","full_time_school":false,"id":"ST-435","lat":52.547949,"lon":11.627082,"name":"Grundschule Börgitz","phone":"039325/21225","state":"ST"},{"address":"Wilhelm-Lüdecke-Straße 16 39629 Bismark (Altmark)","fax":"039089/98273","full_time_school":false,"id":"ST-436","lat":52.664446,"lon":11.560536,"name":"Grundschule Bismark","phone":"039089/2043","state":"ST"},{"address":"Heyrothsberger Straße 13 g 39175 Biederitz","fax":"039292/699003","full_time_school":false,"id":"ST-437","lat":52.152147,"lon":11.720112,"name":"Grundschule Biederitz","phone":"039292/2121","state":"ST"},{"address":"Bahnhofstraße 80 06901 Kemberg OT Bergwitz","fax":"034921/28221","full_time_school":false,"id":"ST-438","lat":51.801177,"lon":12.57669,"name":"Grundschule Bergwitz","phone":"034921/28221","state":"ST"},{"address":"Platanenweg 32 06712 Zeitz","fax":"03441/310202","full_time_school":false,"id":"ST-439","lat":51.036842,"lon":12.154789,"name":"Grundschule Bergsiedlung","phone":"03441/310192","state":"ST"},{"address":"Rüstergarten 24 06198 Salzatal OT Bennstedt","fax":"034601/22480","full_time_school":false,"id":"ST-440","lat":51.4977235,"lon":11.8230425,"name":"Grundschule Bennstedt","phone":"034601/22480","state":"ST"},{"address":"Bruno-Ellinger-Weg 4 38877 Oberharz am Brocken OT Benneckenstein","fax":"039457/988165","full_time_school":false,"id":"ST-441","lat":51.669798,"lon":10.718419,"name":"Grundschule Benneckenstein","phone":"039457/2346","state":"ST"},{"address":"Friedrich-Engels-Straße 14 38489 Beetzendorf","fax":"039000/907886","full_time_school":false,"id":"ST-442","lat":52.699044,"lon":11.084304,"name":"Grundschule Beetzendorf","phone":"039000/350","state":"ST"},{"address":"Südende 195 06420 Könnern OT Beesenlaublingen","fax":"034692/28474","full_time_school":false,"id":"ST-443","lat":51.702604,"lon":11.695616,"name":"Grundschule Beesenlaublingen","phone":"034692/21480","state":"ST"},{"address":"Steigraer Straße 5 06268 Barnstädt","fax":"034771/24189","full_time_school":false,"id":"ST-444","lat":51.343799,"lon":11.639125,"name":"Grundschule Barnstädt","phone":"034771/24189","state":"ST"},{"address":"Breiteweg 158 39179 Barleben","fax":"039203/5654299","full_time_school":false,"id":"ST-445","lat":52.2,"lon":11.63333,"name":"Grundschule Barleben","phone":"039203/5654210","state":"ST"},{"address":"Schloßstraße 35 39249 Barby","fax":"039298/26356","full_time_school":false,"id":"ST-446","lat":51.925381,"lon":11.887811,"name":"Grundschule Barby","phone":"039298/3329","state":"ST"},{"address":"Torgauer Straße 32 a 06905 Bad Schmiedeberg","fax":"034925/744672","full_time_school":false,"id":"ST-447","lat":51.691077,"lon":12.74236,"name":"Grundschule Bad Schmiedeberg","phone":"034925/70388","state":"ST"},{"address":"Roter Platz 2 a 06246 Goethestadt Bad Lauchstädt","fax":"034635/905044","full_time_school":false,"id":"ST-448","lat":51.384886,"lon":11.870136,"name":"Grundschule Bad Lauchstädt","phone":"034635/20416","state":"ST"},{"address":"Umgehungsstraße 30 06408 Bernburg (Saale) OT Baalberge","fax":"03471/628607","full_time_school":false,"id":"ST-449","lat":51.765295,"lon":11.798728,"name":"Grundschule Baalberge","phone":"03471/312257","state":"ST"},{"address":"Bauernwinkel 23 39393 Ausleben","fax":"039404/66010","full_time_school":false,"id":"ST-450","lat":52.092595,"lon":11.112107,"name":"Grundschule Ausleben","phone":"039404/277","state":"ST"},