address,fax,full_time_school,id,lat,lon,name,official_id,phone,school_type,school_type_entity,state
"Barfüßerstraße 21, 99084 Erfurt",,false,TH-18606,50.976104,11.03068,"""Barfüßerschule"" Erfurt Staatliche Grundschule",18606,0361/5624166,Grundschule,Grundschule,TH
"Gartenstraße 11a, 99869 Emleben",,true,TH-76015,50.89253,10.700843,Aktiv-Schule (Freie Grundschule Emleben),76015,03621/423181,Grundschule in freier Trägerschaft,Grundschule,TH
"Schießhausweg 2, 07907 Schleiz",,false,TH-76328,50.578256,11.820543,ABC - Freie Integrative Grundschule,76328,03663-422424,Grundschule in freier Trägerschaft,Grundschule,TH
"Gräfenbrücker Straße 6a, 07570 Weida",,false,TH-70261,50.769769,12.060126,"""Schule an der Weida"", Förderschule zur individuellen Lebensbewältigung der Lebenshilfe Greiz/Zeulenroda gGmbH",70261,036603/44082,Förderschule in freier Trägerschaft,Förderschule,TH
"Bufleber Straße 13, 99867 Gotha",,false,TH-22166,50.961044,10.710525,"""Oststadt-Gotha"" Staatliche Regelschule",22166,03621/219111,Regelschule,Regelschule,TH
"Hauptstraße 30, 99439 Berlstedt",,false,TH-26150,51.060941,11.23856,Aktiv-Schule Berlstedt - An der Via Regia - Staatliche Regelschule,26150,036452 74660,Regelschule,Regelschule,TH
"Unterer Markt 4, 96515 Sonneberg",,true,TH-25919,50.365045,11.175385,"""Bürgerschule"" Sonneberg Staatliche Regelschule",25919,03675/702883,Regelschule,Regelschule,TH
"Breiter Rasen 2, 98646 Hildburghausen",,false,TH-70648,50.42091,10.734012,Albert-Schweitzer-Fördersc,70648,03685401310,Förderschule in freier Trägerschaft,Förderschule,TH
"Bahnhofstraße 50, 99752 Bleicherode",,false,TH-31044,51.442993,10.57804,Albert-Schweitzer-Schule Bleicherode Staatliches regionales Förderzentrum,31044,036338/42324,Förderschule,Förderschule,TH
"Moskauer Str. 63, 99427 Weimar",,false,TH-19327,50.989546,11.303237,Albert-Schweitzer-Schule Weimar Staatliche Grundschule,19327,03643/410235,Grundschule,Grundschule,TH
"Ruppersdorf 96, 07368 Remptendorf",,true,TH-14489,50.507469,11.579839,"""Lichtblicke"" Staatliche Grundschule Ruppersdorf",14489,036643/345544,Grundschule,Grundschule,TH
"Hauptstraße 28, 99439 Berlstedt",,true,TH-17795,51.061101,11.239535,Aktiv-Schule Berlstedt - An der Via Regia - Staatliche Grundschule,17795,036452/71970,Grundschule,Grundschule,TH
"Schellrodaer Weg 4, 99097 Erfurt",,false,TH-75007,50.943829,11.085561,"Aktiv-Schule Erfurt, Freie Gemeinschaftsschule",75007,03616609020,Thür. Gemeinschaftsschule in freier Trägerschaft,Gemeinschaftsschule,TH
"Hans-Sailer-Str. 25, 99089 Erfurt",,false,TH-18503,50.994393,11.023898,Bechsteinschule Erfurt Staatliche Grundschule,18503,0361/7312136,Grundschule,Grundschule,TH
"Zum Kindergarten 16, 99947 Kirchheilingen",,false,TH-75490,51.185578,10.70461,AWO Dalton-Gemeinschaftsschule,75490,,Thür. Gemeinschaftsschule in freier Trägerschaft,Gemeinschaftsschule,TH
"Curiestraße 29, 99097 Erfurt",,true,TH-18757,50.948721,11.080744,Astrid-Lindgren-Schule Erfurt Staatliche Grundschule,18757,0361/412179,Grundschule,Grundschule,TH
"Fritz-Reuter-Str. 7, 07551 Gera",,false,TH-18906,50.847059,12.088716,Zwötzener Schule Gera Staatliche Grundschule,18906,0365/32228,Grundschule,Grundschule,TH
"Schulstraße 22, 99334 Amt Wachsenburg",,false,TH-10718,50.881155,10.969641,Wilhelm-Hey-Grundschule Ichtershausen Staatliche Grundschule,10718,03628/600 303,Grundschule,Grundschule,TH
"Siegfried-Flack-Str. 33c, 04600 Altenburg",,false,TH-10028,51.000461,12.423955,Wilhelm-Busch-Schule Altenburg Staatliche Grundschule,10028,03447/81027,Grundschule,Grundschule,TH
"Saalfelder Str. 24, 07549 Gera",,false,TH-18863,50.847116,12.059452,Wilhelm-Busch-Grundschule Gera Staatliche Grundschule,18863,0365/35042,Grundschule,Grundschule,TH
"Clara-Zetkin-Str. 7, 07545 Gera",,false,TH-51215,50.880828,12.082346,Zabel-Gymnasium Gera Staatliches Gymnasium,51215,0365/8001515,Gymnasium,Gymnasium,TH
"Gartenstr. 15, 04618 Langenleuba-Niederhain",,false,TH-10301,50.957797,12.587918,Wieratalschule Langenleuba-Niederhain Staatliche Grundschule,10301,034497/78314,Grundschule,Grundschule,TH
"Gartenstr. 15, 04618 Langenleuba-Niederhain",,true,TH-20110,50.957797,12.587918,Wieratalschule Langenleuba-Niederhain Staatliche Regelschule,20110,034497 78314,Regelschule,Regelschule,TH
"Salzstraße 6-8, 99625 Kölleda",,false,TH-16791,51.190431,11.246909,Wippertus-Schule Kölleda Staatliche Grundschule,16791,03635/482236,Grundschule,Grundschule,TH
"Thomas- Müntzer- Straße 1, 99638 Kindelbrück",,false,TH-16775,51.259426,11.081969,Wippertal-Grundschule Staatliche Grundschule Kindelbrück,16775,036375/54630,Grundschule,Grundschule,TH
"August-Bebel-Str. 23, 07743 Jena",,false,TH-19060,50.931387,11.573785,Westschule Jena Staatliche Grundschule,19060,03641/820848,Grundschule,Grundschule,TH
"Rötweg 6, 98574 Schmalkalden",,false,TH-76481,50.726322,10.450403,Weidenschule - Grundschule in freier Trägerschaft,76481,03683 6098 808,Grundschule in freier Trägerschaft,Grundschule,TH
"Weimarische Str. 42, 99428 Niederzimmern",,false,TH-26224,51.005084,11.198153,Wartenbergschule Niederzimmern Staatliche Regelschule,26224,036203/90250,Regelschule,Regelschule,TH
"Wilhelm-Pieck-Str. 1, 99817 Eisenach",,false,TH-20946,50.98898,10.299958,Wartburg-Schule Eisenach Staatliche Regelschule,20946,03691/203776,Regelschule,Regelschule,TH
"Schulstraße 9 - 11, 36404 Vacha",,false,TH-11293,50.827285,10.02216,Vitus-Grundschule Vacha Staatliche Grundschule,11293,036962/24886 o. 24883,Grundschule,Grundschule,TH
"Grünstraße 9, 99084 Erfurt",,false,TH-26482,50.984064,11.02578,Ulrich-von-Hutten-Schule Erfurt Staatliche Regelschule,26482,0361/6464977,Regelschule,Regelschule,TH
"Zinzendorfstraße 19, 99192 Nesse-Apfelstädt",,false,TH-50237,50.911019,10.91332,von-Bülow-Gymnasium Neudietendorf Staatliches Gymnasium,50237,036202/290-0,Gymnasium,Gymnasium,TH
"Rathausstr. 16, 04610 Meuselwitz",,false,TH-50027,51.040562,12.300123,Veit-Ludwig-von-Seckendorf,50027,0 34 48/75 14 0,Gymnasium,Gymnasium,TH
"Muldenweg 10, 99099 Erfurt",,false,TH-31826,50.955319,11.061067,"Waidschule am Muldenweg Staatliches regionales Förderzentrum Erfurt-Süd, Förderschwerpunkte Lernen, Verhalten und Sprache",31826,0361/412582,Förderschule,Förderschule,TH
"Burgauer Weg 1a, 07745 Jena",,false,TH-79318,50.91903,11.580799,"UniverSaale Jena, Freie Gesamtschule",79318,03641/534210,Integrierte Gesamtschule in freier Trägerschaft,Integrierte Gesamtschule,TH
"Oststraße 14, 99986 Oberdorla",,false,TH-14985,51.166193,10.430265,Vogteischule Oberdorla Staatliche Grundschule,14985,03601/750907,Grundschule,Grundschule,TH
"Binderslebener Landstraße 162, 99092 Erfurt",,false,TH-60239,50.973516,10.995476,"Walter-Gropius-Schule Erfurt, Staatliche Berufsbildende Schule 7",60239,0361/6534781,Berufsbildende Schule,Berufsbildende Schule,TH
"Heinrich-Fritz-Straße 19, 07973 Greiz",,false,TH-50381,50.651668,12.1955,Ulf-Merbold-Gymnasium Staatliches Gymnasium Greiz,50381,03661/430069,Gymnasium,Gymnasium,TH
"Johannesstraße 1, 99631 Weißensee",,false,TH-16955,51.201437,11.068459,Traumzauberbaum-Schule Weißensee Staatliche Grundschule,16955,036374/20303,Grundschule,Grundschule,TH
"Am Sportplatz 4, 99518 Bad Sulza",,false,TH-20230,51.083583,11.623021,Toskana-Schule Bad Sulza Staatliche Regelschule,20230,036461/86910,Regelschule,Regelschule,TH
"Holbeinstraße 16, 37308 Heilbad Heiligenstadt",,false,TH-23726,51.384002,10.140316,Tilman-Riemenschneider-Sch,23726,03606 - 605081,Regelschule,Regelschule,TH
"An der Burg 19, 99974 Mühlhausen",,false,TH-50567,51.212005,10.455517,Tilesius-Gymnasium Mühlhausen Staatliches Gymnasium,50567,03601/880063,Gymnasium,Gymnasium,TH
"Belvederer Allee 40, 99425 Weimar",,false,TH-79201,50.962964,11.339076,Thuringia International School,79201,036450/489910,Ergänzungsschule in freier Trägerschaft,Ergänzungsschule,TH
"Schwanseestraße 11, 99423 Weimar",,false,TH-40745,50.982691,11.322481,Thüringenkolleg Weimar,40745,03643/83150,Kolleg,Kolleg,TH
"Beim Bahnhof 40, 99955 Bruchstedt",,false,TH-70918,51.182284,10.788773,"THEPRA-Förderzentrum ""Am Fernebach"", Förderschwerpunkt geistige Entwicklung",70918,036041/57657,Förderschule in freier Trägerschaft,Förderschule,TH
"Stadtweg 2, 99998 Weinbergen OT Seebach",,false,TH-76129,51.166558,10.512096,THEPRA Grundschule Weinbergen,76129,03601/ 446402,Grundschule in freier Trägerschaft,Grundschule,TH
"Bahnhofstraße 6, 99947 Bad Langensalza",,false,TH-76121,51.103071,10.641525,THEPRA Grundschule Bad Langensalza,76121,03603/826444,Grundschule in freier Trägerschaft,Grundschule,TH
"Theodor-Storm-Str. 18, 37308 Heilbad Heiligenstadt",,true,TH-13168,51.372349,10.137353,Theodor-Storm-Grundschule Heiligenstadt Staatliche Grundschule,13168,03606/613567,Grundschule,Grundschule,TH
"Hauptstraße 1, 11112 Musterstadt",,false,TH-11111,52.583592,13.365742,TEST Schule für Schulungen,11111,01234567,Grundschule,Grundschule,TH
"Ziegenhainer Str. 52, 07749 Jena",,false,TH-18996,50.921686,11.60493,Talschule Jena Staatliche Grundschule,18996,03641/394787,Grundschule,Grundschule,TH
"Dorfstraße 100, 07646 Ottendorf",,false,TH-17509,50.825763,11.817183,"Tälerschule Ottendorf, Staatliche Grundschule",17509,036426/22250,Grundschule,Grundschule,TH
"Carl-Zeiss-Straße 20, 07552 Gera",,false,TH-18968,50.904011,12.097465,Tabaluga-Grundschule Gera Staatliche Grundschule,18968,0365 4204224,Grundschule,Grundschule,TH
"Jägerstraße 3a, 37339 Leinefelde-Worbis",,false,TH-70725,51.421381,10.363696,Tabaluga Förderschule,70725,036074/62961,Förderschule in freier Trägerschaft,Förderschule,TH
"Döbereiner Str. 20, 07745 Jena",,false,TH-19105,50.921594,11.567816,"Südschule Jena, Staatliche Grundschule",19105,03641 615499,Grundschule,Grundschule,TH
"Wöllnitzer Str. 40, 07749 Jena",,false,TH-40037,50.915517,11.590325,"Staatliches Sportgymnasium ""Joh. Chr. Fr. GutsMuths"" Jena, Spezialschule für Sport mit angegliedertem Regelschulteil",40037,03641/3815-0,Gymnasium,Gymnasium,TH
"Auenstraße 86, 98529 Suhl",,false,TH-32051,50.603558,10.673179,Staatliches regionales Förderzentrum Suhl,32051,03681/720101,Förderschule,Förderschule,TH
"Am Kemnitzgrund 10, 04626 Schmölln",,false,TH-31387,50.88441,12.346128,Staatliches regionales Förderzentrum Schmölln,31387,034491/81166,Förderschule,Förderschule,TH
"Martin- Luther- Straße 11, 07580 Ronneburg",,false,TH-30455,50.864999,12.184229,"Staatliches regionales Förderzentrum Ronneburg, Förderschwerpunkt Lernen",30455,036602/23115,Förderschule,Förderschule,TH
"Albert-Schweitzer-Str. 41, 07318 Saalfeld",,false,TH-31224,50.653981,11.397022,"Staatliches regionales Förderzentrum Saalfeld Jettina-Schule, Förderschwerpunkt geistige Entwicklung",31224,03671/641050,Förderschule,Förderschule,TH
"Julius-Fucik-Strasse 25, 07381 Pößneck",,false,TH-31164,50.697719,11.614585,Staatliches regionales Förderzentrum Pößneck,31164,03647/415317,Förderschule,Förderschule,TH
"Schulstraße 20, 37327 Leinefelde-Worbis",,false,TH-31747,51.368303,10.335962,Staatliches regionales Förderzentrum Leinefelde,31747,03605/543160,Förderschule,Förderschule,TH
"Reinhold-Huhn-Str. 26, 98646 Hildburghausen",,true,TH-30678,50.423526,10.714243,Staatliches regionales Förderzentrum Hildburghausen,30678,03685/709481,Förderschule,Förderschule,TH
"Schulstraße 20, 37327 Leinefelde - Worbis",,false,TH-30649,51.368303,10.335962,"Staatliches regionales Förderzentrum Heiligenstadt, (ausgelagert)",30649,03605/54316-200,Förderschule,Förderschule,TH
"Am Gerichtsfeld 2, 07607 Hainspitz",,false,TH-30365,50.96202,11.836735,Staatliches regionales Förderzentrum Hainspitz,30365,036691/52142,Förderschule,Förderschule,TH
"Eiselstraße 110, 07548 Gera",,false,TH-31945,50.855827,12.068871,Staatliches regionales Förderzentrum Gera,31945,0365 31502,Förderschule,Förderschule,TH
"Berliner Str. 1, 99091 Erfurt",,false,TH-31831,51.004117,11.006766,Staatliches regionales Förderzentrum Erfurt-Nord,31831,0361/7921272,Förderschule,Förderschule,TH
"Kirchstraße 5/6, 06556 Artern",,false,TH-30169,51.365268,11.289353,"Staatliches regionales Förderzentrum Artern, Förderschwerpunkt Lernen, emotionale und soziale Entwicklung, geistige Entwicklung",30169,03466/339244,Förderschule,Förderschule,TH
"Auf dem Angespanne 7, 99510 Apolda",,false,TH-30049,51.018905,11.501145,Staatliches regionales Förderzentrum Apolda,30049,03644/562044,Förderschule,Förderschule,TH
"August-Bebel-Platz 32, 99734 Nordhausen",,false,TH-31051,51.503773,10.801545,"Staatliches regionales Förderzentrum ""St. Martin"" Nordhausen, Förderschwerpunkt geistige Entwicklung",31051,03631/9699-0,Förderschule,Förderschule,TH
"Brückenstr. 1a, 07768 Kahla",,false,TH-30768,50.800029,11.591789,"Staatliches regionales Förderzentrum ""Siegfried Schaffner"" Kahla, Berufswahlfreundliche Schule seit 2011 - aktuell bis 2019",30768,036424/22243,Förderschule,Förderschule,TH
"Schulweg 6, 36460 Krayenberggemeinde OT Dorndorf",,false,TH-30229,50.8333,10.0833,"Staatliches regionales Förderzentrum ""Marianne Frostig"" Dorndorf",30229,036963/21283,Förderschule,Förderschule,TH
"Krötengasse 3, 98574 Schmalkalden",,false,TH-31344,50.718412,10.441552,"Staatliches regionales Förderzentrum ""Ludwig Bechstein"" Schmalkalden",31344,03683 6931-0,Förderschule,Förderschule,TH
"Geiersberg 7, 99734 Nordhausen",,false,TH-31027,51.508058,10.794044,"Staatliches regionales Förderzentrum ""Johann-Heinrich-Pestalozz",31027,03631/982601,Förderschule,Förderschule,TH
"Talstraße 34, 99706 Sondershausen",,false,TH-30156,51.368139,10.854701,"Staatliches regionales Förderzentrum ""Johann Heinrich Pestalozzi"" Sondershausen",30156,03632/7060-0,Förderschule,Förderschule,TH
"Jahnstr. 2, 07318 Saalfeld",,false,TH-31237,50.648294,11.353993,"Staatliches regionales Förderzentrum ""Johann Heinrich Pestalozzi"" Saalfeld",31237,03671/35038,Förderschule,Förderschule,TH
"Anne-Frank-Straße 7-9, 07407 Rudolstadt",,true,TH-31207,50.71694,11.3275,"Staatliches regionales Förderzentrum ""Johann Heinrich Pestalozzi"" Rudolstadt, Ausbildungsschule",31207,03672/351006,Förderschule,Förderschule,TH
"Georg-Leubuscher-Straße 2, 98617 Meiningen",,false,TH-30893,50.581235,10.424243,"Staatliches regionales Förderzentrum ""Jean Paul"" Meiningen, Förderschwerpunkt geistige Entwicklung",30893,03693/814790,Förderschule,Förderschule,TH
"Große Nonnengasse 22a, 99444 Blankenhain",,false,TH-31704,50.857761,11.347249,"Staatliches regionales Förderzentrum ""Hans Bürger"" Blankenhain, Förderschwerpunkt Lernen",31704,036459/62269,Förderschule,Förderschule,TH
"Marienstraße 12, 07973 Greiz",,false,TH-30594,50.658878,12.198033,"Staatliches regionales Förderzentrum ""Friedrich Fröbel"" Greiz",30594,03661/41190,Förderschule,Förderschule,TH
"Siegfried-Flack-Straße 39a, 04600 Altenburg",,false,TH-30010,51.000595,12.421056,"Staatliches regionales Förderzentrum ""Erich Kästner"" Altenburg",30010,03447/831703,Förderschule,Förderschule,TH
"Neuhäuser Weg 9, 98693 Ilmenau",,false,TH-30713,50.686281,10.926194,"Staatliches regionales Förderzentrum ""Dr. Hans Vogel"" Ilmenau, Förderschwerpunkt geistige Entwicklung",30713,03677/202315,Förderschule,Förderschule,TH
"Röntgenstr. 8, 98617 Meiningen",,false,TH-30876,50.572551,10.430186,"Staatliches regionales Förderzentrum ""Anne Frank"" Meiningen, Förderschwerpunkt Sprache",30876,03693/813650,Förderschule,Förderschule,TH
"Poststraße 2/3, 99947 Bad Langensalza",,false,TH-30799,51.104784,10.645891,"Staatliches regionales Förderzentrum ""An der Salza"" Bad Langensalza",30799,03603/842044,Förderschule,Förderschule,TH
"Leuchtenburgstr. 6, 07552 Gera",,false,TH-31900,50.906015,12.088381,"Staatliches regionales Förderzentrum ""Am Brahmetal"" Gera",31900,0365/413104,Förderschule,Förderschule,TH
"Mozartallee 4, 99096 Erfurt",,false,TH-40024,50.958788,11.039662,"Staatliches Pierre-de-Coubertin Gymnasium Erfurt, Spezialschule für Sport mit angegliedertem Regelschulteil",40024,0361/34813,Gymnasium,Gymnasium,TH
"Rudolf-Breitscheid-Str. 27, 07629 Hermsdorf",,false,TH-50960,50.908256,11.853322,Staatliches Holzland-Gymnasium Hermsdorf,50960,036601/82933,Gymnasium,Gymnasium,TH
"Weinbergstraße 1a, 07407 Rudolstadt",,false,TH-50704,50.722305,11.333483,"Staatliches Gymnasium Rudolstadt, Gymnasium Fridericianum",50704,03672/46590,Gymnasium,Gymnasium,TH
"Am Harzwald 3, 98559 Oberhof",,false,TH-40041,50.703868,10.717977,"Staatliches Gymnasium Oberhof, Spezialschule für Sport mit angegliedertem Regelschulteil",40041,036842 / 268110,Gymnasium,Gymnasium,TH
"Apelsbergstraße 62, 98724 Neuhaus",,false,TH-50627,50.511544,11.148501,Staatliches Gymnasium Neuhaus am Rennweg,50627,03679/720043,Gymnasium,Gymnasium,TH
"Geschwister-Scholl-Str. 15, 98646 Hildburghausen",,false,TH-50417,50.4279,10.726078,Staatliches Gymnasium Georgianum Hildburghausen,50417,03685/79810,Gymnasium,Gymnasium,TH
"Hermann-Brill-Straße 131, 99099 Erfurt",,false,TH-52039,50.952749,11.075106,"Staatliches Gymnasium Erfurt, Gymnasium 10",52039,0361/789 69 478,Gymnasium,Gymnasium,TH
"Karl-Marx-Str. 24, 07356 Bad Lobenstein",,false,TH-50507,50.457559,11.636858,Staatliches Gymnasium Christian Gottlieb Reichard Lobenstein,50507,036651/2128,Gymnasium,Gymnasium,TH
"Blasiistr. 15/16, 99734 Nordhausen",,false,TH-50644,51.505171,10.793496,"Staatliches Gymnasium ""Wilhelm von Humboldt"" Nordhausen",50644,03631/973431,Gymnasium,Gymnasium,TH
"Langer Weg 165, 99625 Kölleda",,false,TH-50867,51.186935,11.237716,"Staatliches Gymnasium ""Prof. Fritz Hofmann"" Kölleda",50867,03635/479043,Gymnasium,Gymnasium,TH
"Käfernburger Straße 2, 99310 Arnstadt",,false,TH-52926,50.835922,10.959274,"Staatliches Gymnasium ""MELISSANTES"" Arnstadt",52926,03628-600225,Gymnasium,Gymnasium,TH
"Elisabethstraße 23, 37339 Leinefelde-Worbis",,false,TH-51064,51.422657,10.364945,"Staatliches Gymnasium ""Marie Curie"" Worbis",51064,036074-94380,Gymnasium,Gymnasium,TH
"Schulstr. 18, 07768 Kahla",,false,TH-50464,50.80564,11.58278,"Staatliches Gymnasium ""Leuchtenburg"" Kahla",50464,036424/52788,Gymnasium,Gymnasium,TH
"Amalienstr. 4, 99423 Weimar",,false,TH-51395,50.975757,11.327264,"Staatliches Gymnasium ""Johann Wolfgang v. Goethe"" Weimar, Jugend debattiert Schule",51395,03643/851672,Gymnasium,Gymnasium,TH
"Gutenbergplatz 6, 99092 Erfurt",,false,TH-51124,50.981187,11.01417,"Staatliches Gymnasium ""Johann Gutenberg"" Erfurt",51124,0361/6634112,Gymnasium,Gymnasium,TH
"Völkershäuser Straße 9, 36404 Vacha",,false,TH-50150,50.8238,10.024435,"Staatliches Gymnasium ""Johann Gottfried Seume"" Vacha",50150,036962/24305,Gymnasium,Gymnasium,TH
"Bahnhofstr. 17, 37308 Heilbad Heiligenstadt",,false,TH-50390,51.375327,10.12486,"Staatliches Gymnasium ""Johann Georg Lingemann"" Heiligenstadt",50390,03606/612412,Gymnasium,Gymnasium,TH
"Schloßstraße 15, 07646 Stadtroda",,false,TH-50957,50.856384,11.731129,"Staatliches Gymnasium ""J. H. Pestalozzi"" Stadtroda",50957,036428/62018,Gymnasium,Gymnasium,TH
"Dammstraße 50, 96515 Sonneberg",,false,TH-51621,50.353428,11.174578,"Staatliches Gymnasium ""Hermann Pistor"" Sonneberg",51621,03675/468890,Gymnasium,Gymnasium,TH
"Sonneberger Str. 15, 07318 Saalfeld",,false,TH-50750,50.64387,11.357424,"Staatliches Gymnasium ""Heinrich Böll"" Saalfeld",50750,03671/35830,Gymnasium,Gymnasium,TH
"Clara-Zetkin-Str. 58, 99867 Gotha",,false,TH-50314,50.943752,10.730293,"Staatliches Gymnasium ""Gustav Freytag"" Gotha",50314,03621/406650,Gymnasium,Gymnasium,TH
"Trinitatisstr. 2, 99885 Ohrdruf",,false,TH-50344,50.823427,10.732824,"Staatliches Gymnasium ""Gleichense"" Ohrdruf",50344,03624/402337,Gymnasium,Gymnasium,TH
"Schopperstraße 26, 07937 Zeulenroda",,false,TH-51081,50.651229,11.984547,"Staatliches Gymnasium ""Friedrich Schiller"" Zeulenroda",51081,036628/82258,Gymnasium,Gymnasium,TH
"Güntherstraße 58, 99706 Sondershausen",,false,TH-50894,51.368253,10.868712,"Staatliches Gymnasium ""Geschwister Scholl"" Sondershausen",50894,03632/702323,Gymnasium,Gymnasium,TH
"Gartenstr. 67, 99752 Bleicherode",,false,TH-50660,51.438743,10.574058,"Staatliches Gymnasium ""Friedrich Schiller"" Bleicherode",50660,036338/42340,Gymnasium,Gymnasium,TH
"Ammerbacher Str. 21, 07745 Jena",,false,TH-51291,50.90481,11.57341,"Staatliches Gymnasium ""Ernst Abbe"" Jena",51291,03641/215330,Gymnasium,Gymnasium,TH
"Wartburgallee 60, 99817 Eisenach",,false,TH-50177,50.972185,10.325087,"Staatliches Gymnasium ""Ernst Abbe"" Eisenach",50177,03691/74580,Gymnasium,Gymnasium,TH
"Am Lerchenbühl 17, 07318 Saalfeld",,false,TH-50763,50.650091,11.393118,"Staatliches Gymnasium ""Erasmus Reinhold"" Saalfeld",50763,03671/672235,Gymnasium,Gymnasium,TH
"Neue Schulstr. 1, 07426 Königsee-Rottenbach",,false,TH-50734,50.657411,11.092103,"Staatliches Gymnasium ""Dr. Max Näder"" Königsee",50734,036738/4820,Gymnasium,Gymnasium,TH
"Hofer Str. 10, 07907 Schleiz",,false,TH-50780,50.57527,11.808366,"Staatliches Gymnasium ""Dr. Konrad Duden"" Schleiz",50780,03663/422289,Gymnasium,Gymnasium,TH
"Schulplatz 1, 07381 Pößneck",,false,TH-50687,50.693099,11.593649,"Staatliches Gymnasium ""Am Weißen Turm"" Pößneck",50687,03647/425412,Gymnasium,Gymnasium,TH
"Gerhart-Hauptmann-Straße 5a, 98693 Ilmenau",,false,TH-50434,50.678843,10.913619,"Staatliches Gymnasium ""Am Lindenberg"" Ilmenau",50434,03677/882040,Gymnasium,Gymnasium,TH
"Salzmannstr. 39, 99610 Sömmerda",,false,TH-50853,51.160329,11.127883,"Staatliches Gymnasium ""Albert Schweitzer"" Sömmerda",50853,03634/601893,Gymnasium,Gymnasium,TH
"Bermbachtal 24, 99842 Ruhla",,false,TH-50207,50.891906,10.364723,"Staatliches Gymnasium ""Albert Schweitzer"" Ruhla",50207,036929/6160,Gymnasium,Gymnasium,TH
"Vilniuser Str. 17-19, 99089 Erfurt",,false,TH-51168,51.006835,11.015022,"Staatliches Gymnasium ""Albert Schweitzer"" Erfurt mit Spezialklassen im MINT- Bereich",51168,0361/2628300,Gymnasium,Gymnasium,TH
"Wilhelm-Bock-Straße 18, 99867 Gotha",,false,TH-30559,50.955589,10.700132,"Staatliches Förderzentrum ""August Trinius""",30559,03621/709744,Förderschule,Förderschule,TH
"Otto-Grotewohl-Straße 32, 36433 Bad Salzungen",,false,TH-52519,50.807564,10.21934,Staatliches Dr.-Sulzberger-Gymnasium Bad Salzungen,52519,03695/8502810,Gymnasium,Gymnasium,TH
"Straße der Genossenschaften 168, 99734 Nordhausen",,false,TH-61790,51.507792,10.771986,Staatliches Berufsschulzentrum Nordhausen,61790,03631/478156,Berufsbildende Schule,Berufsbildende Schule,TH
"Alexander-Puschkin-Promena, 99706 Sondershausen",,false,TH-62331,51.3145661,10.8537224,Staatliches Berufsschulzentrum Kyffhäuserkreis,62331,03632/59733,Berufsbildende Schule,Berufsbildende Schule,TH
"Am Ehrenberg 1, 98693 Ilmenau",,false,TH-60752,50.685653,10.943668,Staatliches Berufsschulzentrum Ilmenau,60752,03677/64570,Berufsbildende Schule,Berufsbildende Schule,TH
"Rodaer Straße 45, 07629 Hermsdorf",,false,TH-62568,50.886991,11.851871,Staatliches Berufsschulzentrum Hermsdorf,62568,036601/47402,Berufsbildende Schule,Berufsbildende Schule,TH
"Palmental 14, 99817 Eisenach",,false,TH-60269,50.981535,10.336026,"Staatliches Berufsschulzentrum ""Ludwig Erhard"" Eisenach",60269,03691- 8233208,Berufsbildende Schule,Berufsbildende Schule,TH
"Kindleber Straße 99b, 99867 Gotha",,false,TH-60602,50.967739,10.728076,"Staatliches Berufsschulzentrum ""Hugo Mairich"" Gotha",60602,03621/3347-0,Berufsbildende Schule,Berufsbildende Schule,TH
"Von-Zach-Straße 61, 99867 Gotha",,false,TH-60599,50.945784,10.679855,"Staatliches Berufsschulzentrum ""Gotha West""",60599,03621 / 701949,Berufsbildende Schule,Berufsbildende Schule,TH
"Lützendorfer Straße 10, 99427 Weimar",,false,TH-63082,50.999122,11.312203,"Staatliches Berufsbildungszentrum Weimar, Kompetenzzentrum für Gesundheit, Soziales und Technik",63082,03643/48420,Berufsbildende Schule,Berufsbildende Schule,TH
"Lindigallee 1, 36433 Bad Salzungen",,false,TH-60779,50.805798,10.221952,Staatliches Berufsbildungszentrum und Medizinische Fachschule Bad Salzungen,60779,036964/93534,Berufsbildende Schule,Berufsbildende Schule,TH
"Gewerbestraße 1, 98544 Zella-Mehlis",,false,TH-62418,50.644038,10.681922,Staatliches Berufsbildungszentrum Suhl/Zella-Mehlis,62418,03681/71460,Berufsbildende Schule,Berufsbildende Schule,TH
"Grenzweg 1, 98574 Schmalkalden",,false,TH-62061,50.718726,10.468674,"Staatliches Berufsbildungszentrum Schmalkalden, BBZ-SM",62061,03683/69630,Berufsbildende Schule,Berufsbildende Schule,TH
"Löhmaer Weg 2, 07907 Schleiz",,false,TH-62045,50.582024,11.812484,Staatliches Berufsbildungszentrum Saale-Orla-Kreis,62045,03663/402087,Berufsbildende Schule,Berufsbildende Schule,TH
"Am Drachenberg 4, 98617 Meiningen",,false,TH-62388,50.577214,10.425916,Staatliches Berufsbildungszentrum Meiningen,62388,03693/8118-0,Berufsbildende Schule,Berufsbildende Schule,TH
"Trommsdorffstr. 1, 07407 Rudolstadt",,false,TH-62225,50.698555,11.321764,Staatliches Berufsbildungszentrum des Landkreises Saalfeld-Rudolstadt,62225,03671/67510,Berufsbildende Schule,Berufsbildende Schule,TH
"Plauensche Straße 2a, 07973 Greiz",,false,TH-61187,50.645996,12.195691,"Staatliches Berufsbildungszentrum ""Ernst Arnold"" Greiz-Zeulenroda",61187,036628 82608,Berufsbildende Schule,Berufsbildende Schule,TH
"Rudolstädter Str. 95, 07745 Jena",,false,TH-60946,50.883676,11.591151,Staatliches Berufsbildendes Schulzentrum Jena-Göschwitz,60946,03641/29460,Berufsbildende Schule,Berufsbildende Schule,TH
"Wiesenstraße 20, 98646 Hildburghausen",,false,TH-60719,50.422035,10.729168,"Staatliches Berufsbildendes Schulzentrum Hildburghausen, Europaschule",60719,03685/ 404090,Berufsbildende Schule,Berufsbildende Schule,TH
"Karl-Liebknecht-Straße 87, 07749 Jena",,false,TH-51318,50.933063,11.605961,Staatliches Angergymnasium Jena,51318,03641/489090,Gymnasium,Gymnasium,TH
"Str. des Friedens 29, 07338 Kaulsdorf",,false,TH-45815,50.618386,11.432632,"Staatlichen Gemeinschaftsschule Kaulsdorf, Berufswahlfreundliche Schule",45815,036733/23190,Thüringer Gemeinschaftsschule,Gemeinschaftsschule,TH
"Am Rotberg 33, 99848 Wutha-Farnroda",,false,TH-21042,50.950581,10.396858,"Staatliche Regelschule Wutha-Farnroda, Berufswahlfreundliche Schule-Q-Siegel 2013",21042,036921/96253,Regelschule,Regelschule,TH
"Im Unterdorf 111, 99510 Saaleplatte",,false,TH-20260,51.027569,11.597332,Staatliche Regelschule Wormstedt,20260,036464/70412,Regelschule,Regelschule,TH
"Elisabethstraße 24, 37339 Leinefelde-Worbis",,false,TH-26343,51.422019,10.367513,Staatliche Regelschule Worbis,26343,036074/93009,Regelschule,Regelschule,TH
"Max-Reichpietsch-Straße 14, 99427 Weimar",,false,TH-27258,51.013469,11.336127,Staatliche Regelschule Weimar-Schöndorf,27258,03643/419081,Regelschule,Regelschule,TH
"Meininger Straße 21, 98634 Wasungen",,false,TH-25551,50.660866,10.371556,Staatliche Regelschule Wasungen,25551,036941/71363,Regelschule,Regelschule,TH
"Schulplatz 8, 99880 Waltershausen",,true,TH-22196,50.898768,10.554923,"Staatliche Regelschule Waltershausen, Europaschule",22196,03622-902643,Regelschule,Regelschule,TH
"Alt Räsa 3, 36414 Unterbreizbach",,false,TH-20767,50.805086,9.981131,Staatliche Regelschule Unterbreizbach,20767,036962/20002,Regelschule,Regelschule,TH
"Schützentorstraße 20, 99974 Ammern",,false,TH-24631,51.23313,10.454839,Staatliche Regelschule Unstruttal,24631,03601/812320,Regelschule,Regelschule,TH
"Schulstr. 4, 37318 Uder",,false,TH-23820,51.363292,10.074889,Staatliche Regelschule Uder,23820,036083/40966,Regelschule,Regelschule,TH
"Schulstr. 9, 99830 Treffurt",,false,TH-21024,51.137887,10.233382,Staatliche Regelschule Treffurt,21024,036923/80215,Regelschule,Regelschule,TH
"Kirchhof 5, 04617 Treben",,false,TH-20124,51.055732,12.449585,"Staatliche Regelschule Treben, ""Landschule Pleißenaue Treben""",20124,034343/51916,Regelschule,Regelschule,TH
"Feldstraße 2a, 99634 Straußfurt",,false,TH-25768,51.162729,10.986201,Staatliche Regelschule Straußfurt,25768,036376/60259,Regelschule,Regelschule,TH
"Gau-Algesheimer Straße 2, 99095 Erfurt",,false,TH-21278,51.052739,11.037757,Staatliche Regelschule Stotternheim,21278,036204/70279,Regelschule,Regelschule,TH
"Hergeser Wiese 2, 98587 Steinbach-Hallenberg",,false,TH-25559,50.689094,10.558908,Staatliche Regelschule Steinbach-Hallenberg,25559,036847/5275310,Regelschule,Regelschule,TH
"Rasenmühlenstraße 7a, 98547 Schwarza",,false,TH-26117,50.616283,10.5293,Staatliche Regelschule Schwarza,26117,036843/60214,Regelschule,Regelschule,TH
"Eisfelder Straße 19, 98667 Schleusegrund OT Schönbrunn",,false,TH-23923,50.520887,10.875871,Staatliche Regelschule Schönbrunn,23923,036874/39416,Regelschule,Regelschule,TH
"Am Siechenrasen 21, 98574 Schmalkalden",,false,TH-25571,50.71667,10.45,Staatliche Regelschule Schmalkalden,25571,(0 36 83) 40 51 31,Regelschule,Regelschule,TH
"Laubgasse 12b, 99994 Schlotheim",,false,TH-24661,51.244789,10.657723,Staatliche Regelschule Schlotheim,24661,036021/80228,Regelschule,Regelschule,TH
"Weimarische Str. 4, 99195 Schlossvippach",,false,TH-21458,51.102806,11.143866,Staatliche Regelschule Schloßvippach,21458,036 371/ 52 256,Regelschule,Regelschule,TH
"Weg am Stadtpark 2, 07619 Schkölen",,false,TH-21131,51.039889,11.816458,Staatliche Regelschule Schkölen,21131,036694/22302,Regelschule,Regelschule,TH
"Karl-Marx-Str. 1a, 04617 Rositz",,false,TH-20153,51.018682,12.367498,"Staatliche Regelschule Rositz, ""INSOBEUM"", Oberschule",20153,034498/22368,Regelschule,Regelschule,TH
"Herrengarten 21, 07368 Remptendorf",,false,TH-24361,50.530726,11.655919,Staatliche Regelschule Remptendorf,24361,036640/22283,Regelschule,Regelschule,TH
"Lindenstr. 20a, 07389 Ranis",,false,TH-25125,50.659432,11.571555,Staatliche Regelschule Ranis,25125,03647/413842,Regelschule,Regelschule,TH
"Weimarer Straße 9, 99510 Pfiffelbach",,false,TH-20243,51.058776,11.438056,Staatliche Regelschule Pfiffelbach,20243,03 64 62/3 22 86,Regelschule,Regelschule,TH
"Hauptstr. 4, 07381 Oppurg",,false,TH-25139,50.707755,11.649218,Staatliche Regelschule Oppurg,25139,03647/412672,Regelschule,Regelschule,TH
"Waldstr. 17, 04626 Nöbdenitz",,false,TH-25652,50.873539,12.285971,Staatliche Regelschule Nöbdenitz,25652,034496/22229,Regelschule,Regelschule,TH
"Albertstraße 9a, 99768 Harztor Gemeinde Niedersachswerfen",,false,TH-25036,51.548143,10.765265,Staatliche Regelschule Niedersachswerfen,25036,036331/31934,Regelschule,Regelschule,TH
"Bahnhofstr. 70, 37355 Niederorschel",,false,TH-26327,51.37676,10.4196,"Staatliche Regelschule Niederorschel, Europaschule",26327,036076/50304,Regelschule,Regelschule,TH
"Neusitz 29, 07407 Uhlstädt-Kirchhasel",,false,TH-25276,50.777441,11.383916,Staatliche Regelschule Neusitz,25276,036743/22533,Regelschule,Regelschule,TH
"Friedhofstraße 2, 07589 Münchenbernsdorf",,false,TH-21698,50.822519,11.934226,Staatliche Regelschule Münchenbernsdorf,21698,036604 2228,Regelschule,Regelschule,TH
"Lohmaer Straße 1, 99441 Magdala",,false,TH-26185,50.906178,11.442946,Staatliche Regelschule Magdala/Großschwabhausen (Verbund),26185,036454/57320,Regelschule,Regelschule,TH
"Str. der Bauarbeiter 1a, 04613 Lucka",,false,TH-20063,51.092142,12.331111,Staatliche Regelschule Lucka,20063,034492/46615,Regelschule,Regelschule,TH
"Mitteldorfstraße 1, 37339 Berlingerode",,false,TH-26390,51.458653,10.241999,Staatliche Regelschule Lindenberg/Eichsfeld,26390,036071/80408,Regelschule,Regelschule,TH
"Hinterm Jakobsdorf 5, 99986 Vogtei/OT Langula",,false,TH-24645,51.1568848,10.4372779,Staatliche Regelschule Langula,24645,03601 750 844,Regelschule,Regelschule,TH
"Poststraße 6, 37359 Küllstedt",,false,TH-26273,51.275067,10.281654,Staatliche Regelschule Küllstedt,26273,036075/62235,Regelschule,Regelschule,TH
"Wasserluft 3a, 07426 Königsee-Rottenbach",,false,TH-25202,50.658052,11.091564,Staatliche Regelschule Königsee,25202,036738 42744,Regelschule,Regelschule,TH
"Gartenstraße 19, 99098 Erfurt-Kerspleben",,false,TH-21281,51.00427,11.097299,Staatliche Regelschule Kerspleben,21281,036203/90852,Regelschule,Regelschule,TH
"Hellinger Straße 285, 98663 Bad Colberg-Heldburg",,false,TH-23954,50.277895,10.721885,Staatliche Regelschule Heldburg,23954,036871/309043,Regelschule,Regelschule,TH
"Pohlitzer Str. 85, 07973 Greiz",,false,TH-23580,50.659733,12.21394,Staatliche Regelschule Greiz-Pohlitz,23580,03661/479279,Regelschule,Regelschule,TH
"Hinter den Gärten 40, 98704 Wolfsberg",,false,TH-24088,50.701453,11.017169,Staatliche Regelschule Gräfinau-Angstedt,24088,036785/50210,Regelschule,Regelschule,TH
"Waldenburger Str. 43, 04639 Gößnitz",,false,TH-25649,50.888967,12.437838,Staatliche Regelschule Gößnitz,25649,034493/38612,Regelschule,Regelschule,TH
"Rudolstädter Str. 51, 07549 Gera",,false,TH-26837,50.847186,12.061052,Staatliche Regelschule Gera,26837,0365/35142,Regelschule,Regelschule,TH
"Herman - Danz - Straße 36, 99706 Sondershausen",,false,TH-20597,51.361548,10.876754,Staatliche Regelschule Franzberg,20597,03632 601016,Regelschule,Regelschule,TH
"Schulstraße 4, 98593 Floh-Seligenthal",,false,TH-25545,50.7576,10.481588,Staatliche Regelschule Floh,25545,03683/647630,Regelschule,Regelschule,TH
"Kreisstraße 5, 37308 Schimberg",,false,TH-23803,51.258583,10.163419,Staatliche Regelschule Ershausen,23803,036082-42330,Regelschule,Regelschule,TH
"Maxim-Gorki-Straße 11, 99189 Elxleben",,false,TH-25769,51.044601,10.949317,Staatliche Regelschule Elxleben,25769,036201/88610,Regelschule,Regelschule,TH
"Hospitalstr. 36, 99755 Ellrich",,false,TH-24901,51.584887,10.669901,"Staatliche Regelschule Ellrich, Thüringer Oberschule",24901,036332/20706,Regelschule,Regelschule,TH
"Straße der Einheit 3, 04626 Dobitschen",,false,TH-25695,50.95435,12.280552,"Staatliche Regelschule Dobitschen, ""Landschule mit Pfiff"" lebensnah-berufsorientiert",25695,034495/79295,Regelschule,Regelschule,TH
"Schulstr. 2, 36466 Dermbach",,true,TH-20873,50.714503,10.119018,Staatliche Regelschule Dermbach,20873,036964/82596,Regelschule,Regelschule,TH
"Alte Eisfelder Straße 9, 98673 Auengrund OT Crock",,false,TH-23924,50.464871,10.852659,"Staatliche Regelschule Crock, Ausbildungsschule",23924,03686 - 615190,Regelschule,Regelschule,TH
"Schulstr. 1, 98597 Breitungen",,true,TH-25680,50.757044,10.329988,Staatliche Regelschule Breitungen,25680,036848/87123,Regelschule,Regelschule,TH
"Halle-Kasseler-Str. 4, 37339 Breitenworbis",,false,TH-26240,51.410393,10.423551,Staatliche Regelschule Breitenworbis,26240,036074/31256,Regelschule,Regelschule,TH
"Christian-Speck-Str. 2, 99444 Blankenhain",,false,TH-26163,50.858797,11.340225,Staatliche Regelschule Blankenhain,26163,036459/62396,Regelschule,Regelschule,TH
"Bahnhofstraße 15, 07980 Berga/Elster",,false,TH-23400,50.750201,12.160866,Staatliche Regelschule Berga,23400,036623/20308,Regelschule,Regelschule,TH
"Schulweg 2, 07356 Bad Lobenstein",,false,TH-25101,50.446262,11.642433,Staatliche Regelschule Bad Lobenstein,25101,036651-2231,Regelschule,Regelschule,TH
"Heiligenstädter Straße 34, 37318 Kirchgandern",,false,TH-23790,51.378894,9.972515,Staatliche Regelschule Arenshausen,23790,036081/61304,Regelschule,Regelschule,TH
"Hauptstraße 75, 99820 Hörselberg-Hainich",,false,TH-24298,51.023286,10.51963,Staatliche Regelschule am Rennstieg Behringen,24298,036254/78053,Regelschule,Regelschule,TH
"Heinrich-Mann-Str. 32, 36448 Bad Liebenstein",,false,TH-20797,50.81159,10.352426,"Staatliche Regelschule Altensteiner Oberland, offene Ganztagsschule",20797,03696172242,Regelschule,Regelschule,TH
"Werner-Seelenbinder-Str. 6, 99510 Apolda",,true,TH-20200,51.029364,11.5098,"Staatliche Regelschule ""Werner Seelenbinder"" Apolda",20200,03644/555556,Regelschule,Regelschule,TH
"Schulstraße 22, 99334 Amt Wachsenburg",,false,TH-20304,50.881155,10.969641,"Staatliche Regelschule ""Wilhelm Hey"" Ichtershausen, ""HEY*SCHOOL""",20304,03628/600303,Regelschule,Regelschule,TH
"Brückenstraße 38, 07774 Dornburg-Camburg",,false,TH-21161,51.008183,11.679511,"Staatliche Regelschule ""Unter den Dornburger Schlössern"" Dorndorf",21161,03 64 27/2 25 75,Regelschule,Regelschule,TH
"Schulstr. 7, 99826 Mihla",,false,TH-20770,51.074777,10.334685,"Staatliche Regelschule ""Thomas Müntzer"" Mihla",20770,036924/31054,Regelschule,Regelschule,TH
"Meininger Str. 167, 98617 Rhönblick OT Bettenhausen",,false,TH-24555,50.605623,10.438812,"Staatliche Regelschule ""Vordere Rhön"" Bettenhausen",24555,036943/63275,Regelschule,Regelschule,TH
"Straße der Einheit 18, 36433 Bad Salzungen",,false,TH-20887,50.809555,10.254738,"Staatliche Regelschule ""Werratal"" Bad Salzungen",20887,03695/873214,Regelschule,Regelschule,TH
"Bornklagengasse 14- 16, 99947 Bad Langensalza",,true,TH-24576,51.107414,10.645064,"Staatliche Regelschule ""Wiebeckschule"" Bad Langensalza",24576,03603/842039,Regelschule,Regelschule,TH
"Karl-Marx-Str. 35, 99974 Mühlhausen",,false,TH-24584,51.209313,10.4698,"Staatliche Regelschule ""Thomas Müntzer"" Mühlhausen",24584,03601/816050,Regelschule,Regelschule,TH
"Hallesche Str. 18, 99085 Erfurt",,false,TH-26463,50.983792,11.048563,"Staatliche Regelschule ""Thomas Mann"" Erfurt, Energiesparschule, Berufswahlfreundliche Schule",26463,0361/5626273,Regelschule,Regelschule,TH
"Goethestraße 32, 99310 Arnstadt",,false,TH-20380,50.834339,10.933393,"Staatliche Regelschule ""Robert Bosch"" Arnstadt",20380,03628/600230,Regelschule,Regelschule,TH
"Str. des Friedens 15, 99192 Nesse-Apfelstädt/ OT Neudietendorf",,false,TH-21247,50.910322,10.908757,"Staatliche Regelschule ""Prof. Herman Anders Krüger"" Neudietendorf",21247,036202/82427,Regelschule,Regelschule,TH
"Roßplatz 7, 99628 Buttstädt",,false,TH-25729,51.122538,11.419228,"Staatliche Regelschule ""Prof. Gräfe"" Buttstädt",25729,036373/40355,Regelschule,Regelschule,TH
"Karl-Marx-Straße 15b, 07381 Pößneck",,false,TH-25116,50.691346,11.580871,"Staatliche Regelschule ""Prof. Franz Huth"" Pößneck",25116,03647/412527,Regelschule,Regelschule,TH
"Bachstr. 23, 99510 Apolda",,false,TH-20273,51.024174,11.512524,"Staatliche Regelschule ""Pestalozzischule"" Apolda",20273,03644/555797,Regelschule,Regelschule,TH
"Kirchplatz 6, 98673 Eisfeld",,false,TH-23877,50.42505,10.905108,"Staatliche Regelschule ""Otto Ludwig"" Eisfeld",23877,03686/322081,Regelschule,Regelschule,TH
"Gutenbergstr. 1, 07548 Gera",,false,TH-26807,50.883332,12.069705,"Staatliche Regelschule ""Otto Dix"" Gera",26807,0365/23228,Regelschule,Regelschule,TH
"Rudolf-Alander-Str. 2, 07570 Weida",,false,TH-21865,50.778677,12.05767,"Staatliche Regelschule ""Max Greil"" Weida",21865,036603/62467,Regelschule,Regelschule,TH
"Wilhelm-Nebelung-Str. 44, 99734 Nordhausen",,false,TH-24854,51.505932,10.799173,"Staatliche Regelschule ""Käthe Kollwitz"" Nordhausen",24854,03631/982005,Regelschule,Regelschule,TH
"Saasaer Str. 14, 07607 Eisenberg",,false,TH-21145,50.968145,11.882201,"Staatliche Regelschule ""Karl Christian Friedrich Krause"" Eisenberg",21145,036691/42372,Regelschule,Regelschule,TH
"Sonneberger Str. 2, 98739 Lichte",,false,TH-24781,50.526001,11.191495,"Staatliche Regelschule ""Lichtetal"" Lichte",24781,036701/60487,Regelschule,Regelschule,TH
"Geschwister-Scholl-Straße 6, 37327 Leinefelde-Worbis",,false,TH-26283,51.386318,10.324463,"Staatliche Regelschule ""Konrad Hentrich"" Leinefelde",26283,03605/502177,Regelschule,Regelschule,TH
"Löwentorstr. 32, 99752 Bleicherode",,false,TH-24931,51.443144,10.569381,"Staatliche Regelschule ""Löwentor"" Bleicherode",24931,036338/42234,Regelschule,Regelschule,TH
"Gelängeweg 2, 07333 Unterwellenborn",,true,TH-25382,50.66153,11.436223,"Staatliche Regelschule ""Kurt Löwenstein"" Unterwellenborn",25382,03671/645310,Regelschule,Regelschule,TH
"Prof.-Frosch-Straße 26, 99310 Arnstadt",,false,TH-20303,50.83417,10.94639,"Staatliche Regelschule ""Ludwig Bechstein"" Arnstadt",20303,03628/600044,Regelschule,Regelschule,TH
"Seminarstraße 2, 98646 Hildburghausen",,false,TH-23893,50.428392,10.727456,"Staatliche Regelschule ""Joliot-Curie"" Hildburghausen, Ausbildungsschule",23893,03685/446790,Regelschule,Regelschule,TH
"August-Bebel-Str. 10, 07907 Schleiz",,false,TH-25131,50.57825,11.815275,"Staatliche Regelschule ""Johann Wolfgang von Goethe"" Schleiz",25131,03663/422533,Regelschule,Regelschule,TH
"Goethestraße 7, 07806 Neustadt a.d.Orla",,false,TH-25096,50.737571,11.73995,"Staatliche Regelschule ""Johann Wolfgang von Goethe"" Neustadt an der Orla",25096,036481/22563,Regelschule,Regelschule,TH
"Karlstr. 11, 99988 Südeichsfeld OT Heyerode",,true,TH-24735,51.163399,10.316931,"Staatliche Regelschule ""Johann Wolfgang von Goethe"" Heyerode",24735,036024/89218,Regelschule,Regelschule,TH
"Am Pfarrberg 1, 99817 Eisenach",,false,TH-20920,50.97472,10.32444,"Staatliche Regelschule ""Johann Wolfgang v. Goethe"" Eisenach, Berufswahlfreundliche Schule-Q-Siegel 2007/2010",20920,03691/732838,Regelschule,Regelschule,TH
"Bahnhofstr. 79, 37351 Dingelstädt",,true,TH-26253,51.322249,10.314889,"Staatliche Regelschule ""Johann Wolf"" Dingelstädt, Teilgebundene Ganztagsschule",26253,036075/62634,Regelschule,Regelschule,TH
"Am Langen Bürgel 19, 07768 Kahla",,false,TH-24238,50.805414,11.580667,"Staatliche Regelschule ""Johann Wilhelm Heimbürge"" Kahla",24238,036424/22400,Regelschule,Regelschule,TH
"Segelteichstr. 36, 99706 Sondershausen",,false,TH-20601,51.368219,10.887324,"Staatliche Regelschule ""Johann Karl Wezel"" Östertal",20601,03632/603813,Regelschule,Regelschule,TH
"Pestalozzistraße 1, 07927 Hirschberg",,false,TH-25456,50.412795,11.818332,"Staatliche Regelschule ""Johann Heinrich Pestalozzi"" Hirschberg",25456,036644/22318,Regelschule,Regelschule,TH
"Planckstraße 9, 37327 Leinefelde-Worbis",,false,TH-26332,51.378073,10.323701,"Staatliche Regelschule ""Johann Carl Fuhlrott"" Leinefelde",26332,03605/54260,Regelschule,Regelschule,TH
"Friedrich-Engels-Ring 1, 99846 Seebach",,false,TH-21025,50.912489,10.427506,"Staatliche Regelschule ""J. Dicel"" Seebach",21025,036929/88931,Regelschule,Regelschule,TH
"Kapellenstraße 16, 98617 Obermaßfeld-Grimmenthal",,false,TH-24568,50.527762,10.441654,"Staatliche Regelschule ""Im Werratal"" Obermaßfeld",24568,036949/21321,Regelschule,Regelschule,TH
"Braunichswalder Weg 60, 07580 Seelingstädt",,true,TH-21758,50.791003,12.240694,"Staatliche Regelschule ""Im Ländereck"" Seelingstädt",21758,036608/2295,Regelschule,Regelschule,TH
"Alexandrinenstr. 2, 99894 Friedrichroda",,false,TH-22585,50.859085,10.56462,"Staatliche Regelschule ""Helene Lange"" Friedrichroda",22585,03623/305930,Regelschule,Regelschule,TH
"Ziolkowskistr. 27, 98693 Ilmenau",,false,TH-24015,50.696195,10.92046,"Staatliche Regelschule ""Heinrich Hertz"" Ilmenau",24015,03677/877407,Regelschule,Regelschule,TH
"Werner-Sylten-Str. 14, 07586 Bad Köstritz",,false,TH-21968,50.933782,12.006822,"Staatliche Regelschule ""Hans Settegast"" Bad Köstritz",21968,036605/2229,Regelschule,Regelschule,TH
"Schleifweg 3, 99735 Wolkramshausen",,true,TH-25023,51.424866,10.736651,"Staatliche Regelschule ""Hainleite""",25023,03 63 34/ 59 26 5,Regelschule,Regelschule,TH
"Am Salzagraben 4, 99734 Nordhausen",,false,TH-24808,51.508793,10.777822,"Staatliche Regelschule ""Gotthold Ephraim Lessing"" Nordhausen",24808,03631/973015,Regelschule,Regelschule,TH
"Dr.-Scheube-Straße 4, 07973 Greiz",,false,TH-23293,50.655795,12.201036,"Staatliche Regelschule ""Gotthold Ephraim Lessing"" Greiz",23293,03661/687870,Regelschule,Regelschule,TH
"Schulweg 3, 07343 Wurzbach",,false,TH-24375,50.464448,11.537695,"Staatliche Regelschule ""Geschwister Scholl"" Wurzbach",24375,036652/22275,Regelschule,Regelschule,TH
"Pfortenstr. 16, 07318 Saalfeld",,false,TH-25312,50.64497,11.35429,"Staatliche Regelschule ""Geschwister Scholl"" Saalfeld",25312,03671/525180,Regelschule,Regelschule,TH
"Geschwister-Scholl-Straße 9/10, 04610 Meuselwitz",,false,TH-20080,51.043981,12.283581,"Staatliche Regelschule ""Geschwister Scholl"" Meuselwitz",20080,03448/3564,Regelschule,Regelschule,TH
"Bergrat-Mahr-Str. 1, 98693 Ilmenau",,false,TH-24028,50.679054,10.922878,"Staatliche Regelschule ""Geschwister Scholl"" Ilmenau",24028,03677/882011,Regelschule,Regelschule,TH
"Rudolf-Breitscheid-Straße 5, 99765 Heringen",,false,TH-25019,51.42549,10.929871,"Staatliche Regelschule ""Geschwister Scholl"" Heringen",25019,036333/60155,Regelschule,Regelschule,TH
"Katharinenstr. 150, 99817 Eisenach",,false,TH-20933,50.977706,10.306336,"Staatliche Regelschule ""Geschwister Scholl"" Eisenach",20933,03691/746113,Regelschule,Regelschule,TH
"Fischhof 5, 99631 Weißensee",,false,TH-25788,51.196624,11.065403,"Staatliche Regelschule ""Geschwister Scholl""",25788,036374/36030,Regelschule,Regelschule,TH
"Eisfelder Str. 35, 98553 Schleusingen",,false,TH-26147,50.508735,10.759292,"Staatliche Regelschule ""Gerhart Hauptmann"" Schleusingen",26147,036841/47996,Regelschule,Regelschule,TH
"Glück-Auf-Straße 11, 06571 Roßleben",,false,TH-20586,51.299882,11.439069,"Staatliche Regelschule ""Gerhart Hauptmann"" Roßleben",20586,034672/60354 bzw. 96770,Regelschule,Regelschule,TH
"Ohrdrufer Str. 27a, 98716 Geraberg",,false,TH-24105,50.718154,10.841628,"Staatliche Regelschule ""Geratal"" Geraberg",24105,03677/790258,Regelschule,Regelschule,TH
"Dr.-Wilhelm-Külz-Str. 19a, 07950 Zeulenroda-Triebes",,false,TH-26417,50.686882,12.015375,"Staatliche Regelschule ""Georg Kresse"" Triebes, Unesco - Projekt - Schule",26417,036622/79050,Regelschule,Regelschule,TH
"Giengener Straße 18, 07937 Zeulenroda-Triebes",,false,TH-26433,50.64392,11.973922,"Staatliche Regelschule ""Friedrich Solle"" Zeulenroda Europaschule",26433,036628/82783,Regelschule,Regelschule,TH
"Bayreuther Platz 4, 07407 Rudolstadt",,false,TH-25356,50.717299,11.323939,"Staatliche Regelschule ""Friedrich Schiller"" Rudolstadt",25356,03672/431787,Regelschule,Regelschule,TH
"Str. der Jugend 15, 99625 Kölleda",,false,TH-25802,51.18487,11.252653,"Staatliche Regelschule ""Friedrich Ludwig Jahn"" Kölleda",25802,03635/403636,Regelschule,Regelschule,TH
"Fröbelstr. 12, 98744 Oberweißbach",,true,TH-24764,50.58194,11.139845,"Staatliche Regelschule ""Friedrich Fröbel"" Oberweißbach",24764,036705/62167,Regelschule,Regelschule,TH
"Markt 9, 07955 Auma",,false,TH-26404,50.699427,11.899553,"Staatliche Regelschule ""Franz Kolbe"" Auma",26404,036626/20236,Regelschule,Regelschule,TH
"Friedensstr. 10, 07613 Crossen a.d.E.",,false,TH-21114,50.972503,11.975657,"Staatliche Regelschule ""Elstertal"" Crossen",21114,036693/22334,Regelschule,Regelschule,TH
"Weißenborner Str. 1, 37345 Am Ohmberg",,false,TH-26233,51.500002,10.447252,"Staatliche Regelschule ""Dr. Hermann Iseke"" Bischofferode",26233,036077/29106,Regelschule,Regelschule,TH
"Waldstr. 11, 98646 Hildburghausen",,false,TH-23864,50.430677,10.722684,"Staatliche Regelschule ""Dr. Carl Ludwig Nonne"" Hildburghausen",23864,03685/704323,Regelschule,Regelschule,TH
"Erich-Weinert-Str. 2, 96515 Sonneberg",,false,TH-25935,50.350048,11.166207,"Staatliche Regelschule ""Cuno Hoffmeister"" Sonneberg",25935,03675/422690,Regelschule,Regelschule,TH
"Eschleber Str. 39, 99867 Gotha",,true,TH-22482,50.949734,10.683623,"Staatliche Regelschule ""Conrad Ekhof"" Gotha",22482,03621/758524,Regelschule,Regelschule,TH
"Alte Straße 19, 98743 Gräfenthal",,false,TH-24779,50.526676,11.309534,"Staatliche Regelschule ""Christoph Ullrich von Pappenheim"" Gräfenthal",24779,036703/80203,Regelschule,Regelschule,TH
"Kölledaer Str. 29, 99610 Sömmerda",,false,TH-25756,51.158414,11.121879,"Staatliche Regelschule ""Christian Gotthilf Salzmann"" Sömmerda, Salzmannschule",25756,03634/329000,Regelschule,Regelschule,TH
"Moskauer Straße 63, 99427 Weimar",,false,TH-27215,50.989546,11.303237,"Staatliche Regelschule ""Carl-August Musäus"" Weimar, Umweltschule, Agenda 21- Schule",27215,03643/403215,Regelschule,Regelschule,TH
"Burgenlandallee 14, 99869 Günthersleben-Wechmar",,false,TH-22182,50.897984,10.769204,"Staatliche Regelschule ""Burgenland"" Wechmar",22182,036256/2710,Regelschule,Regelschule,TH
"Schulstr. 5, 99880 Mechterstädt",,true,TH-22572,50.942582,10.524673,"Staatliche Regelschule ""Bertha von Suttner"" Mechterstädt",22572,03622/907285,Regelschule,Regelschule,TH
"Goetheweg 17, 07646 Stadtroda",,false,TH-26027,50.861259,11.732241,"Staatliche Regelschule ""Auf der Schönen Aussicht"" Stadtroda",26027,036428/62218,Regelschule,Regelschule,TH
"Schulstraße 7, 98660 Themar",,false,TH-23910,50.503029,10.616398,"Staatliche Regelschule ""Anne Frank"" Themar",23910,036873/67443,Regelschule,Regelschule,TH
"Große Gebind 20, 99448 Kranichfeld",,false,TH-26207,50.852775,11.198611,"Staatliche Regelschule ""Anna Sophia"" Kranichfeld",26207,036450/39905,Regelschule,Regelschule,TH
"Mozartstr. 17, 99867 Gotha",,false,TH-22449,50.942488,10.714337,"Staatliche Regelschule ""Andreas Reyher"" Gotha",22449,03621/852361,Regelschule,Regelschule,TH
"Schulstr. 4, 36452 Kaltennordheim",,false,TH-20633,50.627808,10.162901,"Staatliche Regelschule ""Andreas Fack"" Kaltennordheim",20633,036966/84282,Regelschule,Regelschule,TH
"Gothaer Str. 20a, 99869 Molschleben",,true,TH-22556,51.002172,10.782465,"Staatliche Regelschule ""An der Nesse"" Molschleben",22556,036258/50235,Regelschule,Regelschule,TH
"Burgstallstr. 33, 99897 Tambach-Dietharz",,false,TH-22209,50.789391,10.609841,"Staatliche Regelschule ""Am Rennsteig"" Tambach-Dietharz",22209,036252/36249,Regelschule,Regelschule,TH
"Am Schloß 11, 99947 Weberstedt",,false,TH-24328,51.108045,10.508126,"Staatliche Regelschule ""Am Nationalpark Hainich"" Weberstedt",24328,036022/96822,Regelschule,Regelschule,TH
"Volkmarsener Platz 1, 99439 Buttelstedt",,false,TH-26180,51.073302,11.339017,"Staatliche Regelschule ""Am Lindenkreis"" Buttelstedt",26180,036451/60303,Regelschule,Regelschule,TH
"Jerusalemer Str. 15, 98617 Meiningen",,false,TH-24460,50.591804,10.414089,"Staatliche Regelschule ""Am Kiliansberg"" Meiningen",24460,03693/75233,Regelschule,Regelschule,TH
"Friedrichsanfang 7a, 99330 Crawinkel",,true,TH-20437,50.778352,10.7776,"Staatliche Regelschule ""Am Kienberg"" Crawinkel",20437,03624/314357,Regelschule,Regelschule,TH
"Erich-Weinert-Str. 25, 07629 Hermsdorf",,true,TH-26013,50.906771,11.853184,"Staatliche Regelschule ""Am Hermsdorfer Kreuz""",26013,036601/82818,Regelschule,Regelschule,TH
"Ostrower Str. 13, 99734 Nordhausen",,false,TH-24862,51.501223,10.819563,"Staatliche Regelschule ""Am Förstemannweg"" Nordhausen",24862,03631/895301,Regelschule,Regelschule,TH
"Rudolf-Seyfarth-Straße 21, 04626 Schmölln",,false,TH-25665,50.895104,12.356301,"Staatliche Regelschule ""Am Eichberg"" Schmölln, Ausbildungsschule",25665,034491 81322,Regelschule,Regelschule,TH
"Albert-Schweitzer-Straße 148, 07318 Saalfeld",,true,TH-25336,50.654547,11.397966,"Staatliche Regelschule ""Albert-Schweitzer"" Saalfeld-Gorndorf",25336,03671/641002,Regelschule,Regelschule,TH
"Schulplatz 1, 36469 Tiefenort",,false,TH-20814,50.839537,10.168197,Staatliche Krayenburg Regelschule Tiefenort,20814,03695/620738,Regelschule,Regelschule,TH
"Am Schwemmbach 10, 99099 Erfurt",,false,TH-40504,50.96308,11.047261,"Staatliche Kooperative Gesamtschule ""Am Schwemmbach"" Erfurt",40504,0361/3731589,Kooperative Gesamtschule,Kooperative Gesamtschule,TH
"Wöllnitzer Straße 1, 07749 Jena",,false,TH-40509,50.923334,11.591905,"Staatliche Kooperative Gesamtschule ""Adolf Reichwein"" Jena",40509,03641 394841,Kooperative Gesamtschule,Kooperative Gesamtschule,TH
"Ahornstraße 1-3, 07549 Gera",,false,TH-40445,50.843921,12.071198,"Staatliche Integrierte Gesamtschule Gera, IGS mit gymnasialer Oberstufe",40445,0365/31266,Integrierte Gesamtschule,Integrierte Gesamtschule,TH
"Wendenstr. 23, 99086 Erfurt",,false,TH-40517,50.994658,11.031061,Staatliche Integrierte Gesamtschule Erfurt,40517,0361/730360,Integrierte Gesamtschule,Integrierte Gesamtschule,TH
"August-Bebel-Str. 1, 07743 Jena",,false,TH-40522,50.930984,11.579504,"Staatliche Integrierte Gesamtschule ""Grete Unrein"" Jena",40522,03641/449342,Integrierte Gesamtschule,Integrierte Gesamtschule,TH
"Am Wurzbächle 11, 07343 Wurzbach",,false,TH-14446,50.46441,11.529577,Staatliche Grundschule Wurzbach,14446,036652/22478,Grundschule,Grundschule,TH
"Schulstraße 17a, 99510 Saaleplatte OT Wormstedt",,false,TH-10478,51.030708,11.597097,"Staatliche Grundschule Wormstedt, Schule mit Fremdsprachensiegel",10478,036464/70213,Grundschule,Grundschule,TH
"Straße der Einheit  86, 99752 Wipperdorf",,false,TH-15467,51.453526,10.6524,Staatliche Grundschule Wipperdorf,15467,036338-30033,Grundschule,Grundschule,TH
"Zirndorfer Str. 49, 04610 Meuselwitz",,false,TH-10148,51.052541,12.356161,Staatliche Grundschule Wintersdorf,10148,03448/2619,Grundschule,Grundschule,TH
"Bahnhofstraße 4, 37327 Wingerode",,false,TH-18277,51.389245,10.237593,Staatliche Grundschule Wingerode,18277,03605/504075,Grundschule,Grundschule,TH
"Luckaer Straße 24, 04603 Windischleuba",,false,TH-10235,51.015857,12.46715,Staatliche Grundschule Windischleuba,10235,03447/836270,Grundschule,Grundschule,TH
"Gartenstr. 11, 36466 Wiesenthal",,false,TH-11409,50.700633,10.168986,Staatliche Grundschule Wiesenthal,11409,036964/95035,Grundschule,Grundschule,TH
"Hauptstraße 49, 99518 Bad Sulza/OT Wickerstedt",,false,TH-10375,51.058336,11.542164,Staatliche Grundschule Wickerstedt,10375,03644/564368,Grundschule,Grundschule,TH
"Zinsweg 1, 99718 Großenehrich",,false,TH-17122,51.285151,10.907246,Staatliche Grundschule Westerengel,17122,036379/40269,Grundschule,Grundschule,TH
"Schulstraße 2, 99735 Werther OT Großwechsungen",,false,TH-15393,51.491701,10.68871,Staatliche Grundschule Werther,15393,036335/230,Grundschule,Grundschule,TH
"Bahnhofsallee 13, 98574 Schmalkalden",,false,TH-16564,50.723272,10.351834,Staatliche Grundschule Wernshausen,16564,036848/22476,Grundschule,Grundschule,TH
"Hauptstr. 71, 37345 Weissenborn-Lüderode",,false,TH-18251,51.531703,10.420641,Staatliche Grundschule Weißenborn-Lüderode,18251,036072/81183,Grundschule,Grundschule,TH
"Max-Reichpietsch-Straße 14, 99427 Weimar",,false,TH-19314,51.013469,11.336127,Staatliche Grundschule Weimar-Schöndorf,19314,03643/419700,Grundschule,Grundschule,TH
"Liebsdorfer Str. 10, 07570 Weida",,false,TH-12357,50.771874,12.037003,Staatliche Grundschule Weida-Liebsdorf,12357,036603/43550,Grundschule,Grundschule,TH
"Schulstraße 6, 99869 Drei Gleichen OT Wandersleben",,false,TH-12570,50.897292,10.847624,Staatliche Grundschule Wandersleben,12570,036202 / 90738,Grundschule,Grundschule,TH
"Sprötauer Straße 10, 99610 Vogelsberg",,true,TH-16924,51.13389,11.24361,Staatliche Grundschule Vogelsberg,16924,036372/90216,Grundschule,Grundschule,TH
"Straße der Jugend 3, 99098 Erfurt",,true,TH-12087,50.998498,11.146838,Staatliche Grundschule Vieselbach,12087,036203/90353,Grundschule,Grundschule,TH
"Schackendorfer Str. 254, 98669 Veilsdorf",,false,TH-13454,50.410997,10.814466,Staatliche Grundschule Veilsdorf,13454,03685/68115,Grundschule,Grundschule,TH
"Straße der Jugend 122, 98617 Vachdorf",,false,TH-14609,50.524861,10.537388,Staatliche Grundschule Vachdorf,14609,036949/20527 Hort: 036949/21280,Grundschule,Grundschule,TH
"Schulplatz 3, 99198 Udestedt",,false,TH-11982,51.05021,11.128995,Staatliche Grundschule Udestedt,11982,036203/50210,Grundschule,Grundschule,TH
"Hauptstraße 71, 06567 Bad Frankenhausen",,false,TH-11023,51.37528,11.163956,Staatliche Grundschule Udersleben,11023,034671/76030,Grundschule,Grundschule,TH
"Dr.-Wilhelm-Külz-Str. 19a, 07950 Triebes",,false,TH-18396,50.686882,12.015375,Staatliche Grundschule Triebes,18396,036622/79050,Grundschule,Grundschule,TH
"Puschkinstr. 24, 99830 Treffurt",,false,TH-11636,51.137052,10.230618,Staatliche Grundschule Treffurt,11636,036923/80248,Grundschule,Grundschule,TH
"Dorfstr. 16, 04626 Thonhausen",,false,TH-16667,50.838916,12.320574,Staatliche Grundschule Thonhausen,16667,03762/2925,Grundschule,Grundschule,TH
"Bergstraße 1, 37339 Teistungen",,false,TH-18217,51.470686,10.260833,Staatliche Grundschule Teistungen,18217,036071/96461,Grundschule,Grundschule,TH
"Kirchstraße 5, 07987 Mohlsdorf-Teichwolframsdor",,false,TH-13125,50.718066,12.240604,Staatliche Grundschule Teichwolframsdorf,13125,036624/22281,Grundschule,Grundschule,TH
"Schulstraße 2-4, 99438 Bad Berka OT Tannroda",,false,TH-17899,50.862199,11.243212,Staatliche Grundschule Tannroda,17899,036450/42415,Grundschule,Grundschule,TH
"Bahnhofstraße 39, 07922 Tanna",,false,TH-16235,50.491106,11.871398,Staatliche Grundschule Tanna,16235,036646/284648,Grundschule,Grundschule,TH
"Pferdsdorfer Straße 4, 36404 Sünna",,true,TH-11152,50.798975,9.997147,Staatliche Grundschule Sünna,11152,036962/24833,Grundschule,Grundschule,TH
"Waldstraße 13, 98714 Stützerbach",,false,TH-13888,50.630694,10.860032,Staatliche Grundschule Stützerbach Grundschule am Rennsteig,13888,036784/50247,Grundschule,Grundschule,TH
"Straße der Jugend 7, 98646 Straufhain",,false,TH-13471,50.351719,10.689052,Staatliche Grundschule Streufdorf,13471,036875/60172,Grundschule,Grundschule,TH
"Gau-Algesheimer Str. 2, 99095 Erfurt-Stotternheim",,true,TH-12051,51.052739,11.037757,Staatliche Grundschule Stotternheim,12051,036204/50833,Grundschule,Grundschule,TH
"Göritzweg 15, 98724 Neuhaus am Rennweg Ortsteil Steinheid",,true,TH-15170,50.472543,11.089131,"Staatliche Grundschule Steinheid, Europaschule",15170,036704/80243,Grundschule,Grundschule,TH
"Kirchstraße  21, 96523 Steinach",,false,TH-17329,50.430497,11.157066,Staatliche Grundschule Steinach-Südschule,17329,036762/32396 o. 31059,Grundschule,Grundschule,TH
"Eisenacher Str. 1a, 36457 Stadtlengsfeld",,false,TH-11262,50.783514,10.126153,Staatliche Grundschule Stadtlengsfeld,11262,036965/61291,Grundschule,Grundschule,TH
"Schulstr. 4a, 99326 Stadtilm",,false,TH-10794,50.77692,11.081005,Staatliche Grundschule Stadtilm,10794,03629/812915,Grundschule,Grundschule,TH
"Gothaer Str. 183e, 99869 Sonneborn",,false,TH-12510,50.995295,10.589076,Staatliche Grundschule Sonneborn,12510,036254/71328,Grundschule,Grundschule,TH
"Johann-Sebastian-Bach-Str., 96515 Sonneberg",,false,TH-17259,50.3419694,11.1822603,Staatliche Grundschule Sonneberg-Oberlind,17259,03675/707222,Grundschule,Grundschule,TH
"Eisenbahnstr. 16, 96515 Sonneberg",,false,TH-17287,50.353772,11.183977,Staatliche Grundschule Sonneberg-Grube,17287,03675/702893,Grundschule,Grundschule,TH
"Sorbitztal 1, 07429 Sitzendorf",,true,TH-15860,50.631267,11.179199,Staatliche Grundschule Sitzendorf,15860,036730 314600,Grundschule,Grundschule,TH
"Hauptstraße 3a, 37308 Siemerode",,false,TH-13305,51.301906,10.153909,Staatliche Grundschule Siemerode,13305,03606/612688,Grundschule,Grundschule,TH
"Friedrich-Fröbel-Straße 72, 07407 Rudolstadt-Schwarza",,false,TH-15797,50.69614,11.324079,Staatliche Grundschule Schwarza,15797,03672/314043,Grundschule,Grundschule,TH
"Am alten Sportplatz 1, 99947 Schönstedt",,true,TH-14399,51.118932,10.579526,Staatliche Grundschule Schönstedt,14399,036022/96526,Grundschule,Grundschule,TH
"Neustädter Straße 26, 98667 Schleusegrund",,true,TH-13540,50.52271,10.881977,Staatliche Grundschule Schönbrunn,13540,036874/38474,Grundschule,Grundschule,TH
"Finkenweg 12, 04626 Schmölln",,false,TH-16654,50.887991,12.352518,Staatliche Grundschule Schmölln,16654,034491/27546,Grundschule,Grundschule,TH
"Am Markt 7, 98739 Schmiedefeld",,true,TH-15167,50.532304,11.217963,Staatliche Grundschule Schmiedefeld,15167,036701/61094,Grundschule,Grundschule,TH
"Renthofstraße 19, 98574 Schmalkalden",,false,TH-16345,50.721861,10.458248,Staatliche Grundschule Schmalkalden,16345,03683/402719,Grundschule,Grundschule,TH
"Laubgasse 12b, 99994 Schlotheim",,true,TH-15004,51.244789,10.657723,Staatliche Grundschule Schlotheim,15004,036021/80228,Grundschule,Grundschule,TH
"Hauptstr. 31, 98678 Sachsenbrunn",,false,TH-13604,50.449796,10.959085,Staatliche Grundschule Sachsenbrunn,13604,03686/60542,Grundschule,Grundschule,TH
"Albert-Schweitzer-Straße 130, 07318 Saalfeld",,false,TH-15980,50.652673,11.395002,"Staatliche Grundschule Saalfeld-Gorndorf, offene Ganztagsschule",15980,03671/641001,Grundschule,Grundschule,TH
"Gustav-Freytag-Str. 4, 07407 Rudolstadt",,true,TH-15723,50.711378,11.316015,Staatliche Grundschule Rudolstadt-West,15723,03672/422436,Grundschule,Grundschule,TH
"Am Kirchberg 5, 07580 Rückersdorf",,false,TH-12300,50.821457,12.217516,Staatliche Grundschule Rückersdorf,12300,036602/22845,Grundschule,Grundschule,TH
"Bernshäuser Str. 18, 98590 Roßdorf",,true,TH-16330,50.707343,10.210976,Staatliche Grundschule Roßdorf,16330,036968 60204,Grundschule,Grundschule,TH
"Karl-Marx-Straße 1a, 04617 Rositz",,false,TH-10241,51.018682,12.367498,Staatliche Grundschule Rositz,10241,034498/22368,Grundschule,Grundschule,TH
"Rudolstädter Straße 7, 07407 Remda-Teichel",,false,TH-15887,50.762124,11.230066,Staatliche Grundschule Remda,15887,036744/2000,Grundschule,Grundschule,TH
"Goethestraße 28, 07580 Ronneburg",,false,TH-12284,50.865126,12.189964,Staatliche Grundschule Ronneburg,12284,036602/22539,Grundschule,Grundschule,TH
"Burggartenstr. 18, 96528 Frankenblick",,false,TH-17419,50.414705,11.046556,Staatliche Grundschule Rauenstein,17419,036766/87775,Grundschule,Grundschule,TH
"Kirchallee 4, 99636 Rastenberg",,false,TH-16834,51.174941,11.418283,Staatliche Grundschule Rastenberg,16834,036377/73621,Grundschule,Grundschule,TH
"Lindenstr. 20a, 07389 Ranis",,false,TH-15590,50.659432,11.571555,Staatliche Grundschule Ranis,15590,03647/417481,Grundschule,Grundschule,TH
"Marktgölitzer Str. 4, 07330 Probstzella",,false,TH-16067,50.533703,11.377682,Staatliche Grundschule Probstzella,16067,036735/72206,Grundschule,Grundschule,TH
"Rosa-Luxemburg-Str. 9, 07381 Pößneck",,false,TH-15530,50.698803,11.610854,Staatliche Grundschule Pößneck,15530,03647 415169,Grundschule,Grundschule,TH
"Schulweg 7, 04617 Starkenberg OT Posa",,false,TH-10255,50.98472,12.3125,Staatliche Grundschule Posa,10255,03448/3339,Grundschule,Grundschule,TH
"Straße des Friedens 4, 99338 Plaue",,false,TH-10764,50.778923,10.90667,Staatliche Grundschule Plaue,10764,036207/56264,Grundschule,Grundschule,TH
"Weimarer Str. 9, 99510 Ilmtal-Weinstraße",,false,TH-10512,51.058776,11.438056,Staatliche Grundschule Pfiffelbach,10512,036462/90020,Grundschule,Grundschule,TH
"Petersdorfstraße 24, 99735 Nordhausen",,false,TH-15410,51.505,10.79111,Staatliche Grundschule Petersdorf,15410,03631/898567,Grundschule,Grundschule,TH
"Schleizer Str. 29, 07907 Oettersdorf",,false,TH-15665,50.595979,11.819213,Staatliche Grundschule Oettersdorf,15665,03663 422325,Grundschule,Grundschule,TH
"Stadtlengsfelder Str. 94, 36404 Oechsen",,false,TH-11385,50.745879,10.066279,Staatliche Grundschule Oechsen,11385,036965/64229,Grundschule,Grundschule,TH
"Sondershäuser Straße 105, 99735 Nohra",,false,TH-15497,51.433264,10.696335,Staatliche Grundschule Nohra,15497,036334/53320,Grundschule,Grundschule,TH
"Schulstraße 8, 04603 Nobitz",,false,TH-10225,50.975494,12.486736,Staatliche Grundschule Nobitz,10225,03447/375209,Grundschule,Grundschule,TH
"Weimarische Straße 42, 99428 Niederzimmern",,false,TH-17872,51.005084,11.198153,Staatliche Grundschule Niederzimmern,17872,0151-74112195,Grundschule,Grundschule,TH
"Bahnhofstraße 70, 37355 Niederorschel",,false,TH-18246,51.37676,10.4196,Staatliche Grundschule Niederorschel,18246,036076/51310,Grundschule,Grundschule,TH
"Auf dem Dohlenberg 3, 07806 Neustadt a.d.Orla",,false,TH-15640,50.72781,11.714771,Staatliche Grundschule Neunhofen,15640,036481/22150,Grundschule,Grundschule,TH
"An der Schule 2, 96524 Neuhaus-Schierschnitz",,false,TH-17302,50.31398,11.241033,Staatliche Grundschule Neuhaus-Schierschnitz,17302,036764/72417,Grundschule,Grundschule,TH
"Apelsbergstr. 58, 98724 Neuhaus",,false,TH-17269,50.509544,11.147906,Staatliche Grundschule Neuhaus,17269,03679/722019,Grundschule,Grundschule,TH
"Ortsstraße 119, 07973 Naitschau",,false,TH-12914,50.6287848,12.1416715,Staatliche Grundschule Naitschau,12914,036625/20283,Grundschule,Grundschule,TH
"Straße des Friedens 15, 99192 Nesse- Apfelstädt- Gemeinde",,false,TH-12673,50.910322,10.908757,Staatliche Grundschule Neudietendorf,12673,036202/81368,Grundschule,Grundschule,TH
"Kleine Schlossstraße 5A, 07589 Münchenbernsdorf",,false,TH-12237,50.820794,11.933099,Staatliche Grundschule Münchenbernsdorf,12237,036604/2229,Grundschule,Grundschule,TH
"Goethestraße 22, 07987 Mohlsdorf-Teichwolframsdor",,false,TH-13078,50.672537,12.262709,Staatliche Grundschule Mohlsdorf,13078,03661/42583,Grundschule,Grundschule,TH
"Pestalozzistr. 26, 04610 Meuselwitz",,false,TH-10149,51.046125,12.30386,Staatliche Grundschule Meuselwitz,10149,03448/2456,Grundschule,Grundschule,TH
"Hauptstr. 80, 98746 Meuselbach-Schwarzmühle",,false,TH-15153,50.573238,11.093184,Staatliche Grundschule Meuselbach,15153,036705/60395,Grundschule,Grundschule,TH
"Schulstraße 15, 96528 Frankenblick",,false,TH-17376,50.410006,11.117278,Staatliche Grundschule Mengersgereuth-Hämmern,17376,03675/746164,Grundschule,Grundschule,TH
"Schulstraße 2, 98693 Martinroda",,false,TH-13905,50.720116,10.89098,Staatliche Grundschule Martinroda,13905,03677/790583,Grundschule,Grundschule,TH
"Schulstraße 1, 99310 Wipfratal",,false,TH-10736,50.82156,11.015517,"Staatliche Grundschule Marlishausen, Europaschule",10736,03628/600310,Grundschule,Grundschule,TH
"Straße der Bauarbeiter 1 a, 04613 Lucka",,false,TH-10118,51.091888,12.33209,Staatliche Grundschule Lucka,10118,034492/22239,Grundschule,Grundschule,TH
"Karl-Marx-Str. 22, 07356 Bad Lobenstein",,false,TH-14429,50.456463,11.637022,"Staatliche Grundschule Lobenstein, Medienschule",14429,036651/2486,Grundschule,Grundschule,TH
"Am Löhmberg 23a, 07338 Leutenberg",,false,TH-16054,50.5663191,11.4538714,Staatliche Grundschule Leutenberg,16054,036734/234999,Grundschule,Grundschule,TH
"Legefelder Hauptstraße 20, 99428 Weimar",,false,TH-17843,50.932908,11.292168,Staatliche Grundschule Legefeld,17843,03643/909105,Grundschule,Grundschule,TH
"Kirchstr. 45, 98724 Lauscha",,false,TH-15093,50.479753,11.164224,Staatliche Grundschule Lauscha,15093,036702/20353,Grundschule,Grundschule,TH
"Ortsstr. 87, 07381 Langenorla",,false,TH-15617,50.741682,11.581961,Staatliche Grundschule Langenorla,15617,03647/412004,Grundschule,Grundschule,TH
"Poststraße 6, 37359 Küllstedt",,false,TH-18160,51.275067,10.281654,Staatliche Grundschule Küllstedt,18160,036075 / 54 656,Grundschule,Grundschule,TH
"Wielandstraße 15, 99510 Ilmtal-Weinstraße",,false,TH-10495,51.05,11.4333,Staatliche Grundschule Kromsdorf/Oßmannstedt (Verbund),10495,036462/32280,Grundschule,Grundschule,TH
"Bahnhofstr. 1, 07426 Königsee",,false,TH-15827,50.661767,11.099993,"Staatliche Grundschule Königsee, Goetheschule",15827,036738/42496,Grundschule,Grundschule,TH
"Riethstraße 5, 37339 Kirchworbis",,false,TH-18157,51.410382,10.395965,Staatliche Grundschule Kirchworbis,18157,036074/94887,Grundschule,Grundschule,TH
"Arnstädter Str. 78a, 99334 Kirchheim",,true,TH-10735,50.880111,11.015554,Staatliche Grundschule Kirchheim,10735,036200/61996,Grundschule,Grundschule,TH
"Gartenstraße 19, 99198 Erfurt",,false,TH-11922,51.00427,11.097299,Staatliche Grundschule Kerspleben,11922,036203/51246,Grundschule,Grundschule,TH
"Straße des Friedens 29, 07338 Kaulsdorf",,false,TH-16037,50.618386,11.432632,Staatliche Grundschule Kaulsdorf,16037,036733/23090 und 036733/ 23190,Grundschule,Grundschule,TH
"Neuhäuser Str. 18, 98746 Katzhütte",,false,TH-15077,50.552539,11.054508,Staatliche Grundschule Katzhütte,15077,036781/37693,Grundschule,Grundschule,TH
"Brunkelstraße 1a, 99988 Diedorf",,true,TH-14822,51.177143,10.278432,Staatliche Grundschule Katharinenberg,14822,036024/88291,Grundschule,Grundschule,TH
"Bäckerweg  9, 07334 Kamsdorf",,true,TH-16071,50.646053,11.443102,Staatliche Grundschule Kamsdorf,16071,03671/645227 oder 03671/4603950,Grundschule,Grundschule,TH
"Obertorstr. 20, 98634 Kaltenwestheim",,false,TH-14639,50.607776,10.113071,Staatliche Grundschule Kaltenwestheim,14639,036946/20725,Grundschule,Grundschule,TH
"Schaufelhammer 8, 98631 Grabfeld",,false,TH-14613,50.47991,10.500439,Staatliche Grundschule Jüchsen,14613,036947/50573,Grundschule,Grundschule,TH
"Schröderstraße 35, 99768 Harztor OT Ilfeld",,false,TH-15363,51.576585,10.781401,Staatliche Grundschule Ilfeld,15363,036331/31916,Grundschule,Grundschule,TH
"Waldstr. 11, 98646 Hildburghausen",,false,TH-13438,50.430677,10.722684,Staatliche Grundschule I Hildburghausen,13438,03685/704323,Grundschule,Grundschule,TH
"Am Rasenweg 4, 99976 Dünwald",,false,TH-14879,51.328348,10.438994,Staatliche Grundschule Hüpstedt,14879,036076/59631,Grundschule,Grundschule,TH
"Mühlweg 4, 07570 Weida OT Hohenölsen",,false,TH-12374,50.7373,12.082973,Staatliche Grundschule Hohenölsen,12374,036603 62750,Grundschule,Grundschule,TH
"Thalebraer Straße 5, 99706 Sondershausen",,false,TH-17149,51.306403,10.810934,Staatliche Grundschule Hohenebra,17149,036020/73055,Grundschule,Grundschule,TH
"Karl-Marx-Straße 7, 07958 Hohenleuben",,false,TH-18367,50.709566,12.053908,Staatliche Grundschule Hohenleuben,18367,036622/7079,Grundschule,Grundschule,TH
"Waldauer Straße 27, 98553 Nahetal-Waldau",,false,TH-17602,50.518525,10.801595,Staatliche Grundschule Hinternah,17602,036841/47814,Grundschule,Grundschule,TH
"Schötener Str. 142, 99510 Apolda",,false,TH-10481,51.002144,11.492018,Staatliche Grundschule Herressen-Sulzbach,10481,036465/40221,Grundschule,Grundschule,TH
"Solzer Straße 3, 98617 Meiningen OT Herpf",,false,TH-14642,50.579129,10.33248,Staatliche Grundschule Herpf,14642,036943/63722,Grundschule,Grundschule,TH
"Hauptstr. 1, 98617 Henneberg",,false,TH-14669,50.488858,10.356607,Staatliche Grundschule Henneberg,14669,036945/50170,Grundschule,Grundschule,TH
"Straße der Einheit 55, 98663 Hellingen",,false,TH-13588,50.25,10.68306,Staatliche Grundschule Hellingen,13588,036871/29514,Grundschule,Grundschule,TH
"Friedrich-Ludwig-Jahn-Stra, 98529 Suhl",,false,TH-19211,50.60088,10.655354,Staatliche Grundschule Heinrichs,19211,03681/709770,Grundschule,Grundschule,TH
"Gartensiedlung 1, 99441 Großschwabhausen",,false,TH-17929,50.935863,11.486335,Staatliche Grundschule Großschwabhausen / Magdala (Verbund),17929,036454-50255,Grundschule,Grundschule,TH
"Breite Straße 2, 99195 Großrudestedt",,false,TH-11919,51.093095,11.098056,Staatliche Grundschule Großrudestedt,11919,036204 77717,Grundschule,Grundschule,TH
"Gartenstraße 218a, 99100 Großfahner",,false,TH-12404,51.056133,10.82936,Staatliche Grundschule Großfahner,12404,036206/23210,Grundschule,Grundschule,TH
"Schulstr. 8, 99991 Großengottern",,false,TH-14819,51.14865,10.563903,Staatliche Grundschule Großengottern,14819,036022/96224,Grundschule,Grundschule,TH
"Neustadt 47, 99718 Greussen",,false,TH-17016,51.231014,10.952797,Staatliche Grundschule Greußen,17016,03636/703670,Grundschule,Grundschule,TH
"Am Zaschberg 9, 07973 Greiz",,true,TH-12927,50.668711,12.21916,Staatliche Grundschule Greiz-Pohlitz,12927,03661/41221,Grundschule,Grundschule,TH
"Schulstr. 6, 98701 Großbreitenbach",,false,TH-13708,50.581312,11.009295,Staatliche Grundschule Großbreitenbach,13708,036781/41778,Grundschule,Grundschule,TH
"Hainberstraße  3, 07973 Greiz",,false,TH-12870,50.65472,12.19972,Staatliche Grundschule Greiz-Irchwitz,12870,03661/671006,Grundschule,Grundschule,TH
"Gebersdorfer Str. 8, 98743 Gräfenthal",,false,TH-15063,50.525824,11.301273,Staatliche Grundschule Gräfenthal,15063,036703/80250,Grundschule,Grundschule,TH
"Waldenburger Str. 43, 04639 Gössnitz",,false,TH-16607,50.888967,12.437838,Staatliche Grundschule Gößnitz,16607,034493/38611,Grundschule,Grundschule,TH
"Heinrich-Heine-Str. 358, 99765 Görsbach",,false,TH-15320,51.462656,10.933492,Staatliche Grundschule Görsbach,15320,036333/70353,Grundschule,Grundschule,TH
"Karl-Marx-Str. 2, 99869 Goldbach",,false,TH-12524,50.991221,10.658382,Staatliche Grundschule Goldbach,12524,036255/81117,Grundschule,Grundschule,TH
"Gutshof 19a, 98716 Geschwenda",,false,TH-13874,50.730975,10.824282,Staatliche Grundschule Geschwenda,13874,036205/76304,Grundschule,Grundschule,TH
"Schulstraße 11, 37339 Gernrode",,false,TH-18203,51.394668,10.398341,Staatliche Grundschule Gernrode,18203,036076/59410,Grundschule,Grundschule,TH
"Lobensteiner Straße 10, 07926 Gefell",,false,TH-16145,50.438622,11.85632,Staatliche Grundschule Gefell,16145,036649/82286,Grundschule,Grundschule,TH
"Schulstr. 54, 99189 Gebesee",,false,TH-11905,51.114935,10.934316,"Staatliche Grundschule Gebesee, Laurentius-Schule GeRA-Aue",11905,036201/62121,Grundschule,Grundschule,TH
"Am Wachhügel 14, 07570 Harth-Pöllnitz OT Frießnitz",,false,TH-12390,50.779191,11.993969,Staatliche Grundschule Frießnitz,12390,036603/62641,Grundschule,Grundschule,TH
"Reichenhäuser Straße 23, 98634 Frankenheim",,false,TH-14612,50.546552,10.06954,Staatliche Grundschule Frankenheim,14612,036946/32010,Grundschule,Grundschule,TH
"Alte Eisenacher Straße 55, 99819 Marksuhl",,false,TH-11126,50.942995,10.245086,Staatliche Grundschule Förtha,11126,036925/61640,Grundschule,Grundschule,TH
"Schulstr. 12, 96524 Föritz",,false,TH-17256,50.336755,11.241047,Staatliche Grundschule Föritz,17256,03675/744357,Grundschule,Grundschule,TH
"Schulstraße 4, 98593 Floh-Seligenthal",,false,TH-16341,50.7576,10.481588,Staatliche Grundschule Floh,16341,03683/647650,Grundschule,Grundschule,TH
"Straße der Jugend 3, 98553 St. Kilian OT Erlau",,false,TH-17599,50.540545,10.751523,Staatliche Grundschule Erlau,17599,036841/48207,Grundschule,Grundschule,TH
"Bukarester Str. 4, 99091 Erfurt",,true,TH-18726,51.012602,10.999683,"Staatliche Grundschule Erfurt, Grundschule ""An der Geraaue""",18726,0361/7923150,Grundschule,Grundschule,TH
"Am Langen Feld 10, 99880 Waltershausen OT Schwarzhausen",,false,TH-12690,50.902115,10.466546,Staatliche Grundschule Emsetal,12690,036259/51253,Grundschule,Grundschule,TH
"Andenhäuser Str. 2, 36452 Empfertshausen",,false,TH-11147,50.665861,10.092718,Staatliche Grundschule Empfertshausen,11147,036964/93105,Grundschule,Grundschule,TH
"Weihbach 10, 98673 Eisfeld",,false,TH-13441,50.424155,10.904839,"Staatliche Grundschule Eisfeld, Medienschule",13441,03686/322632,Grundschule,Grundschule,TH
"Augustusstraße 23, 37359 Effelder",,false,TH-17975,51.238099,10.243186,Staatliche Grundschule Effelder,17975,036075/54621,Grundschule,Grundschule,TH
"Hersfelder Straße 9, 36460 Krayenberggemeinde OT Dorndorf",,false,TH-11139,50.8333,10.0833,Staatliche Grundschule Dorndorf,11139,036963/21582,Grundschule,Grundschule,TH
"Oberwirbacher Weg 1, 07422 Saalfelder Höhe",,false,TH-15800,50.636217,11.258378,Staatliche Grundschule Dittrichshütte,15800,036741/2241,Grundschule,Grundschule,TH
"Schloßplatz 3, 99837 Dippach",,false,TH-11512,50.919582,10.04622,Staatliche Grundschule Dippach,11512,036922/30918,Grundschule,Grundschule,TH
"Hauptstr. 93, 37355 Deuna",,false,TH-17959,51.35476,10.483078,Staatliche Grundschule Deuna,17959,036076/44741,Grundschule,Grundschule,TH
"Bahnhofstr. 54, 36466 Dermbach",,false,TH-11112,50.709361,10.123124,Staatliche Grundschule Dermbach,11112,036964/95004,Grundschule,Grundschule,TH
"Klosterstraße 34a, 99831 Creuzburg",,false,TH-11486,51.055189,10.250038,Staatliche Grundschule Creuzburg,11486,036926/82433,Grundschule,Grundschule,TH
"Pfarrer-Wiegel-Straße 5, 36419 Buttlar",,false,TH-11335,50.755617,9.954356,Staatliche Grundschule Buttlar,11335,036967/70675,Grundschule,Grundschule,TH
"Schulstraße 2, 98596 Brotterode-Trusetal",,false,TH-16325,50.824173,10.44141,Staatliche Grundschule Brotterode,16325,036840 / 32313,Grundschule,Grundschule,TH
"Halle-Kasseler- Str. 4, 37339 Breitenworbis",,false,TH-17962,51.410393,10.423551,Staatliche Grundschule Breitenworbis,17962,036074/94181,Grundschule,Grundschule,TH
"Schleusinger Str. 30, 98673 Brattendorf",,false,TH-13574,50.469782,10.851906,Staatliche Grundschule Brattendorf,13574,036878/61224,Grundschule,Grundschule,TH
"Am Schulberg 4, 07554 Brahmenau",,false,TH-12827,50.9226,12.154737,Staatliche Grundschule Brahmenau,12827,036695/20567,Grundschule,Grundschule,TH
"Bergstr. 9, 06571 Bottendorf",,false,TH-10945,51.307166,11.402081,Staatliche Grundschule Bottendorf,10945,034672/65103,Grundschule,Grundschule,TH
"Hauptstr. 31a, 37308 Bodenrode",,false,TH-13228,51.399415,10.210446,Staatliche Grundschule Bodenrode,13228,03606/612009,Grundschule,Grundschule,TH
"Lindenstraße 1, 99837 Berka a.d. Werra",,false,TH-11499,50.939062,10.071026,Staatliche Grundschule Berka/Werra,11499,036922/31661,Grundschule,Grundschule,TH
"Schulstraße 5, 99826 Berka v. d. Hainich",,false,TH-11498,51.04437,10.385572,"Staatliche Grundschule Berka vor dem Hainich, Umweltschule in Europa",11498,036924/42473,Grundschule,Grundschule,TH
"Bahnhofstraße 15, 07980 Berga/Elster",,false,TH-13048,50.750201,12.160866,Staatliche Grundschule Berga,13048,036623/20041,Grundschule,Grundschule,TH
"Schulstraße 9, 98554 Benshausen",,false,TH-17570,50.64529,10.596444,Staatliche Grundschule Benshausen,17570,036843/60225,Grundschule,Grundschule,TH
"Steinweg 12, 98631 Grabfeld OT Behrungen",,false,TH-14552,50.409837,10.413328,Staatliche Grundschule Behrungen,14552,036944/52671,Grundschule,Grundschule,TH
"Krautweg 6, 98630 Römhild OT Bedheim",,false,TH-13425,50.388102,10.65889,"Staatliche Grundschule Bedheim ""Kneipp-Schule""",13425,03685/407028,Grundschule,Grundschule,TH
"Schulplatz, 36456 Barchfeld",,false,TH-11109,50.799379,10.299144,Staatliche Grundschule Barchfeld,11109,036961/44140,Grundschule,Grundschule,TH
"Zeulenrodaer Str. 18a, 07955 Auma",,false,TH-18337,50.69554,11.905041,Staatliche Grundschule Auma,18337,036626/20357,Grundschule,Grundschule,TH
"Struther Straße 4, 99976 Anrode",,false,TH-14836,51.249603,10.346162,Staatliche Grundschule Anrode,14836,036023/50950,Grundschule,Grundschule,TH
"Schulstraße 5, 07639 Weißenborn",,false,TH-11799,50.92257,11.879475,Staatliche Grundschule am Mühltal Weißenborn,11799,036601/ 83263,Grundschule,Grundschule,TH
"Am Freibad 1, 04626 Altkirchen",,false,TH-16581,50.93157,12.344584,Staatliche Grundschule Altkirchen,16581,034491/26255,Grundschule,Grundschule,TH
"Platanenstr. 5a, 04600 Altenburg",,false,TH-10105,50.980507,12.447588,Staatliche Grundschule Altenburg,10105,03447/311138,Grundschule,Grundschule,TH
"Ziolkowskistraße 14, 98693 Ilmenau",,true,TH-13738,50.695039,10.925631,"Staatliche Grundschule ""Ziolkowski"" Ilmenau",13738,03677/871863,Grundschule,Grundschule,TH
"Wilhelm-Busch-Str. 34, 99099 Erfurt",,false,TH-18576,50.967468,11.049536,"Staatliche Grundschule ""Wilhelm Busch"" Erfurt",18576,0361/3731385,Grundschule,Grundschule,TH
"Holbeinstr. 16, 37308 Heilbad Heiligenstadt",,false,TH-13201,51.384002,10.140316,"Staatliche Grundschule ""Tilman Riemenschneider"" Heiligenstadt",13201,03606/605012,Grundschule,Grundschule,TH
"Hauptstraße 1, 99094 Erfurt",,false,TH-18667,50.924951,10.991661,"Staatliche Grundschule ""Thomas Müntzer"" Möbisburg",18667,0361/7968155,Grundschule,Grundschule,TH
"Weidenstr. 42, 99755 Hohenstein",,false,TH-15377,51.558485,10.590248,"Staatliche Grundschule ""Thomas Müntzer"" Klettenberg",15377,036336/56201,Grundschule,Grundschule,TH
"Nordstraße 1b, 98708 Gehren",,false,TH-13831,50.650628,11.003294,"Staatliche Grundschule ""Thomas Müntzer"" Gehren",13831,036783 / 87715,Grundschule,Grundschule,TH
"Süffig 9a, 98597 Fambach",,false,TH-16389,50.737126,10.372574,"Staatliche Grundschule ""Thomas Müntzer"" Fambach",16389,036848/22521,Grundschule,Grundschule,TH
"Hallesche Str. 18A, 99085 Erfurt",,false,TH-18473,50.984413,11.048469,"Staatliche Grundschule ""Thomas Mann"" Erfurt",18473,0361/6421527,Grundschule,Grundschule,TH
"Am Schulberg 6, 04626 Löbichau",,false,TH-16608,50.893435,12.267286,"Staatliche Grundschule ""Theodor Körner"" Großstechau",16608,034496/22300,Grundschule,Grundschule,TH
"Stiebritz 29, 07778 Hainichen",,false,TH-14042,50.997753,11.60052,"Staatliche Grundschule ""Talblick"" Stiebritz",14042,036427/22512,Grundschule,Grundschule,TH
"Brentanostraße 1, 99947 Bad Langensalza",,false,TH-14189,51.118146,10.64716,"Staatliche Grundschule ""Sonnenhof"" Bad Langensalza",14189,03603/846307,Grundschule,Grundschule,TH
"Hausberg 5, 07768 Orlamünde",,false,TH-14090,50.771265,11.51424,"Staatliche Grundschule ""Saaleblick"" Orlamünde",14090,036423/22283,Grundschule,Grundschule,TH
"Hintergasse 23, 37308 Geismar",,false,TH-13258,51.232631,10.16707,"Staatliche Grundschule ""Regenbogen"" Geismar",13258,036082/40306,Grundschule,Grundschule,TH
"Postweg 11, 99752 Bleicherode",,false,TH-15290,51.437835,10.575402,"Staatliche Grundschule ""Professor Dr. A. H. Petermann"" Bleicherode",15290,036338/63534,Grundschule,Grundschule,TH
"Wilhelm-Bock-Str. 18, 99867 Gotha",,false,TH-12480,50.955589,10.700132,"Staatliche Grundschule ""Peter Andreas Hansen"" Gotha",12480,03621/852542,Grundschule,Grundschule,TH
"Gutenbergstraße 1, 07548 Gera",,false,TH-18820,50.883332,12.069705,"Staatliche Grundschule ""Otto Dix"" Gera",18820,0365/26261,Grundschule,Grundschule,TH
"Segelteichstr. 36, 99706 Sondershausen",,false,TH-17032,51.368219,10.887324,"Staatliche Grundschule ""Östertal"" Sondershausen",17032,03632/ 600983,Grundschule,Grundschule,TH
"Gräfenbrücker Str. 6a, 07570 Weida",,false,TH-12344,50.769769,12.060126,"Staatliche Grundschule ""Osterburg"" Weida",12344,036603/43677,Grundschule,Grundschule,TH
"Im Kirchfeld 1- 4, 07646 Schlöben",,false,TH-17495,50.893799,11.691269,"Staatliche Grundschule ""Novalis"" Schlöben",17495,036428/ 42938,Grundschule,Grundschule,TH
"Hüpedenweg 48, 99734 Nordhausen",,false,TH-15287,51.49823,10.770758,"Staatliche Grundschule ""Niedersalza"" Nordhausen",15287,03631/900235,Grundschule,Grundschule,TH
"Heugasse 1, 99820 Hörselberg-Hainich",,false,TH-11652,50.983379,10.428625,"Staatliche Grundschule ""Nessetal"" Wenigenlupnitz",11652,036920/80329,Grundschule,Grundschule,TH
"Goetheweg 15, 07646 Stadtroda",,false,TH-17470,50.860695,11.732929,"Staatliche Grundschule ""Milo Barus"" Stadtroda",17470,036428/62219,Grundschule,Grundschule,TH
"Wiesenstr. 23, 07607 Eisenberg",,false,TH-11742,50.969299,11.891705,"Staatliche Grundschule ""Martin Luther"" Eisenberg, Ganztagsschule (offene Form)",11742,036691 / 42642,Grundschule,Grundschule,TH
"Forstgasse 4, 98544 Zella-Mehlis",,false,TH-17719,50.654102,10.668698,"Staatliche Grundschule ""Martin Luther "" Zella-Mehlis",17719,03682/482036 bis Febr. 17,Grundschule,Grundschule,TH
"Reinhardtstraße 24, 07318 Saalfeld",,false,TH-15947,50.642514,11.358832,"Staatliche Grundschule ""Marco Polo"" Saalfeld",15947,03671/531160,Grundschule,Grundschule,TH
"Leipziger Str. 20, 98617 Meiningen",,true,TH-14522,50.577805,10.416652,"Staatliche Grundschule ""Ludwig Chronegk"" Meiningen",14522,03693/503612,Grundschule,Grundschule,TH
"Jerusalemer Straße 15, 98617 Meiningen",,false,TH-14567,50.591804,10.414089,"Staatliche Grundschule ""Ludwig Bechstein"" Meiningen",14567,03693/75233,Grundschule,Grundschule,TH
"Rohstr. 4, 36448 Bad Liebenstein",,false,TH-11155,50.817345,10.347995,"Staatliche Grundschule ""Ludwig Bechstein"" Bad Liebenstein",11155,036961/7 23 13,Grundschule,Grundschule,TH
"Prof.-Frosch-Str. 26, 99310 Arnstadt",,false,TH-10615,50.83417,10.94639,"Staatliche Grundschule ""Ludwig Bechstein"" Arnstadt",10615,03628/661209,Grundschule,Grundschule,TH
"Bonhoefferstraße 26, 99427 Weimar",,true,TH-19361,50.996328,11.314533,"Staatliche Grundschule ""Lucas Cranach"" Weimar",19361,03643/418712,Grundschule,Grundschule,TH
"Bodelschwinghstraße 78, 99425 Weimar",,false,TH-19417,50.973579,11.343509,"Staatliche Grundschule ""Louis Fürnberg"" Weimar",19417,03643 / 90 52 13,Grundschule,Grundschule,TH
"Schulstr. 26, 98639 Walldorf",,false,TH-16328,50.611079,10.386041,"Staatliche Grundschule ""Landsbergblick"" Walldorf",16328,03693/801330,Grundschule,Grundschule,TH
"Setzelbacher Straße 3, 36419 Geismar",,false,TH-11340,50.684163,9.926651,"Staatliche Grundschule ""Konstantin Gutberlet"" Geismar",11340,036967/71014,Grundschule,Grundschule,TH
"Geschwister-Scholl-Straße 6, 37327 Leinefelde-Worbis",,false,TH-18113,51.386318,10.324463,"Staatliche Grundschule ""Konrad Hentrich"" Leinefelde",18113,03605/512460,Grundschule,Grundschule,TH
"Dorfstr. 92, 07751 Milda",,false,TH-14086,50.855718,11.459931,"Staatliche Grundschule ""Kleine Europäer"" Milda",14086,036422/22239,Grundschule,Grundschule,TH
"Alexander-Puschkin-Promena, 99706 Sondershausen",,false,TH-17182,51.3145661,10.8537224,"Staatliche Grundschule ""Käthe Kollwitz"" Sondershausen",17182,03632/702323,Grundschule,Grundschule,TH
"Lindenstraße 18, 99326 Ilmtal",,false,TH-10781,50.736393,11.037086,"Staatliche Grundschule ""Karl-Friedrich-Wilhelm-Wa",10781,03629/800306,Grundschule,Grundschule,TH
"Wilhelm-Nebelung-Str. 44, 99734 Nordhausen",,false,TH-15227,51.505932,10.799173,"Staatliche Grundschule ""Käthe Kollwitz"" Nordhausen",15227,03631/982005,Grundschule,Grundschule,TH
"Karl-Zink-Str. 18, 98693 Ilmenau",,false,TH-13681,50.685294,10.911328,"Staatliche Grundschule ""Karl Zink"" Ilmenau",13681,03677/204939,Grundschule,Grundschule,TH
"Straße der Jugend 46, 07349 Lehesten",,false,TH-14492,50.477079,11.44369,"Staatliche Grundschule ""Karl Oertel"" Lehesten",14492,036653/22290,Grundschule,Grundschule,TH
"Am Tivoli 18, 99867 Gotha",,false,TH-12493,50.944178,10.700476,"Staatliche Grundschule ""Josias Friedrich Löffler"" Gotha, Europaschule",12493,03621/852755,Grundschule,Grundschule,TH
"Rathenauplatz 3, 99423 Weimar",,false,TH-19391,50.986654,11.325952,"Staatliche Grundschule ""Johannes Falk"" Weimar",19391,03643/905335,Grundschule,Grundschule,TH
"Marienstr. 12-14, 07973 Greiz",,false,TH-12824,50.65472,12.19972,"Staatliche Grundschule ""Johann Wolfgang Goethe"" Greiz",12824,03661/3192,Grundschule,Grundschule,TH
"Am Plan  1, 99310 Arnstadt",,false,TH-10602,50.83281,10.943855,"Staatliche Grundschule ""Johann Sebastian Bach"" Arnstadt",10602,03628/601541,Grundschule,Grundschule,TH
"Hofgraben 6, 98704 Langewiesen",,false,TH-13858,50.672669,10.975928,"Staatliche Grundschule ""Johann Jacob Wilhelm Heinse"" Langewiesen",13858,03677/812155,Grundschule,Grundschule,TH
"Böttgerstraße, 07907 Schleiz",,false,TH-16264,50.5746064,11.80708,"Staatliche Grundschule ""Johann Friedrich Böttger"" Schleiz, Umweltschule in Europa - Internationale Agenda 21 Schule",16264,03663/423372,Grundschule,Grundschule,TH
"Planckstraße 9, 37327 Leinefelde-Worbis",,false,TH-18083,51.378073,10.323701,"Staatliche Grundschule ""Johann Carl Fuhlrott"" Leinefelde",18083,03605/54260,Grundschule,Grundschule,TH
"Rudolf-Breitscheid-Str. 26, 07629 Hermsdorf",,false,TH-17436,50.908016,11.85427,"Staatliche Grundschule ""In der Waldsiedlung"" Hermsdorf",17436,036601/82858,Grundschule,Grundschule,TH
"Goethestraße 7, 99869 Friemar",,false,TH-12537,50.976623,10.787263,"Staatliche Grundschule ""Immertal"" Friemar",12537,036258/50349,Grundschule,Grundschule,TH
"Schmiedehäuser Str. 23, 07774 Camburg",,true,TH-14012,51.055443,11.700736,"Staatliche Grundschule ""Im Saaletal"" Camburg",14012,Sekretariat: 036421/22867 Hort:: 036421/23843,Grundschule,Grundschule,TH
"Mittelau 8, 37318 Lutter",,false,TH-13365,51.33222,10.11528,"Staatliche Grundschule ""Im Luttertal""",13365,036083/42475,Grundschule,Grundschule,TH
"Bürgelsche Straße 16, 07751 Golmsdorf",,false,TH-14043,50.931938,11.656824,"Staatliche Grundschule ""Im Gleistal"" Golmsdorf",14043,036427/22319,Grundschule,Grundschule,TH
"Schulstr. 1, 37345 Am Ohmberg",,false,TH-18187,51.477043,10.486288,"Staatliche Grundschule ""Im Bodetal"" Großbodungen",18187,036077/20618,Grundschule,Grundschule,TH
"Schulstraße 1, 07646 Tröbnitz",,false,TH-17479,50.837474,11.722387,"Staatliche Grundschule ""Hügelland"" Tröbnitz",17479,036428/ 42906,Grundschule,Grundschule,TH
"Schulstr. 2, 99880 Mechterstädt",,false,TH-12660,50.942604,10.525485,"Staatliche Grundschule ""Hörseltal"" Mechterstädt",12660,03622/902531,Grundschule,Grundschule,TH
"Rosa-Luxemburg-Straße 9, 07607 Eisenberg",,false,TH-11725,50.967863,11.908453,"Staatliche Grundschule ""Herzog Christian"" Eisenberg",11725,036691/42435,Grundschule,Grundschule,TH
"Kirchgasse 3a, 07639 Bad Klosterlausnitz",,false,TH-17452,50.915502,11.869344,"Staatliche Grundschule ""Hermann Sachse"" Bad Klosterlausnitz",17452,036601/80062,Grundschule,Grundschule,TH
"Jenaische Straße 46, 07407 Uhlstädt-Kirchhasel",,true,TH-15856,50.741205,11.469458,"Staatliche Grundschule ""Heinrich Heine"" Uhlstädt, offene Ganztagsschule",15856,036742/62372,Grundschule,Grundschule,TH
"Schulstr. 3, 07613 Heideland",,false,TH-11815,51.002723,11.908512,"Staatliche Grundschule ""Heinrich Heine"" Königshofen",11815,036691/46031,Grundschule,Grundschule,TH
"Dammstraße  37, 07749 Jena",,false,TH-19001,50.934222,11.597757,"Staatliche Grundschule ""Heinrich Heine"" Jena",19001,03641/443976,Grundschule,Grundschule,TH
"Querstr. 2a, 99189 Walschleben",,true,TH-16774,51.066816,10.935291,"Staatliche Grundschule ""Hans Christian Andersen"" Walschleben",16774,036201/62562,Grundschule,Grundschule,TH
"Dr.-Salvador-Allende-Str. 7, 99880 Waltershausen",,false,TH-12720,50.886348,10.573507,"Staatliche Grundschule ""GutsMuths"" Waltershausen",12720,03622/905912,Grundschule,Grundschule,TH
"Schloßgasse 24, 99428 Isseroda",,false,TH-17839,50.957831,11.21407,"Staatliche Grundschule ""Grammetal""",17839,03643/825215,Grundschule,Grundschule,TH
"Carolinenstraße 39, 07973 Greiz",,false,TH-12837,50.651787,12.196873,"Staatliche Grundschule ""Gotthold Ephraim Lessing"" Greiz",12837,03661/2137,Grundschule,Grundschule,TH
"Lessingstraße 30, 99510 Apolda",,true,TH-10332,51.025361,11.522702,"Staatliche Grundschule ""Gotthold Ephraim Lessing"" Apolda",10332,03644/562954,Grundschule,Grundschule,TH
"Högernweg 8, 99867 Gotha",,false,TH-12421,50.945095,10.745688,"Staatliche Grundschule ""Gotha-Siebleben"", Umweltschule in Europa",12421,03621/856122,Grundschule,Grundschule,TH
"Juttastraße 1, 96515 Sonneberg",,false,TH-17272,50.362651,11.173703,"Staatliche Grundschule ""Geschwister Scholl"" Sonneberg",17272,03675-702358,Grundschule,Grundschule,TH
"Pfarrberg 4, 04639 Ponitz",,false,TH-16637,50.856161,12.426188,"Staatliche Grundschule ""Geschwister Scholl"" Ponitz, Wir sind Musikalische Grundschule Thüringen",16637,03764/2062,Grundschule,Grundschule,TH
"Rudolf-Breitscheid-Straße 5, 99765 Heringen/ Helme",,false,TH-15350,51.42549,10.929871,"Staatliche Grundschule ""Geschwister Scholl"" Heringen",15350,036333/60155,Grundschule,Grundschule,TH
"Schulstr. 36, 99100 Dachwig",,false,TH-11832,51.076881,10.854175,"Staatliche Grundschule ""Geschwister Scholl"" Dachwig",11832,036206/23166,Grundschule,Grundschule,TH
"Eisfelder Str. 35, 98553 Schleusingen",,false,TH-17675,50.508735,10.759292,"Staatliche Grundschule ""Gerhart Hauptmann"" Schleusingen",17675,036841/42426,Grundschule,Grundschule,TH
"Mittelweg 2, 99834 Gerstungen",,false,TH-11533,50.965241,10.068553,"Staatliche Grundschule ""Fritz Erbe"" Gerstungen",11533,036922/20280,Grundschule,Grundschule,TH
"Schillerstraße 21, 98544 Zella-Mehlis",,false,TH-17740,50.664315,10.657577,"Staatliche Grundschule ""Friedrich Schiller"" Zella-Mehlis",17740,03682/482943,Grundschule,Grundschule,TH
"Jungferngasse 12, 07806 Neustadt a.d.Orla",,false,TH-15604,50.737256,11.744272,"Staatliche Grundschule ""Friedrich Schiller"" Neustadt a.d. Orla",15604,036481/649987,Grundschule,Grundschule,TH
"Hugo-Schrade-Str. 3, 07745 Jena",,false,TH-19134,50.897235,11.573179,"Staatliche Grundschule ""Friedrich Schiller"" Jena, Europaschule",19134,03641/608232,Grundschule,Grundschule,TH
"Schulplatz 6, 99880 Waltershausen",,false,TH-12747,50.898992,10.555442,"Staatliche Grundschule ""Friedrich Holbein"" Waltershausen",12747,03622/902490,Grundschule,Grundschule,TH
"Sennfelder Str. 6, 36448 Bad Liebenstein/OT Schweina",,false,TH-11169,50.827157,10.336519,"Staatliche Grundschule ""Friedrich Fröbel"" Schweina",11169,036961/30827,Grundschule,Grundschule,TH
"Bähringstr. 10, 07422 Bad Blankenburg",,true,TH-15783,50.682799,11.266044,"Staatliche Grundschule ""Friedrich Fröbel"" Bad Blankenburg",15783,036741/3305,Grundschule,Grundschule,TH
"Max-Küstner-Str. 2, 99894 Friedrichroda",,false,TH-12717,50.861985,10.571913,"Staatliche Grundschule ""Friedrich Buschmann"" Friedrichroda",12717,03623/201376,Grundschule,Grundschule,TH
"Talstraße 34, 99706 Sondershausen",,false,TH-17062,51.368139,10.854701,"Staatliche Grundschule ""Franzberg"" Sondershausen, Umweltschule in Europa, Musikalische Grundschule",17062,03632-70600,Grundschule,Grundschule,TH
"Am Anger 8, 99867 Gotha",,false,TH-12507,50.94889,10.71833,"Staatliche Grundschule ""Erich Kästner"" Gotha, vom Kneipp Bund e.V. anerkannte Schule",12507,03621/707517,Grundschule,Grundschule,TH
"Triftweg 2, 37351 Dingelstädt",,false,TH-18293,51.323074,10.318536,"Staatliche Grundschule ""Erich Kästner"" Dingelstädt",18293,036075/30690,Grundschule,Grundschule,TH
"Friedensstr. 10, 07613 Crossen",,false,TH-11773,50.972503,11.975657,"Staatliche Grundschule ""Elstertal"" Crossen",11773,036693/22334,Grundschule,Grundschule,TH
"Alte Handelsstr. 89a, 96515 Judenbach",,false,TH-17332,50.39232,11.21516,"Staatliche Grundschule ""Dr. Martin Luther"" Judenbach",17332,03675/423239,Grundschule,Grundschule,TH
"Auestraße 36, 99887 Georgenthal",,false,TH-12793,50.83463,10.664138,"Staatliche Grundschule ""Dr. Louis Mayer"" Georgenthal",12793,036253/25539,Grundschule,Grundschule,TH
"Goethestr. 32, 99310 Arnstadt",,false,TH-10645,50.834339,10.933393,"Staatliche Grundschule ""Dr. Harald Bielfeld"" Arnstadt",10645,03628/640465,Grundschule,Grundschule,TH
"Werner-Seelenbinder-Straße, 99510 Apolda",,false,TH-10388,51.028887,11.510307,"Staatliche Grundschule ""Christian Zimmermann"" Apolda",10388,03644/564573,Grundschule,Grundschule,TH
"Im Gebreite 34, 99094 Erfurt",,false,TH-18623,50.963698,10.990269,"Staatliche Grundschule ""Christian Reichart"" Erfurt",18623,0361/2227767,Grundschule,Grundschule,TH
"Bahnhofstraße 28, 99894 Leinatal /OT Schönau v.d.W.",,false,TH-12687,50.857913,10.638146,"Staatliche Grundschule ""Christian Ludwig Brehm"" Schönau v. d. Walde",12687,036253/25565,Grundschule,Grundschule,TH
"Aquilastr. 3, 07318 Saalfeld",,false,TH-15933,50.650146,11.362759,"Staatliche Grundschule ""Caspar Aquila"" Saalfeld",15933,03671/33128,Grundschule,Grundschule,TH
"Südstraße 28, 99885 Ohrdruf",,false,TH-12447,50.822048,10.729402,"Staatliche Grundschule ""Carl Eduard Meinung"" Ohrdruf",12447,03624/317875,Grundschule,Grundschule,TH
"Burgenlandallee 16, 99869 Günthersleben-Wechmar",,false,TH-12583,50.898304,10.768718,"Staatliche Grundschule ""Burgenland"" Günthersleben-Wechmar",12583,036256/2740,Grundschule,Grundschule,TH
"Schulstraße 1, 37318 Wüstheuterode",,true,TH-13335,51.323666,10.056663,"Staatliche Grundschule ""Brüder Grimm"" Wüstheuterode",13335,03608-90100,Grundschule,Grundschule,TH
"Petersberg 1, 99734 Nordhausen",,false,TH-15200,51.500198,10.796061,"Staatliche Grundschule ""Bertolt Brecht"" Nordhausen",15200,03631/902364,Grundschule,Grundschule,TH
"Am Salzacker 2, 07973 Greiz",,false,TH-12930,50.643879,12.179772,"Staatliche Grundschule ""Bertolt Brecht"" Greiz-Obergrochlitz",12930,03661/2190,Grundschule,Grundschule,TH
"Schulstraße 99a, 99310 Osthausen",,false,TH-10751,50.851817,11.100578,"Staatliche Grundschule ""Astrid Lindgren"" Osthausen, ""Bewegungsfreundliche Schule""",10751,036200/65676,Grundschule,Grundschule,TH
"Waldstraße 11a, 98646 Hildburghausen",,false,TH-13395,50.43082,10.720636,"Staatliche Grundschule ""Astrid Lindgren"" Hildburghausen",13395,03685/706665,Grundschule,Grundschule,TH
"Anton-Sommer-Straße 59, 07407 Rudolstadt",,false,TH-15767,50.719568,11.343814,"Staatliche Grundschule ""Anton Sommer"" Rudolstadt",15767,03672/420711,Grundschule,Grundschule,TH
"Ludwigstraße 19, 98660 Themar",,false,TH-13501,50.509458,10.621241,"Staatliche Grundschule ""Anne Frank"" Themar",13501,036873/20038,Grundschule,Grundschule,TH
"Große Gebind 20, 99448 Kranichfeld",,false,TH-17842,50.852775,11.198611,"Staatliche Grundschule ""Anna Sophia"" Kranichfeld",17842,03 64 50/3 99 02,Grundschule,Grundschule,TH
"Mozartstr. 17, 99867 Gotha",,false,TH-12450,50.942488,10.714337,"Staatliche Grundschule ""Andreas Reyher"" Gotha, vom Kneipp Bund e. V. anerkannte Schule",12450,03621/852911,Grundschule,Grundschule,TH
"Schulstraße 4, 36452 Kaltennordheim",,false,TH-11353,50.627808,10.162901,"Staatliche Grundschule ""Andreas Fack"" Kaltennordheim",11353,036966/84282,Grundschule,Grundschule,TH
"Am Lämmerberg 31, 99334 Amt Wachsenburg OT Holzhausen",,false,TH-10705,50.85132,10.887583,"Staatliche Grundschule ""An der Wachsenburg""",10705,03628/601537,Grundschule,Grundschule,TH
"Dorfstr. 50a, 37308 Pfaffschwende",,false,TH-13185,51.249405,10.093104,"Staatliche Grundschule ""An der Gobert"" Pfaffschwende",13185,036082/40833,Grundschule,Grundschule,TH
"Ohrdrufer Str. 48, 99330 Gräfenroda",,false,TH-10691,50.749807,10.808943,"Staatliche Grundschule ""An der Burglehne"" Gräfenroda",10691,036205/76335,Grundschule,Grundschule,TH
"Grete-Walter-Str. 7, 98630 Römhild",,false,TH-14699,50.38333,10.55,"Staatliche Grundschule ""An den Gleichbergen"" Milz",14699,036948/20310,Grundschule,Grundschule,TH
"Am Stein 3, 99846 Seebach",,false,TH-11263,50.914803,10.418346,"Staatliche Grundschule ""Am Wartberg"" Seebach",11263,"036929/64624, Sekretariat, Mo-Do von 7.45 - 12.45 Uhr",Grundschule,Grundschule,TH
"Schulstr. 18, 07751 Rothenstein",,false,TH-14068,50.848679,11.601252,"Staatliche Grundschule ""Am Trompeterfelsen"" Rothenstein",14068,036424/22500,Grundschule,Grundschule,TH
"Bergrat-Voigt-Str. 51, 98693 Ilmenau",,false,TH-13754,50.679372,10.924641,"Staatliche Grundschule ""Am Stollen"" Ilmenau",13754,03677/882017,Grundschule,Grundschule,TH
"Weg am Stadtpark 2, 07619 Schkölen",,false,TH-11755,51.039889,11.816458,"Staatliche Grundschule ""Am Stadtpark"" Schkölen",11755,036694/22302,Grundschule,Grundschule,TH
"Hauptstraße 127, 37339 Brehme",,false,TH-17989,51.49358,10.350099,"Staatliche Grundschule ""Am Sonnenstein"" Brehme",17989,036071/80208,Grundschule,Grundschule,TH
"Friedrich-Engels-Str. 2, 99510 Apolda",,false,TH-10405,51.02015,11.517,"Staatliche Grundschule ""Am Schötener Grund"" Apolda",10405,03644/562695,Grundschule,Grundschule,TH
"Hauptstraße 1b, 37318 Rustenfelde",,true,TH-13231,51.391519,10.000336,"Staatliche Grundschule ""Am Rusteberg"" Rustenfelde",13231,036081/61524,Grundschule,Grundschule,TH
"Mitteldorfstraße 1, 37339 Berlingerode",,false,TH-18066,51.458653,10.241999,"Staatliche Grundschule ""Am Rotenberg"" Berlingerode",18066,036071/96508,Grundschule,Grundschule,TH
"Karl-Marx-Str. 15b, 07381 Pößneck",,false,TH-15543,50.691346,11.580871,"Staatliche Grundschule ""Am Rosenhügel"" Pößneck",15543,03647/417600,Grundschule,Grundschule,TH
"Burgstallstr. 33, 99897 Tambach-Dietharz",,false,TH-12807,50.789391,10.609841,"Staatliche Grundschule ""Am Rennsteig"" Tambach-Dietharz",12807,036252/36394,Grundschule,Grundschule,TH
"Lange Straße 19, 37339 Leinefelde-Worbis",,false,TH-18126,51.421634,10.361243,"Staatliche Grundschule ""Am Ohmgebirge"" Worbis",18126,036074/31102,Grundschule,Grundschule,TH
"Halle-Kasseler-Str. 111, 99759 Sollstedt",,false,TH-15423,51.412578,10.525263,"Staatliche Grundschule ""Am Lohholz"" Sollstedt",15423,036338 60050,Grundschule,Grundschule,TH
"Heinrich-Hoffmann-von-Fall, 06556 Artern",,false,TH-10841,51.36667,11.3,"Staatliche Grundschule ""Am Königstuhl"" Artern",10841,03466/302243,Grundschule,Grundschule,TH
"Am Mühlacker 2, 99518 Bad Sulza",,false,TH-10421,51.086916,11.620888,"Staatliche Grundschule ""Am kleinen Weinberg"" Bad Sulza",10421,036461/20415,Grundschule,Grundschule,TH
"Theo-Neubauer-Str. 2, 36460 Krayenberggemeinde, OT Kieselbach",,false,TH-11366,50.844162,10.122979,"Staatliche Grundschule ""Am Kieselbach"" Kieselbach",11366,036963/60601,Grundschule,Grundschule,TH
"Am Hexenberg 1, 99438 Bad Berka",,false,TH-17782,50.908466,11.272497,"Staatliche Grundschule ""Am Hexenberg"" Bad Berka",17782,036458/41040,Grundschule,Grundschule,TH
"Kirchplatz 10, 37318 Gerbershausen",,false,TH-13288,51.335807,9.987967,"Staatliche Grundschule ""Am Hanstein"" Gerbershausen",13288,036081/61741,Grundschule,Grundschule,TH
"Hauptstraße 75, 99820 Hörselberg-Hainich",,false,TH-14235,51.023286,10.51963,"Staatliche Grundschule ""Am Hainich"" Behringen",14235,036254/78018,Grundschule,Grundschule,TH
"Ostrower Str. 13, 99734 Nordhausen",,false,TH-15214,51.501223,10.819563,"Staatliche Grundschule ""Am Förstemannweg"" Nordhausen",15214,03631/895301,Grundschule,Grundschule,TH
"Harpersdorfer Straße 6, 07586 Kraftsdorf",,false,TH-12224,50.878728,11.953448,"Staatliche Grundschule ""Am Erlbach"" Kraftsdorf",12224,036606/62793,Grundschule,Grundschule,TH
"Thamsbrücker Hauptstraße 18, 99947 Bad Langensalza OT Thamsbrück",,true,TH-14403,51.13957,10.639057,"Staatliche Grundschule ""Albert Schweitzer"" Thamsbrück",14403,03603/846510,Grundschule,Grundschule,TH
"Dr.-Theodor-Neubauer-Str. 2, 99734 Nordhausen",,false,TH-15244,51.505,10.79111,"Staatliche Grundschule ""Albert Kuntz"" Salza",15244,03631/974335,Grundschule,Grundschule,TH
"Albert-Schweitzer-Str. 45, 99610 Sömmerda",,false,TH-16881,51.154201,11.133794,"Staatliche Grundschule ""Adolph Diesterweg"" Sömmerda",16881,03634/621503,Grundschule,Grundschule,TH
